,index,Sample ID,DateTime (UTC),Niskin Bottle Number,Vessel,Platform,Total Suspended Solids (mg/L),Note,Observations,Start date of lab analysis,Onshore Lab Sheet Filename,Offshore Lab Sheet Filename,ROV HAIN DateTime (UTC),ROV HAIN Easting (m),ROV HAIN Northing (m),ROV HAIN Depth (m),ROV HAIN Pitch (deg),ROV HAIN Roll (deg),ROV HAIN Heading (deg),Hyperion DateTime (UTC),Hyperion Turbidity Mean (NTU),Hyperion Turbidity stdDev (NTU),Seabird CTD DateTime (UTC),Seabird CTD Temperature (C),Seabird CTD Pressure (dbar),Seabird CTD Conductivity (S/m),Seabird CTD Salinity (PSU),Seabird CTD Turbidity (NTU),Seabird CTD Light Transmission (%),Seabird CTD Beam Attenuation Coefficient,Seabird CTD Oxygen (ml/l),PCV HAIN Easting (m),PCV HAIN Northing (m),PCV HAIN Depth (m),PCV Estimated Spill (kg/s),Riser Beacon Easting (m),Riser Beacon Northing (m),Riser Beacon Depth (m),Riser Discharge Turbidity (NTU),Riser Discharge Flow (m3/hr),Riser Estimated Spill (kg/s)
0,30,HG HTR13 D1 NF,2022-09-22 14:52:00+00:00,6.0,HG,ROV,16.0,,-,2023.10.24,..\TSS_Results_2310.csv,HG_Niskin_logsheet_HTR1.3_D1_Rev4.xlsx,2022-09-22 14:51:59,478721.4090250876,1141906.591962685,-4283.705274273195,7.17,-1.02,324.19,,,,2022-09-22 14:52:00,1.4981144283044472,4353.326732494928,3.182178743826066,34.68543254713349,2.2736216525520714,95.71905722133212,0.1755181128696338,3.080117595295796,478684.7795747205,1141946.6268568083,4295.979496324626,2.392257219918088,,,,,,
1,34,HG HTR13 D1 NJ,2022-09-22 14:58:00+00:00,10.0,HG,ROV,180.0,,-,2023.10.24,..\TSS_Results_2310.csv,HG_Niskin_logsheet_HTR1.3_D1_Rev4.xlsx,2022-09-22 14:58:02,478682.8136676675,1141971.621925583,-4282.656377080811,6.78,-0.89,323.31,,,,2022-09-22 14:58:00,1.4983227645176245,4355.289459467619,3.182261360732529,34.68541664061491,1.6376065461203937,67.25480148012512,1.5880825848577926,3.0750766475777835,478653.47528626927,1142013.047002317,4295.911304741421,2.632788476050895,,,,,,
2,35,HG HTR20 D1 NA,2022-09-24 04:23:40.244000+00:00,1.0,HG,ROV,16.0,,-,2023.10.24,..\TSS_Results_2310.csv,HG_Niskin_logsheet_HTR2.0_D1_Rev4.xlsx,2022-09-24 04:23:40,478881.0332900506,1141743.9085261608,-4279.286696732669,-0.125,0.45,75.035,2022-09-24 04:23:38.322,7.837,7.837,2022-09-24 04:23:40,1.5003150385678057,4350.577911363889,3.182218120244764,34.68471676410216,2.69076516365301,70.42461036087587,1.4031158091210187,3.0376589607118567,478927.9415844432,1141685.348617033,4279.215669023907,10.731455083260874,,,,,,
3,38,HG HTR20 D1 ND,2022-09-24 04:29:03.544000+00:00,4.0,HG,ROV,25.0,,-,2023.10.24,..\TSS_Results_2310.csv,HG_Niskin_logsheet_HTR2.0_D1_Rev4.xlsx,2022-09-24 04:29:04,478930.9906636192,1141680.648926343,-4279.552895607711,1.23,0.745,74.305,2022-09-24 04:29:02.626,3.993,3.993,2022-09-24 04:29:04,1.5008098683860709,4351.37728341601,3.1822988325497272,34.684851763971494,0.1688493934538796,65.62809781033036,1.6846746164247457,3.0380486271515355,478944.5022054636,1141656.8252622045,4279.20675447611,10.714456027308737,,,,,,
4,39,HG HTR20 D1 NE,2022-09-24 04:29:39.744000+00:00,5.0,HG,ROV,49.0,,-,2023.10.24,..\TSS_Results_2310.csv,HG_Niskin_logsheet_HTR2.0_D1_Rev4.xlsx,2022-09-24 04:29:40,478932.8848177695,1141676.5781698285,-4279.675038019338,3.08,0.35,149.0,2022-09-24 04:29:37.940,34.169,34.169,2022-09-24 04:29:40,1.501291682647974,4350.949861980323,3.18220893805751,34.68342156031382,27.59165781643397,1.5990186923018233,16.543495592990467,3.0349578565752644,478946.60153865087,1141653.2607789158,4279.190800152619,10.713710987034052,,,,,,
5,40,HG HTR20 D1 NF,2022-09-24 04:30:49.846000+00:00,6.0,HG,ROV,18.0,,-,2023.10.24,..\TSS_Results_2310.csv,HG_Niskin_logsheet_HTR2.0_D1_Rev4.xlsx,2022-09-24 04:30:50,478935.4230678441,1141671.6610484037,-4279.938132551162,0.0,0.0,0.0,2022-09-24 04:30:50.041,10.267,10.267,2022-09-24 04:30:50,1.501981860050023,4352.14399340384,3.1821133462374185,34.681037613241074,21.88245662623025,5.02573990997177,11.973542873976768,3.0373546328769745,478950.3913319388,1141647.1226066172,4279.155881434504,10.697314166788468,,,,,,
6,41,HG HTR20 D1 NG,2022-09-24 04:31:16.274000+00:00,7.0,HG,ROV,29.0,,-,2023.10.24,..\TSS_Results_2310.csv,HG_Niskin_logsheet_HTR2.0_D1_Rev4.xlsx,2022-09-24 04:31:16,478936.3046127319,1141668.5802075386,-4279.98009016275,1.015,-0.16,74.745,2022-09-24 04:31:14.267,17.962,17.962,2022-09-24 04:31:16,1.502476712263615,4351.569885689065,3.182223042831863,34.68208900711986,32.2646951247425,3.2954557106889446,13.65516988651954,3.037178213294003,478952.0532676244,1141644.5030169222,4279.148403378326,10.68369128312107,,,,,,
7,42,HG HTR20 D1 NH,2022-09-24 04:31:44.163000+00:00,8.0,HG,ROV,150.0,,-,2023.10.24,..\TSS_Results_2310.csv,HG_Niskin_logsheet_HTR2.0_D1_Rev4.xlsx,2022-09-24 04:31:44,478938.2029007452,1141665.936282875,-4279.831822164245,0.0,0.0,0.0,2022-09-24 04:31:42.152,88.81,88.81,2022-09-24 04:31:44,1.5026590274177494,4352.507936037526,3.1821738046709336,34.68091156349388,64.54490798809796,0.0481653315022507,30.665261902653164,3.034774687439453,478953.1618909593,1141642.7406921426,4279.147202500951,10.680514913926975,,,,,,
8,43,HG HTR20 D1 NI,2022-09-24 04:31:54.465000+00:00,9.0,HG,ROV,50.0,,-,2023.10.24,..\TSS_Results_2310.csv,HG_Niskin_logsheet_HTR2.0_D1_Rev4.xlsx,2022-09-24 04:31:54,478938.8523105844,1141664.5407235972,-4279.382516821106,0.0,0.0,0.0,2022-09-24 04:31:54.438,42.662,42.662,2022-09-24 04:31:54,1.5032710937150853,4352.027815683297,3.182266506115382,34.68159337595373,35.78569535362783,0.0285910582131685,32.83907793858941,3.038385265198012,478953.71239702415,1141641.8521878712,4279.147409419517,10.681668615794232,,,,,,
9,44,HG HTR20 D1 NJ,2022-09-24 04:33:03.893000+00:00,10.0,HG,ROV,12.0,,-,2023.10.24,..\TSS_Results_2310.csv,HG_Niskin_logsheet_HTR2.0_D1_Rev4.xlsx,2022-09-24 04:33:04,478940.77272728,1141659.475818825,-4277.414678504218,0.85,0.05,74.665,2022-09-24 04:33:02.162,63.163,63.163,2022-09-24 04:33:04,1.501877681359332,4352.459862094825,3.1821877261474967,34.68192564520839,73.25857244220646,0.017988326848249,37.90248721547984,3.036987345536785,478957.3741070786,1141635.468091955,4279.149152128599,10.72208219581869,,,,,,
10,45,HG HTR21 D1 NA,2022-09-25 21:07:24.510000+00:00,1.0,HG,ROV,8.6,,-,2023.10.25,..\TSS_Results_2310.csv,HG_Niskin_logsheet_HTR2.1_D1_Rev2.xlsx,2022-09-25 21:07:25,478545.0712864709,1142412.0832534342,-4285.389270253905,0.14,-0.05,75.785,2022-09-25 21:07:25.892,7.39,7.39,2022-09-25 21:07:25,1.50325807060851,4355.242931308938,3.182648198520455,34.6849468894176,3.485397802700847,54.122095292591744,2.457074210305126,3.004356226250299,478575.1615911242,1142379.5893345466,4286.46519183665,5.244575948313953,,,,,,
11,46,HG HTR21 D1 NB,2022-09-25 21:09:51.739000+00:00,2.0,HG,ROV,7.5,,-,2023.10.25,..\TSS_Results_2310.csv,HG_Niskin_logsheet_HTR2.1_D1_Rev2.xlsx,2022-09-25 21:09:52,478550.044721962,1142406.190775009,-4285.847569409774,0.4,0.7,74.635,2022-09-25 21:09:49.921,1.739,1.739,2022-09-25 21:09:52,1.5028673894614428,4356.168986595199,3.182671699503332,34.685266616270816,4.533406500343329,24.68361165789273,5.596125582895361,3.0088688222363413,478575.212462161,1142379.4542216416,4286.452536435434,4.676258056913613,,,,,,
12,47,HG HTR21 D1 NC,2022-09-25 21:36:42.492000+00:00,3.0,HG,ROV,62.0,,-,2023.10.25,..\TSS_Results_2310.csv,HG_Niskin_logsheet_HTR2.1_D1_Rev2.xlsx,2022-09-25 21:36:42,478572.3205151037,1142365.0847988983,-4284.960839584859,0.055,0.475,75.085,,,,2022-09-25 21:36:42,1.5051464219935156,4357.421407149701,3.182724678054829,34.68299501477354,38.12530395971618,0.5770785076676584,20.99422736012433,3.004835688339395,478595.6797817953,1142347.0849075462,4286.087379565029,10.194896609451524,,,,,,
13,48,HG HTR21 D1 ND,2022-09-25 21:45:50.373000+00:00,4.0,HG,ROV,13.0,,-,2023.10.25,..\TSS_Results_2310.csv,HG_Niskin_logsheet_HTR2.1_D1_Rev2.xlsx,2022-09-25 21:45:50,478584.8934510835,1142348.2445775713,-4284.108603021606,1.095,1.605,66.785,2022-09-25 21:45:50.177,10.747,10.747,2022-09-25 21:45:50,1.50195581537281,4356.822929944519,3.182597621175685,34.685057021873604,7.810815518425269,33.66861089494164,4.3544362882464505,3.0030388914774484,478614.35227296775,1142318.855445958,4285.831817077499,11.800034220736768,,,,,,
14,49,HG HTR21 D1 NE,2022-09-25 22:22:06.314000+00:00,5.0,HG,ROV,9.6,,-,2023.10.25,..\TSS_Results_2310.csv,HG_Niskin_logsheet_HTR2.1_D1_Rev2.xlsx,2022-09-25 22:22:06,478745.8326195223,1142057.489706203,-4285.304808859467,2.135,0.425,70.325,2022-09-25 22:22:05.986,13.387,13.387,2022-09-25 22:22:06,1.5047036277574648,4357.838979567856,3.1826752846725963,34.68268870559677,27.0818157473106,0.7536547646295872,19.56179931663844,3.002261781578877,478720.994883244,1142156.333869167,4283.421241949129,3.6004018916691987,,,,,,
15,51,HG HTR21 D1 NG,2022-09-25 22:22:53.089000+00:00,7.0,HG,ROV,100.0,,-,2023.10.25,..\TSS_Results_2310.csv,HG_Niskin_logsheet_HTR2.1_D1_Rev2.xlsx,2022-09-25 22:22:53,478742.2565815037,1142064.8586842846,-4282.786492445763,2.58,1.525,66.205,2022-09-25 22:22:53.996,52.706,52.706,2022-09-25 22:22:53,1.5037529396433484,4357.49258961568,3.1824414965446546,34.680981583568006,57.11305859464408,0.0718175783932249,28.980954709491883,3.0024920942500906,478724.45111455646,1142148.3150679094,4283.420349097782,3.181820962957871,,,,,,
16,53,HG HTR21 D1 NI,2022-09-25 22:23:23.671000+00:00,9.0,HG,ROV,99.0,,-,2023.10.25,..\TSS_Results_2310.csv,HG_Niskin_logsheet_HTR2.1_D1_Rev2.xlsx,2022-09-25 22:23:24,478744.013866476,1142065.117928404,-4282.73251752521,3.715,0.66,65.8,2022-09-25 22:23:22.416,43.251,43.251,2022-09-25 22:23:24,1.5012005281240874,4355.099010005277,3.182351032814748,34.68355162771684,39.31236049439231,0.1227922484168764,26.83917938220111,3.001372324981888,478727.0612680845,1142142.2876456068,4283.41686434911,3.0195578265836,,,,,,
17,54,HG HTR21 D1 NJ,2022-09-25 22:25:26.724000+00:00,10.0,HG,ROV,19.0,,-,2023.10.25,..\TSS_Results_2310.csv,HG_Niskin_logsheet_HTR2.1_D1_Rev2.xlsx,2022-09-25 22:25:27,478738.6644042233,1142059.739071377,-4282.449515763379,3.0,1.23,60.585,2022-09-25 22:25:26.614,10.309,10.309,2022-09-25 22:25:27,1.5001717995887702,4355.278673688583,3.1822860995585143,34.683771440727085,10.223552986953536,26.481590218966964,5.335071667178166,3.0025035697737303,478742.0248166435,1142111.187118603,4283.406404047325,2.7991219243758683,,,,,,
18,56,HG HTR22 D1 NB,2022-09-28 20:29:56+00:00,2.0,HG,ROV,15.0,,-,2023.10.26,..\TSS_Results_2310.csv,HG_Niskin_logsheet_HTR2.2_D1_Rev2.xlsx,,,,,,,,,,,2022-09-28 20:29:56,1.498309743403766,4343.152966514179,3.181844471489196,34.68531774234347,0.0349514763103685,99.18778156710157,0.0326213994962296,3.0614851992592333,,,,,,,,,,
19,57,HG HTR22 D1 NC,2022-09-28 20:30:08+00:00,3.0,HG,ROV,46.0,,-,2023.10.26,..\TSS_Results_2310.csv,HG_Niskin_logsheet_HTR2.2_D1_Rev2.xlsx,,,,,,,,,,,2022-09-28 20:30:08,1.4984529751991855,4343.2580436902845,3.1818630719866507,34.685350447236075,0.0354664682993819,99.186558175021,0.0326707344790321,3.0641734477196616,,,,,,,,,,
20,58,HG HTR22 D1 ND,2022-09-28 20:31:11+00:00,4.0,HG,ROV,57.0,,-,2023.10.26,..\TSS_Results_2310.csv,HG_Niskin_logsheet_HTR2.2_D1_Rev2.xlsx,,,,,,,,,,,2022-09-28 20:31:11,1.4986222498255015,4343.274990508244,3.18184914791531,34.68499490429615,5.249760357061112,36.380055542839706,4.046033637386478,3.06332511474458,,,,,,,,,,
21,59,HG HTR22 D1 NE,2022-09-28 20:31:22+00:00,5.0,HG,ROV,48.0,,-,2023.10.26,..\TSS_Results_2310.csv,HG_Niskin_logsheet_HTR2.2_D1_Rev2.xlsx,,,,,,,,,,,2022-09-28 20:31:22,1.5016172365613016,4343.30580561019,3.1819295965370165,34.682802813772874,46.98162119478142,2.804875486381323,14.314887353413818,3.061647055349682,,,,,,,,,,
22,61,HG HTR22 D1 NG,2022-09-28 20:58:36.831000+00:00,7.0,HG,ROV,210.0,,-,2023.10.26,..\TSS_Results_2310.csv,HG_Niskin_logsheet_HTR2.2_D1_Rev2.xlsx,2022-09-28 20:58:37,479318.4522580517,1141144.2895735083,-4274.996078277936,3.69,-0.75,157.925,2022-09-28 20:58:35.060,116.319,116.319,2022-09-28 20:58:37,1.500835912240646,4346.39684506716,3.181279070097435,34.67442265947236,65.61763630121308,0.0061622034027618,39.52568532189085,3.0543082989505264,479274.0764401506,1141177.4928352693,4275.83484110694,16.736000765096396,,,,,,
23,62,HG HTR22 D1 NH,2022-09-28 21:03:17.983000+00:00,8.0,HG,ROV,4.8,,-,2023.10.26,..\TSS_Results_2310.csv,HG_Niskin_logsheet_HTR2.2_D1_Rev2.xlsx,2022-09-28 21:03:18,479290.2385835474,1141178.8630821086,-4276.65471733644,4.615,-0.085,156.51,2022-09-28 21:03:19.111,11.536,11.536,2022-09-28 21:03:18,1.5016953710684078,4346.313951646851,3.1819459872585405,34.681687100863535,26.198089494163423,6.260142519264514,11.087497441733072,3.054644787148863,479243.6446372732,1141215.334666726,4276.673511616583,16.560912694415553,,,,,,
24,63,HG HTR22 D1 NI,2022-09-28 21:03:28.836000+00:00,9.0,HG,ROV,9.0,,-,2023.10.26,..\TSS_Results_2310.csv,HG_Niskin_logsheet_HTR2.2_D1_Rev2.xlsx,2022-09-28 21:03:29,479290.12643812713,1141179.1214746272,-4276.476748544738,3.71,-0.075,157.97,2022-09-28 21:03:27.720,6.212,6.212,2022-09-28 21:03:29,1.499781150727685,4346.369112513934,3.1819924494467267,34.68425169635603,26.75325085831998,3.6131298542763406,13.541813064470992,3.054311014775962,479243.62031862274,1141216.7731397557,4276.698720583948,16.565407837369587,,,,,,
25,64,HG HTR22 D1 NJ,2022-09-28 21:04:01.917000+00:00,10.0,HG,ROV,12.0,,-,2023.10.26,..\TSS_Results_2310.csv,HG_Niskin_logsheet_HTR2.2_D1_Rev2.xlsx,2022-09-28 21:04:02,479291.8988166232,1141180.533172322,-4274.906757166644,2.655,-0.025,158.48,2022-09-28 21:04:03.153,18.395,18.395,2022-09-28 21:04:02,1.501617236360218,4347.242111093426,3.1821489978276345,34.68386616085908,18.701866102082857,5.6419217212176695,11.796346570417272,3.0542519664250745,479243.9067788626,1141221.111597887,4276.774665108305,16.580278387649265,,,,,,
26,95,HG PR1 D1 NA,2022-11-07 08:03:45.364000+00:00,1.0,HG,ROV,1.7,BELOW LIMIT OF BLANK,-,2023.11.24,..\TSS_Results_2311.csv,HG_Niskin_logsheet_PR.1_D1.xlsx,2022-11-07 08:03:46,479844.8352901771,1141848.1845632258,-1235.2309842143416,-2.0,4.5,334.9,2022-11-07 08:03:47.219,0.202,0.202,2022-11-07 08:03:45,3.6363677005789015,1240.2918580806609,3.242426580177703,34.578634607626086,0.6781764705882353,81.7638237582971,0.8053411713754193,1.1995717139346431,,,,,479830.9439,1141874.089,1224.54,3770.0,364.0264099,0.286574351
27,98,HG PR1 D1 ND,2022-11-07 08:07:07.897000+00:00,4.0,HG,ROV,31.0,,-,2023.11.24,..\TSS_Results_2311.csv,HG_Niskin_logsheet_PR.1_D1.xlsx,2022-11-07 08:07:06,479820.0991647806,1141883.0249764796,-1245.1836626835657,-0.2,1.2,333.0,2022-11-07 08:07:07.668,40.39,40.39,2022-11-07 08:07:08,3.694663871205293,1248.5967353504298,3.247810634679143,34.577238008883015,37.84411833371482,0.0579524681467917,29.83005830786463,1.268745593324809,,,,,479813.2637,1141907.015,1223.55,4185.0,363.4531967,0.316007928
28,99,HG PR1 D1 NE,2022-11-07 08:22:02.498000+00:00,5.0,HG,ROV,6.8,,-,2023.11.24,..\TSS_Results_2311.csv,HG_Niskin_logsheet_PR.1_D1.xlsx,2022-11-07 08:22:02,479749.94480635686,1142021.5815474312,-1236.727455803204,-1.4,2.5,331.9,2022-11-07 08:22:03.476,0.856,0.856,2022-11-07 08:22:02,3.631423095665042,1241.1818164179745,3.2420341462849818,34.5787156665573,0.2002639047837033,86.62884626535438,0.574150183059563,1.201088197687965,,,,,479722.3041,1142064.608,1224.32,4185.0,364.4561081,0.317748699
29,101,HG PR1 D1 NG,2022-11-07 08:39:09.842000+00:00,7.0,HG,ROV,7.7,,-,2023.11.24,..\TSS_Results_2311.csv,HG_Niskin_logsheet_PR.1_D1.xlsx,2022-11-07 08:39:10,479648.85082438285,1142172.5209509907,-1243.216855824028,-0.1,0.5,333.2,2022-11-07 08:39:11.530,3.207,3.207,2022-11-07 08:39:10,3.6217016409128178,1247.9235697265729,3.241500218710943,34.57919506812956,4.01789951934081,79.64042290379186,0.911007838115177,1.2043613718094843,,,,,479608.453,1142261.814,1223.88,4235.0,364.0020645,0.321554517
30,115,HG PR1 D3 NA,2022-11-07 21:41:08.629000+00:00,1.0,HG,ROV,23.0,,,2024.03.21,..\TSS_Results_2403.csv,HG_Niskin_logsheet_PR.1_D3.xlsx,2022-11-07 21:41:08,479856.8330031698,1142161.839303152,-1241.353630861276,-0.65,0.65,76.05,2022-11-07 21:41:08.162,8.217,8.217,2022-11-07 21:41:09,3.677774791301644,1249.990729580854,3.246374953349409,34.577217603732905,19.10819478141451,3.86188624399176,13.016705073683616,1.2192594627472748,,,,,479891.4716,1142140.419,1223.69,2007.0,350.3454239,0.146716142
31,116,HG PR1 D3 NB,2022-11-07 01:54:29+00:00,2.0,HG,ROV,1.9,BELOW LIMIT OF DETECTION,-,2023.11.24,..\TSS_Results_2311.csv,HG_Niskin_logsheet_PR.1_D3.xlsx,,,,,,,,,,,,,,,,,,,,,,,,,,,,,
32,117,HG PR1 D3 NC,2022-11-07 03:44:01+00:00,3.0,HG,ROV,31.0,,,2024.03.21,..\TSS_Results_2403.csv,HG_Niskin_logsheet_PR.1_D3.xlsx,2022-11-07 03:43:59,479498.73171979305,1142287.756100477,-501.7936534004474,-0.5,0.8,6.8,,,,2022-11-07 03:44:01,7.489478775794339,502.2270239199557,3.554634894364696,34.547921423237526,0.0267116044861524,97.11902555886168,0.1169316229792262,0.0417453880794468,,,,,479485.178,1142361.987,1225.57,0.0,0.0,4.54e-64
33,118,HG PR1 D3 ND,2022-11-07 03:45:41+00:00,4.0,HG,ROV,9.1,,,2024.03.21,..\TSS_Results_2403.csv,HG_Niskin_logsheet_PR.1_D3.xlsx,2022-11-07 03:45:40,479495.3670641745,1142287.2329879382,-502.1350318878004,-1.6,0.5,351.0,,,,2022-11-07 03:45:41,7.491442473877839,502.150539583349,3.55498070657311,34.549753691450256,0.0153817807278553,97.1447167925536,0.1158735857990356,0.0411199313344289,,,,,479485.178,1142361.987,1225.57,0.0,0.0,1.11e-62
34,119,HG PR1 D3 NE,2022-11-07 03:55:41+00:00,5.0,HG,ROV,3.3,,-,2023.11.24,..\TSS_Results_2311.csv,HG_Niskin_logsheet_PR.1_D3.xlsx,2022-11-07 03:55:51,479478.5446992203,1142288.921443549,-501.9735206144911,-0.7,1.8,10.7,,,,2022-11-07 03:55:41,7.460809311948964,502.7027085044547,3.55246355498127,34.55261130760785,0.031346532387274,97.14186221103226,0.1159911181625445,0.0382876543828748,,,,,479485.178,1142361.987,1225.57,0.0,0.0,2.3399999999999998e-54
35,120,HG PR1 D3 NF,2022-11-07 03:55:49+00:00,6.0,HG,ROV,8.1,,,2024.03.21,..\TSS_Results_2403.csv,HG_Niskin_logsheet_PR.1_D3.xlsx,2022-11-07 03:55:51,479478.5446992203,1142288.921443549,-501.9735206144911,-0.7,1.8,10.7,,,,2022-11-07 03:55:49,7.461164630204834,502.1310684667721,3.552431041620744,34.55217878001926,0.0272265964751659,97.15328053711757,0.1155209743267399,0.035917551368336,,,,,479485.178,1142361.987,1225.57,0.0,0.0,3.2199999999999995e-54
36,121,HG PR1 D3 NG,2022-11-07 03:56:30+00:00,7.0,HG,ROV,13.0,,,2024.03.21,..\TSS_Results_2403.csv,HG_Niskin_logsheet_PR.1_D3.xlsx,2022-11-07 03:56:52,479478.652829068,1142288.9251666316,-502.00221986942745,-0.6,1.2,11.5,,,,2022-11-07 03:56:30,7.476230538457514,502.013236294841,3.553621711952773,34.55018874213742,0.0143517967498283,97.1524649423972,0.1155545636207404,0.0377098340464878,,,,,479485.178,1142361.987,1225.57,0.0,0.0,1.15e-53
37,122,HG PR1 D3 NH,2022-11-07 03:56:39+00:00,8.0,HG,ROV,5.7,,,2024.03.21,..\TSS_Results_2403.csv,HG_Niskin_logsheet_PR.1_D3.xlsx,2022-11-07 03:56:52,479478.652829068,1142288.9251666316,-502.00221986942745,-0.6,1.2,11.5,,,,2022-11-07 03:56:39,7.466850237944483,502.38573800705433,3.552914182888938,34.55165157702602,0.0282565804531929,97.14961036087584,0.1156720971124712,0.0359760630168321,,,,,479485.178,1142361.987,1225.57,0.0,0.0,1.59e-53
38,123,HG PR1 D3 NI,2022-11-07 04:09:22+00:00,9.0,HG,ROV,4.1,,,2024.03.21,..\TSS_Results_2403.csv,HG_Niskin_logsheet_PR.1_D3.xlsx,2022-11-07 04:09:26,479480.8563409135,1142289.0417338442,-501.6234908566091,-0.5,0.6,9.4,,,,2022-11-07 04:09:22,7.452514493363964,502.812199182536,3.551623538026944,34.5516874962099,0.0277415884641794,97.12391912718394,0.1167300403777546,0.0372993071673458,,,,,479485.178,1142361.987,1225.57,0.0,0.0,5.56e-43
39,124,HG PR2 D2 NA,2022-10-20 12:35:06.084000+00:00,1.0,HG,ROV,33.0,,-,2023.10.23,..\TSS_Results_2310.csv,HG_Niskin_logsheet_PR.2_D2_Rev2.xlsx,2022-10-20 12:35:06,480248.798408134,1141629.053697868,-1261.354490404724,0.0,0.0,0.0,2022-10-20 12:35:04.809,3.776,3.776,2022-10-20 12:35:06,3.562202068746672,1265.9714005454484,3.2372747826079435,34.582378509875845,3.037869764248112,55.64929640650034,2.344897277119685,1.256558269919647,,,,,480251.6298,1141609.496,1252.98,1722.0,390.6015533,0.139908059
40,125,HG PR2 D2 NB,2022-10-20 12:37:02.803000+00:00,2.0,HG,ROV,25.0,,-,2023.10.23,..\TSS_Results_2310.csv,HG_Niskin_logsheet_PR.2_D2_Rev2.xlsx,2022-10-20 12:37:03,480254.34041202586,1141615.3763627657,-1262.1869836796,0.0,0.0,0.0,2022-10-20 12:37:00.895,7.183,7.183,2022-10-20 12:37:03,3.605744353782484,1269.424283390544,3.2413636816515625,34.58354616847757,15.158206225680932,10.343009689478905,9.075439299597672,1.293259376066258,,,,,480259.2133,1141595.629,1253.04,1722.0,390.40811,0.139999814
41,126,HG PR2 D2 NC,2022-10-20 12:39:14.622000+00:00,3.0,HG,ROV,22.0,,-,2023.10.23,..\TSS_Results_2310.csv,HG_Niskin_logsheet_PR.2_D2_Rev2.xlsx,2022-10-20 12:39:15,480262.4917675302,1141601.149627183,-1267.677014273156,0.1,1.4,150.1,,,,2022-10-20 12:39:15,3.617946340211745,1272.4229421206092,3.2424710354448107,34.582398292850186,10.029401007095444,9.495606775005722,9.423024552876932,1.303304325098923,,,,,480264.103,1141586.538,1252.68,1722.0,390.1936752,0.139901057
42,127,HG PR2 D2 ND,2022-10-20 12:40:46.126000+00:00,4.0,HG,ROV,35.0,,-,2023.10.23,..\TSS_Results_2310.csv,HG_Niskin_logsheet_PR.2_D2_Rev2.xlsx,2022-10-20 12:40:46,480266.2200573792,1141592.187753646,-1267.446465508152,-0.6,1.5,149.8,2022-10-20 12:40:44.240,26.964,26.964,2022-10-20 12:40:46,3.667556722479347,1275.4687970080645,3.2471548976710016,34.58443873188783,19.559327763790343,2.0908223086900133,15.470469557323398,1.351197051648669,,,,,480271.1107,1141573.2,1253.13,1722.0,390.3057175,0.140053012
43,128,HG PR2 D2 NE,2022-10-20 12:44:09.630000+00:00,5.0,HG,ROV,25.0,,-,2023.10.23,..\TSS_Results_2310.csv,HG_Niskin_logsheet_PR.2_D2_Rev2.xlsx,2022-10-20 12:44:10,480273.9899369419,1141569.8621429063,-1271.178994594909,0.0,0.0,0.0,2022-10-20 12:44:07.890,16.603,16.603,2022-10-20 12:44:10,3.561126977432153,1278.7354292933692,3.2378036955800287,34.583403373170896,4.669879377431907,23.398642175936523,5.811771945859971,1.2862214588034389,,,,,480283.7063,1141550.748,1253.49,1722.0,390.1936737,0.139964456
44,130,HG PR2 D2 NG,2022-10-20 12:56:15.894000+00:00,7.0,HG,ROV,19.0,,-,2023.10.23,..\TSS_Results_2310.csv,HG_Niskin_logsheet_PR.2_D2_Rev2.xlsx,2022-10-20 12:56:14,480330.7544382184,1141486.780302198,-1265.8911759089988,-0.8,0.4,78.3,2022-10-20 12:56:16.291,17.178,17.178,2022-10-20 12:56:16,3.56941174929068,1274.3013472702987,3.2383318860368786,34.583206230686415,3.896876401922637,23.279973144121463,5.839876040239755,1.275576656725438,,,,,480332.483,1141464.796,1252.99,2178.0,391.0220261,0.177152994
45,131,HG PR2 D2 NH,2022-10-20 12:58:37.857000+00:00,8.0,HG,ROV,19.0,,-,2023.10.23,..\TSS_Results_2310.csv,HG_Niskin_logsheet_PR.2_D2_Rev2.xlsx,2022-10-20 12:58:38,480345.32242225297,1141470.9499918944,-1269.6151115461123,0.3,3.3,156.3,2022-10-20 12:58:36.364,8.933,8.933,2022-10-20 12:58:38,3.548434694012556,1274.237103745993,3.236453530839168,34.58292477750934,21.942195696955825,3.544212100404364,13.36414760562496,1.2590011135210617,,,,,480344.2807,1141444.778,1251.92,2178.0,389.9335098,0.176957191
46,132,HG PR2 D2 NI,2022-10-20 13:05:01.097000+00:00,9.0,HG,ROV,35.0,,-,2023.10.23,..\TSS_Results_2310.csv,HG_Niskin_logsheet_PR.2_D2_Rev2.xlsx,2022-10-20 13:05:01,480379.9790818463,1141400.032481506,-1260.403621955088,0.1,1.4,154.3,2022-10-20 13:05:00.408,18.408,18.408,2022-10-20 13:05:01,3.590111617145908,1270.3177520446768,3.2405506689057484,34.589838602353765,22.06167383840696,2.459471122301061,14.821282067182567,1.2872948654517855,,,,,480381.5047,1141385.946,1252.3,2178.0,389.8193756,0.177066899
47,133,HG PR2 D2 NJ,2022-10-20 13:07:54.342000+00:00,10.0,HG,ROV,13.0,,-,2023.10.23,..\TSS_Results_2310.csv,HG_Niskin_logsheet_PR.2_D2_Rev2.xlsx,2022-10-20 13:07:54,480393.896226929,1141367.5697465315,-1252.8284819166352,-0.6,2.8,152.6,2022-10-20 13:07:56.210,8.503,8.503,2022-10-20 13:07:54,3.578360401143158,1267.2156190511096,3.23880631156059,34.58300104180119,1.95741657129778,34.16816266117342,4.296155045299766,1.265478631596157,,,,,480400.7504,1141352.326,1251.01,2178.0,390.6485458,0.176916767
48,134,HG PR2 D3 NA,2022-10-21 02:51:14.099000+00:00,1.0,HG,ROV,8.4,,-,2023.10.24,..\TSS_Results_2310.csv,HG_Niskin_logsheet_PR.2_D3_Rev2.xlsx,2022-10-21 02:51:15,480364.8982438843,1141788.0821341,-1268.4375664761442,0.0,0.0,0.0,2022-10-21 02:51:13.927,9.324,9.324,2022-10-21 02:51:14,3.5788844312508274,1280.02297082419,3.2393212968139715,34.58216258225528,6.794221332112612,27.470091020065613,5.168459885152495,1.2771123341374335,,,,,480304.3299,1141875.24,1253.15,2904.0,387.9428024,0.234176387
49,136,HG PR2 D3 NC,2022-10-21 02:55:34.348000+00:00,3.0,HG,ROV,7.4,,-,2023.10.23,..\TSS_Results_2310.csv,HG_Niskin_logsheet_PR.2_D3_Rev2.xlsx,2022-10-21 02:55:34,480352.0146031694,1141816.600594013,-1263.4155634913716,0.0,0.0,0.0,,,,2022-10-21 02:55:34,3.569563398899533,1275.1255617209645,3.2383664127018315,34.58304504955551,1.1777186999313345,74.08092149233234,1.2001371678685882,1.2593156555247331,,,,,480284.0577,1141910.578,1253.68,2904.0,385.2467255,0.23400693
50,139,HG PR2 D3 NF,2022-10-21 03:34:18.412000+00:00,6.0,HG,ROV,9.0,,-,2023.10.23,..\TSS_Results_2310.csv,HG_Niskin_logsheet_PR.2_D3_Rev2.xlsx,2022-10-21 03:34:18,480222.7000211592,1142038.3926247186,-1268.411842519147,-0.2,0.2,162.8,2022-10-21 03:34:17.487,3.93,3.93,2022-10-21 03:34:18,3.5997691564978425,1276.6923029524896,3.2408065478237043,34.57956534460726,6.852930418860151,77.08271786068514,1.043878542163492,1.2420015179969297,,,,,480122.1108,1142191.644,1254.8,2988.0,385.2324585,0.240327067
51,140,HG PR2 D3 NG,2022-10-21 03:35:18.070000+00:00,7.0,HG,ROV,11.0,,-,2023.10.24,..\TSS_Results_2310.csv,HG_Niskin_logsheet_PR.2_D3_Rev2.xlsx,2022-10-21 03:35:18,480222.5790330332,1142048.3221004372,-1271.5619593196234,0.0,0.0,0.0,2022-10-21 03:35:17.405,3.541,3.541,2022-10-21 03:35:18,3.585063030269339,1276.6905684001856,3.239705042713184,34.58190660788556,4.6817241931792175,39.14329045548181,3.7517712462875226,1.254766298478912,,,,,480118.2973,1142198.656,1253.0,2988.0,385.7817459,0.240484895
52,141,HG PR2 D3 NH,2022-10-21 03:36:11.519000+00:00,8.0,HG,ROV,9.5,,-,2023.10.23,..\TSS_Results_2310.csv,HG_Niskin_logsheet_PR.2_D3_Rev2.xlsx,2022-10-21 03:36:13,480219.1981951975,1142050.4878062042,-1272.7907996854103,0.0,0.0,0.0,2022-10-21 03:36:13.139,6.688,6.688,2022-10-21 03:36:12,3.621038916256993,1279.793413837753,3.2428785438339416,34.58031127711352,4.698718928816663,37.25070290684367,3.950000004080248,1.2553950018340156,,,,,480116.1543,1142204.302,1252.07,2988.0,385.3902435,0.2403791
53,142,HG PR2 D3 NI,2022-10-21 03:37:39.874000+00:00,9.0,HG,ROV,6.8,,-,2023.10.23,..\TSS_Results_2310.csv,HG_Niskin_logsheet_PR.2_D3_Rev2.xlsx,2022-10-21 03:37:39,480204.8390247314,1142067.9983569474,-1275.9043092735244,0.0,0.0,0.0,2022-10-21 03:37:41.624,5.671,5.671,2022-10-21 03:37:40,3.588663113593313,1282.540321116569,3.240239709486286,34.58155684294166,5.410437857633326,47.8754553292134,2.9482704515903224,1.2451471087973611,,,,,480107.3329,1142216.323,1254.24,2988.0,385.0553833,0.240372326
54,143,HG PR2 D3 NJ,2022-10-21 03:39:30.019000+00:00,10.0,HG,ROV,10.0,,-,2023.10.24,..\TSS_Results_2310.csv,HG_Niskin_logsheet_PR.2_D3_Rev2.xlsx,2022-10-21 03:39:31,480201.0309015244,1142076.4833055246,-1273.1588842986566,0.0,0.0,0.0,2022-10-21 03:39:29.286,6.292,6.292,2022-10-21 03:39:30,3.587173379778335,1285.7690003759435,3.240275007178737,34.58192477211436,4.032834287022203,46.44979575799191,3.067240318325201,1.2512902890975166,,,,,480101.5726,1142228.679,1254.49,2988.0,387.5122787,0.240624158
55,144,HG PR2 D4 NA,2022-10-22 06:06:43.707000+00:00,1.0,HG,ROV,5.7,,-,2023.10.24,..\TSS_Results_2310.csv,HG_Niskin_logsheet_PR.2_D4_Rev2.xlsx,2022-10-22 06:06:44,480482.7117053522,1141801.723858877,-1264.0990030784476,0.0,1.0,331.6,2022-10-22 06:06:43.519,4.989,4.989,2022-10-22 06:06:44,3.570721500538013,1273.1082059567202,3.2382411475406885,34.58135176831894,6.268929503318837,58.68942572671092,2.1318239216750974,1.2807601597907663,,,,,480453.1252,1141849.704,1253.78,1096.0,377.4430023,0.086287802
56,145,HG PR2 D4 NB,2022-10-22 06:07:41.096000+00:00,2.0,HG,ROV,7.3,,-,2023.10.24,..\TSS_Results_2310.csv,HG_Niskin_logsheet_PR.2_D4_Rev2.xlsx,2022-10-22 06:07:41,480477.6671933695,1141810.768672151,-1266.990542251429,-1.2,2.5,330.1,2022-10-22 06:07:39.180,4.167,4.167,2022-10-22 06:07:41,3.595685019391965,1273.1584855910255,3.240341126885524,34.580087995640014,6.505825818265049,27.995741817349508,5.092706044967775,1.290778143777289,,,,,480447.4384,1141859.853,1252.04,1096.0,379.5478378,0.086378308
57,146,HG PR2 D4 NC,2022-10-22 06:09:05.615000+00:00,3.0,HG,ROV,9.7,,-,2023.10.24,..\TSS_Results_2310.csv,HG_Niskin_logsheet_PR.2_D4_Rev2.xlsx,2022-10-22 06:09:07,480472.46554450673,1141830.8907059191,-1268.9009347275166,0.0,0.0,0.0,,,,2022-10-22 06:09:06,3.5715349534005725,1276.1992285175295,3.238330894670628,34.58001891110251,4.8120171663996345,57.30780827038987,2.227635859074687,1.2714204287072532,,,,,480438.8223,1141874.629,1253.81,1096.0,378.6766953,0.086362494
58,148,HG PR2 D4 NE,2022-10-22 06:14:28.504000+00:00,5.0,HG,ROV,11.0,,-,2023.10.24,..\TSS_Results_2310.csv,HG_Niskin_logsheet_PR.2_D4_Rev2.xlsx,2022-10-22 06:14:28,480438.5260822877,1141884.5559423792,-1257.2897035046306,0.0,0.0,0.0,2022-10-22 06:14:26.624,5.495,5.495,2022-10-22 06:14:29,3.622033010107515,1268.191162077119,3.24258969429815,34.58163774638276,4.492207141222248,26.31235431448844,5.342601088569157,1.290806285493511,,,,,480408.3399,1141930.121,1252.04,1096.0,376.3813568,0.086891676
59,149,HG PR2B D1 NA,2022-10-25 09:10:43.288000+00:00,1.0,HG,ROV,3.8,,-,2023.10.19,..\TSS_Results_2310.csv,HG_Niskin_logsheet_PR.2b_D1_Rev2.xlsx,2022-10-25 09:10:47,480615.5908293016,1141313.9375018207,-1258.937717057242,0.0,0.0,0.0,2022-10-25 09:10:41.411,4.55,4.55,2022-10-25 09:10:43,3.661612520885626,1271.2559093834966,3.2460870167258697,34.58011209931975,3.572946440833143,47.717229953459984,2.959579193871844,1.213889656170217,,,,,480553.1504,1141398.272,1252.23,1100.0,378.1160812,0.086683203
60,150,HG PR2B D1 NB,2022-10-25 09:27:17.973000+00:00,2.0,HG,ROV,2.5,,-,2023.10.19,..\TSS_Results_2310.csv,HG_Niskin_logsheet_PR.2b_D1_Rev2.xlsx,2022-10-25 09:27:19,480599.1272421988,1141340.1689030242,-1255.610543164957,0.0,0.0,0.0,2022-10-25 09:27:17.179,1.876,1.876,2022-10-25 09:27:18,3.664778025856421,1264.258778350857,3.2460130817327304,34.57941341414568,1.9558715953307395,70.38342282749676,1.4048813372158309,1.21238031960308,,,,,480527.6455,1141441.306,1252.88,1190.0,377.7472336,0.09369835
61,151,HG PR2B D1 NC,2022-10-25 09:28:49.833000+00:00,3.0,HG,ROV,5.2,,-,2023.10.19,..\TSS_Results_2310.csv,HG_Niskin_logsheet_PR.2b_D1_Rev2.xlsx,2022-10-25 09:28:47,480595.71299229073,1141344.1029902294,-1258.159994102051,0.0,0.0,0.0,,,,2022-10-25 09:28:50,3.6557522363852257,1267.391612308546,3.2454465871617995,34.58058796085592,4.664214465552758,36.7279066910811,4.006533359938556,1.240603321179583,,,,,480525.1433,1141445.921,1252.02,1190.0,378.0489426,0.093714645
62,153,HG PR2B D1 NE,2022-10-25 10:14:49.761000+00:00,5.0,HG,ROV,2.2,BELOW LIMIT OF DETECTION,-,2023.10.19,..\TSS_Results_2310.csv,HG_Niskin_logsheet_PR.2b_D1_Rev2.xlsx,2022-10-25 10:14:47,480535.1198985588,1141447.3566002543,-1269.6899346026378,0.0,0.0,0.0,2022-10-25 10:14:48.737,1.72,1.72,2022-10-25 10:14:50,3.606544808154027,1279.70650125946,3.241634915765002,34.58078865791883,3.7712183566033417,55.79488006408789,2.3339776983811773,1.246358562178582,,,,,480456.3237,1141564.848,1252.27,1188.0,378.4148483,0.093610832
63,154,HG PR2B D1 NF,2022-10-25 10:30:21.184000+00:00,6.0,HG,ROV,6.2,,-,2023.10.19,..\TSS_Results_2310.csv,HG_Niskin_logsheet_PR.2b_D1_Rev2.xlsx,2022-10-25 10:30:22,480512.5624288989,1141497.034727938,-1260.1302097075288,0.0,0.0,0.0,2022-10-25 10:30:20.916,6.331,6.331,2022-10-25 10:30:21,3.6151163197222616,1269.935537576063,3.2419263500828874,34.58014489266455,4.988144426642252,44.67832402532998,3.222774649345903,1.248592088404383,,,,,480432.9699,1141604.748,1251.97,1192.0,378.5088486,0.093878873
64,156,HG PR2B D1 NH,2022-10-25 11:24:32.215000+00:00,8.0,HG,ROV,5.4,,-,2023.10.19,..\TSS_Results_2310.csv,HG_Niskin_logsheet_PR.2b_D1_Rev2.xlsx,2022-10-25 11:24:32,480487.323696986,1141596.441668275,-1270.6526785427936,-1.0,2.3,327.7,2022-10-25 11:24:32.575,3.588,3.588,2022-10-25 11:24:32,3.603660505951524,1280.3219241895267,3.24129072192172,34.57941990108432,1.6875607690547036,61.99707011520561,1.926553664899512,1.240243319391749,,,,,480352.2789,1141744.906,1252.7,1658.0,378.0162064,0.130459582
65,158,HG PR2B D1 NJ,2022-10-25 12:48:38.084000+00:00,10.0,HG,ROV,3.3,,-,2023.10.19,..\TSS_Results_2310.csv,HG_Niskin_logsheet_PR.2b_D1_Rev2.xlsx,2022-10-25 12:48:35,480299.795492246,1141939.987205794,-1261.2551407060755,0.0,0.0,0.0,2022-10-25 12:48:36.489,5.111,5.111,2022-10-25 12:48:38,3.5887596732399345,1271.355399800603,3.2396893265134503,34.58051168142753,2.133028839551385,62.7237650110628,1.866045437852079,1.2413616794703155,,,,,480194.4894,1142016.351,1252.11,1514.0,377.8945221,0.119125703
66,162,HG PR2B D2 ND,2022-10-25 22:18:47.082000+00:00,4.0,HG,ROV,4.4,,-,2023.10.20,..\TSS_Results_2310.csv,HG_Niskin_logsheet_PR.2b_D2_Rev2.xlsx,2022-10-25 22:18:47,480299.66539056646,1141689.175378234,-1279.8167215096344,-1.0,6.6,151.7,2022-10-25 22:18:47.968,2.707,2.707,2022-10-25 22:18:47,3.554125663061484,1286.1629838876177,3.237413525421176,34.58239731153534,2.6382359807736324,68.91412893873503,1.489235952678203,1.265877891245128,,,,,480324.9797,1141665.339,1252.66,1374.0,376.6335541,0.107650612
67,163,HG PR2B D2 NE,2022-10-25 22:20:21.751000+00:00,5.0,HG,ROV,4.1,,-,2023.10.20,..\TSS_Results_2310.csv,HG_Niskin_logsheet_PR.2b_D2_Rev2.xlsx,2022-10-25 22:20:18,480303.5795618926,1141677.9477243875,-1281.1549913680758,0.0,0.0,0.0,2022-10-25 22:20:19.820,4.23,4.23,2022-10-25 22:20:22,3.569204946645044,1290.466605838162,3.238910208527901,34.58221169737013,4.458217669947357,41.968510566872666,3.473002940064559,1.2806465944756875,,,,,480327.5804,1141660.183,1252.63,1374.0,376.7153824,0.107660443
68,164,HG PR2B D2 NF,2022-10-25 22:23:48.331000+00:00,6.0,HG,ROV,4.5,,-,2023.10.20,..\TSS_Results_2310.csv,HG_Niskin_logsheet_PR.2b_D2_Rev2.xlsx,2022-10-25 22:23:53,480324.15277317166,1141663.5410240584,-1281.4970879182465,0.0,0.0,0.0,2022-10-25 22:23:48.049,7.284,7.284,2022-10-25 22:23:48,3.5745958992892213,1290.4995247307977,3.2394741632221904,34.583239817838184,5.665873884184025,31.427356603341728,4.6307490720019535,1.2967212670373425,,,,,480338.4729,1141641.712,1253.2,1374.0,376.6969193,0.107655808
69,165,HG PR2B D2 NG,2022-10-25 22:31:32.989000+00:00,7.0,HG,ROV,6.4,,-,2023.10.20,..\TSS_Results_2310.csv,HG_Niskin_logsheet_PR.2b_D2_Rev2.xlsx,2022-10-25 22:31:30,480325.74877952354,1141641.0824877466,-1281.1305501868906,0.8,1.4,152.9,2022-10-25 22:31:32.224,4.084,4.084,2022-10-25 22:31:33,3.552857863840657,1290.5747032111997,3.237634542493719,34.58414777207624,3.4550132753490503,50.152187991149766,2.7604322182803607,1.279170597764075,,,,,480355.5568,1141611.94,1253.58,1224.0,376.3985611,0.095945344
70,167,HG PR2B D2 NI,2022-10-25 23:20:55.053000+00:00,9.0,HG,ROV,9.4,,-,2023.10.20,..\TSS_Results_2310.csv,HG_Niskin_logsheet_PR.2b_D2_Rev2.xlsx,2022-10-25 23:20:50,480427.988434662,1141468.6544105045,-1271.803932270138,0.0,0.0,0.0,2022-10-25 23:20:56.865,4.469,4.469,2022-10-25 23:20:55,3.5448800224699824,1281.525309713595,3.236421560688913,34.58262732757056,3.326265278095674,52.59203959716182,2.5704229742535163,1.2843790522726226,,,,,480482.4221,1141391.108,1251.77,1276.0,375.9915314,0.099898793
71,168,HG PR2B D2 NJ,2022-10-25 23:22:02.487000+00:00,10.0,HG,ROV,8.4,,-,2023.10.20,..\TSS_Results_2310.csv,HG_Niskin_logsheet_PR.2b_D2_Rev2.xlsx,2022-10-25 23:22:04,480431.67352531647,1141472.1119044232,-1264.0422097135386,0.0,0.0,0.0,2022-10-25 23:22:04.240,6.947,6.947,2022-10-25 23:22:02,3.555352187825733,1277.3613966527091,3.2376366595592314,34.58816333601946,4.961879835202564,38.51854489967193,3.816331570982824,1.288218098305432,,,,,480485.3817,1141386.253,1252.58,1276.0,375.7578049,0.099952977
72,170,HG PR2B D3 NB,2022-10-26 04:02:35.690000+00:00,2.0,HG,ROV,4.4,,-,2023.10.20,..\TSS_Results_2310.csv,HG_Niskin_logsheet_PR.2b_D3_Rev1.xlsx,2022-10-26 04:02:36,480549.3430594757,1141224.1953393572,-1275.91207167035,0.0,0.0,0.0,2022-10-26 04:02:36.720,5.786,5.786,2022-10-26 04:02:36,3.544439156775653,1284.4084615173806,3.236584439506431,34.583583436625325,6.858080338750286,23.339103761348905,5.82016024386837,1.3142808061458064,,,,,480467.6761,1141307.56,1251.53,1176.0,352.8232956,0.086232273
73,172,HG PR2B D3 ND,2022-10-26 04:28:08.584000+00:00,4.0,HG,ROV,3.1,,-,2023.10.20,..\TSS_Results_2310.csv,HG_Niskin_logsheet_PR.2b_D3_Rev1.xlsx,2022-10-26 04:28:06,480525.1381541012,1141267.2205713305,-1270.362365467957,-0.75,0.45,165.6,2022-10-26 04:28:08.268,3.108,3.108,2022-10-26 04:28:09,3.52881955442318,1280.4666579379686,3.234993303233287,34.58303000547288,3.039414740215152,52.79797726405737,2.554791201740162,1.2837074301479312,,,,,480445.355,1141346.319,1252.73,1134.0,349.5003021,0.08287823
74,173,HG PR2B D3 NE,2022-10-26 04:32:07.116000+00:00,5.0,HG,ROV,4.7,,-,2023.10.20,..\TSS_Results_2310.csv,HG_Niskin_logsheet_PR.2b_D3_Rev1.xlsx,2022-10-26 04:32:06,480521.2010305009,1141272.8954575867,-1253.0486163688188,-1.4,1.2,331.1,2022-10-26 04:32:08.107,4.967,4.967,2022-10-26 04:32:07,3.568612129773726,1263.4135018142867,3.237781732533732,34.58295808487549,3.9149011215381098,48.46716929884794,2.8971342627777745,1.2939778439093823,,,,,480441.7275,1141352.89,1252.98,1134.0,350.8443497,0.082778892
75,174,HG PR2B D3 NF,2022-10-26 04:47:39.252000+00:00,6.0,HG,ROV,6.5,,-,2023.10.20,..\TSS_Results_2310.csv,HG_Niskin_logsheet_PR.2b_D3_Rev1.xlsx,2022-10-26 04:47:40,480487.2350773668,1141328.7552087526,-1266.44640076917,-0.5,1.2,332.7,2022-10-26 04:47:40.359,3.276,3.276,2022-10-26 04:47:39,3.5232841085820468,1271.287285083063,3.23422440863506,34.584292881806604,6.797826276035705,53.32281246662089,2.520060354425725,1.271298112553627,,,,,480425.9397,1141380.833,1253.05,1134.0,349.742424,0.082544652
76,177,HG PR2B D3 NI,2022-10-26 05:58:09.242000+00:00,9.0,HG,ROV,14.0,,-,2023.10.20,..\TSS_Results_2310.csv,HG_Niskin_logsheet_PR.2b_D3_Rev1.xlsx,2022-10-26 05:58:07,480365.5062740473,1141490.138164168,-1268.9953066280543,0.0,0.0,0.0,2022-10-26 05:58:07.911,15.877,15.877,2022-10-26 05:58:09,3.597989168601288,1275.0118283783047,3.2410569350747287,34.58524226416904,16.5831890592813,7.218874113069352,10.51413469678517,1.3709574962515574,,,,,480357.693,1141497.203,1253.69,1102.0,345.3363876,0.079408781
77,178,HG PR2B D3 NJ,2022-10-26 06:02:31.484000+00:00,10.0,HG,ROV,11.0,,-,2023.10.20,..\TSS_Results_2310.csv,HG_Niskin_logsheet_PR.2b_D3_Rev1.xlsx,2022-10-26 06:02:32,480369.0289445853,1141487.4224213546,-1264.1739491070502,-0.6,3.7,330.5,2022-10-26 06:02:31.786,13.145,13.145,2022-10-26 06:02:31,3.541711429492452,1275.129993725942,3.2360193470913217,34.58437124314812,9.5700281528954,26.375155107957585,5.330991186156658,1.3142383656734675,,,,,480353.3877,1141504.423,1252.8,1102.0,345.9095917,0.079472253
