DateTime (UTC),Easting,Northing,Depth,Pitch,Roll,Heading
2022-09-22 13:51:59.045,479062.982950783,1141354.1139642245,-4279.50684877234,-0.76,0.55,150.18
2022-09-22 13:52:03.010,479063.16161975515,1141354.061032395,-4279.484660782228,-0.52,0.58,150.18
2022-09-22 13:52:06.075,479063.22237292427,1141354.0421969248,-4279.483155361238,-0.14,0.11,150.46
2022-09-22 13:52:10.040,479063.25856234453,1141354.0338222084,-4279.492076803802,-0.01,0.68,150.13
2022-09-22 13:52:14.005,479063.1992483572,1141354.0472797782,-4279.510524777383,0.07,0.8,152.03
2022-09-22 13:52:17.070,479063.1513155179,1141354.0575543682,-4279.521304953907,-0.03,0.29,151.33
2022-09-22 13:52:21.035,479063.0506423863,1141354.055098124,-4279.54531021146,0.63,0.96,151.43
2022-09-22 13:52:25.000,479063.0069202983,1141354.0343104762,-4279.556788428208,0.14,0.58,151.34
2022-09-22 13:52:28.065,479062.96875165036,1141354.001658275,-4279.568566412472,0.31,1.29,151.64
2022-09-22 13:52:32.030,479062.96875165036,1141354.001658275,-4279.568566412472,0.27,0.49,151.06
2022-09-22 13:52:35.095,479062.9369195715,1141353.9665398053,-4279.578747056676,-0.3,1.22,151.59
2022-09-22 13:52:39.060,479062.9092635514,1141353.9411130622,-4279.5859582549165,0.04,0.57,151.43
2022-09-22 13:52:43.025,479062.87282872683,1141353.9316808535,-4279.593780233343,0.27,1.28,151.4
2022-09-22 13:52:46.090,479062.87368282175,1141353.9616084143,-4279.598316500619,-0.08,0.76,151.23
2022-09-22 13:52:50.055,479062.9476773679,1141353.9924534198,-4279.619939533314,-0.41,0.69,151.4
2022-09-22 13:52:54.020,479063.015,1141353.98,-4279.63,-0.31,0.59,151.35
2022-09-22 13:52:57.085,479063.04999999993,1141353.9649999999,-4279.6449999999995,-0.3,0.67,151.25
2022-09-22 13:53:01.050,479062.92,1141353.79,-4279.635,-0.25,0.56,151.28
2022-09-22 13:53:05.015,479062.82499999995,1141353.605,-4279.635,-0.17,0.68,151.23
2022-09-22 13:53:08.080,479062.79179761495,1141353.6686925765,-4279.628959327503,-0.49,0.51,151.3
2022-09-22 13:53:12.045,479062.8023319464,1141353.6767861235,-4279.611248854273,-0.4,0.52,151.15
2022-09-22 13:53:16.010,479062.80760420155,1141353.6870256911,-4279.597642651157,-0.53,0.37,151.29
2022-09-22 13:53:19.075,479062.80760420155,1141353.6870256911,-4279.597642651157,0.17,0.9,151.24
2022-09-22 13:53:23.040,479062.80760420155,1141353.6870256911,-4279.597642651157,-0.85,0.19,151.25
2022-09-22 13:53:27.005,479062.8230529161,1141353.7109390881,-4279.583273481244,-0.17,0.79,151.36
2022-09-22 13:53:30.070,479062.8230529161,1141353.7109390881,-4279.583273481244,-0.55,0.37,151.33
2022-09-22 13:53:34.035,479062.84182358196,1141353.739330722,-4279.568463196299,-0.34,0.68,151.48
2022-09-22 13:53:38.000,479062.8599555338,1141353.835141375,-4279.547880728819,-0.49,0.33,151.23
2022-09-22 13:53:41.065,479062.8599555338,1141353.835141375,-4279.547880728819,-0.36,0.45,151.08
2022-09-22 13:53:45.030,479062.85394813993,1141353.9527799732,-4279.54825223415,-0.53,0.4,150.98
2022-09-22 13:53:48.095,479062.85394813993,1141353.9527799732,-4279.54825223415,-0.67,0.5,151.23
2022-09-22 13:53:52.060,479062.8300686982,1141354.0096030105,-4279.570099901668,-0.38,0.44,151.32
2022-09-22 13:53:56.025,479062.82093746465,1141353.9997796083,-4279.584229003268,-0.78,0.38,151.17
2022-09-22 13:53:59.090,479062.81570663623,1141353.9665033077,-4279.596317021209,-0.36,0.51,151.22
2022-09-22 13:54:03.055,479062.8193933776,1141353.8510544314,-4279.609409732416,-0.6,0.6,151.2
2022-09-22 13:54:07.020,479062.8293669116,1141353.7857296544,-4279.608601332238,-0.6,0.68,151.37
2022-09-22 13:54:10.085,479062.84641287563,1141353.727250445,-4279.603407604964,-0.86,0.45,151.46
2022-09-22 13:54:14.050,479062.94434046315,1141353.6927570752,-4279.5697097186985,-0.67,0.52,151.57
2022-09-22 13:54:18.015,479062.9711697115,1141353.7153711368,-4279.562391616255,-0.27,0.8,151.42
2022-09-22 13:54:21.080,479063.00467564806,1141353.7721043276,-4279.551214442808,-0.52,0.61,151.29
2022-09-22 13:54:25.045,479063.0027791485,1141353.9079510537,-4279.549778475238,-0.72,0.56,151.44
2022-09-22 13:54:29.010,479063.0027791485,1141353.9079510537,-4279.549778475238,-0.34,0.63,151.39
2022-09-22 13:54:32.075,479062.99430653406,1141353.9597282324,-4279.554517352055,-0.21,0.65,151.77
2022-09-22 13:54:36.040,479062.97825589415,1141354.0433236284,-4279.576403080171,-0.38,0.8,151.52
2022-09-22 13:54:40.005,479062.84468358895,1141354.0805111383,-4279.641570784531,-0.39,0.76,151.49
2022-09-22 13:54:43.070,479062.84468358895,1141354.0805111383,-4279.641570784531,-0.57,0.53,151.25
2022-09-22 13:54:47.035,479062.78033960477,1141354.0652256587,-4279.668082511175,-0.69,0.59,151.16
2022-09-22 13:54:51.000,479062.65712115826,1141353.9996809866,-4279.723539468146,-1.0,0.21,151.58
2022-09-22 13:54:54.065,479062.59211757366,1141353.9342350906,-4279.775313407295,0.02,1.11,151.56
2022-09-22 13:54:58.030,479062.6627361292,1141353.8612460336,-4279.843019196585,-0.63,0.75,151.32
2022-09-22 13:55:01.095,479062.72581044416,1141353.8543022454,-4279.866874487775,-0.88,0.59,151.43
2022-09-22 13:55:05.060,479062.7574114635,1141353.8575469593,-4279.877512426266,-0.82,0.42,151.4
2022-09-22 13:55:09.025,479062.8154661966,1141353.8736300797,-4279.897487526323,-0.13,0.69,151.4
2022-09-22 13:55:12.090,479062.8387241889,1141353.884204054,-4279.907145611394,-0.48,0.76,151.32
2022-09-22 13:55:16.055,479062.856974283,1141353.8959731213,-4279.916420555229,-0.84,0.52,151.53
2022-09-22 13:55:20.020,479062.87817044894,1141353.9214312835,-4279.933491033182,-0.28,0.72,151.35
2022-09-22 13:55:23.085,479062.8977956217,1141353.9538376613,-4279.95321259437,-0.48,0.66,151.41
2022-09-22 13:55:27.050,479062.9220610671,1141353.9817073392,-4279.968557395587,-0.46,0.46,151.41
2022-09-22 13:55:31.015,479062.9683313959,1141354.013846864,-4279.990482934864,-0.37,0.35,151.44
2022-09-22 13:55:34.080,479062.9876741196,1141354.0299375455,-4280.004962294441,0.07,0.89,151.45
2022-09-22 13:55:38.045,479062.99475746317,1141354.0447479195,-4280.022316125363,-0.63,0.42,151.46
2022-09-22 13:55:42.010,479062.9855388127,1141354.054718178,-4280.0414981718095,-0.43,0.64,151.45
2022-09-22 13:55:45.075,479062.97516741045,1141354.0566100301,-4280.050952120706,-0.13,0.78,151.37
2022-09-22 13:55:49.040,479062.9619279714,1141354.0559294783,-4280.059582741304,-0.81,0.68,151.33
2022-09-22 13:55:53.005,479062.93143667484,1141354.0465419076,-4280.071226030419,-0.88,0.4,151.71
2022-09-22 13:55:56.070,479062.916704724,1141354.038354262,-4280.0723404771015,-0.12,0.88,151.65
2022-09-22 13:56:00.035,479062.8935665641,1141354.0184022023,-4280.060080784772,-0.47,0.72,151.32
2022-09-22 13:56:04.000,479062.8818677344,1141354.000966206,-4280.023084561664,-1.3,0.05,151.51
2022-09-22 13:56:07.065,479062.8787869796,1141353.9965116582,-4279.959402831079,-0.16,0.69,151.77
2022-09-22 13:56:11.030,479062.8751979719,1141354.015120551,-4279.874737810695,-0.3,0.85,151.34
2022-09-22 13:56:14.095,479062.8432668878,1141354.1004244671,-4279.73908875981,-0.96,0.54,151.98
2022-09-22 13:56:18.060,479062.75541989447,1141354.2550635457,-4279.645175743289,-0.12,0.77,151.46
2022-09-22 13:56:22.025,479062.56390937313,1141354.5345171138,-4279.645331536096,-0.87,0.5,151.43
2022-09-22 13:56:25.090,479062.4165649565,1141354.7737762558,-4279.723341085684,-0.46,0.43,151.45
2022-09-22 13:56:29.055,479062.33843488793,1141354.9480963282,-4279.7871563398385,-0.37,0.53,151.37
2022-09-22 13:56:33.020,479062.2261910949,1141355.3615013906,-4279.884325249197,-0.45,0.44,151.31
2022-09-22 13:56:36.085,479062.13600484957,1141355.7490835013,-4279.913808281387,-0.49,0.55,151.5
2022-09-22 13:56:40.050,479061.9601852545,1141356.352057658,-4279.917867982865,-0.28,0.45,151.55
2022-09-22 13:56:44.015,479061.81192697946,1141356.8157648041,-4279.903406667986,-0.76,0.49,151.54
2022-09-22 13:56:47.080,479061.68780503457,1141357.2355890754,-4279.8636419109225,-1.19,0.48,151.71
2022-09-22 13:56:51.045,479061.5654865619,1141357.7045517676,-4279.7738950931,-1.16,0.5,151.55
2022-09-22 13:56:55.010,479061.40792206104,1141358.1664601248,-4279.692667629195,0.5,1.07,151.62
2022-09-22 13:56:58.075,479061.1934248358,1141358.6105884812,-4279.657322739091,0.09,0.88,152.71
2022-09-22 13:57:02.040,479060.74931040476,1141359.4001861636,-4279.614209137817,0.0,0.75,151.62
2022-09-22 13:57:06.005,479060.48318652814,1141359.8595034904,-4279.583463689163,0.01,0.11,151.02
2022-09-22 13:57:09.070,479060.08106123225,1141360.5678837479,-4279.533971832577,0.4,-0.13,151.86
2022-09-22 13:57:13.035,479059.6123054804,1141361.4422590663,-4279.499888628894,-1.73,0.86,151.53
2022-09-22 13:57:17.000,479059.3255074386,1141362.0002111753,-4279.506010796949,-0.32,0.73,151.24
2022-09-22 13:57:20.065,479059.2396466312,1141362.1658637654,-4279.510461826943,-0.02,0.94,151.48
2022-09-22 13:57:24.030,479058.932616783,1141362.7289459128,-4279.5184082988835,-2.36,0.37,152.09
2022-09-22 13:57:27.095,479058.7443585636,1141363.050875322,-4279.513143296256,-2.04,0.27,151.39
2022-09-22 13:57:31.060,479058.5680913753,1141363.3668217692,-4279.532815571361,-0.16,0.79,151.36
2022-09-22 13:57:35.025,479058.4787928487,1141363.5561266867,-4279.595092190305,-0.55,0.92,150.9
2022-09-22 13:57:38.090,479058.38693130756,1141363.7539070433,-4279.690797840537,-0.72,1.02,152.42
2022-09-22 13:57:42.055,479058.20309403754,1141364.0946223466,-4279.806779393296,-1.44,0.82,152.25
2022-09-22 13:57:46.020,479057.93820884795,1141364.5319278138,-4279.822457515039,-2.81,0.16,152.2
2022-09-22 13:57:49.085,479057.7059873194,1141364.8895969049,-4279.747199114092,0.45,1.41,152.76
2022-09-22 13:57:53.050,479057.3631288133,1141365.3649073213,-4279.57829758188,-0.3,1.04,152.2
2022-09-22 13:57:57.015,479056.9750677187,1141365.8304622392,-4279.441076686029,-0.45,0.66,151.89
2022-09-22 13:58:00.080,479056.67704942165,1141366.169327471,-4279.420635256122,-1.96,0.97,152.31
2022-09-22 13:58:04.045,479056.43463331764,1141366.4787019356,-4279.476292063448,-0.19,0.73,151.23
2022-09-22 13:58:08.010,479056.32683935587,1141366.8058856616,-4279.597488651586,-1.2,0.39,152.33
2022-09-22 13:58:11.075,479056.3926366218,1141366.9343229134,-4279.638571861594,-0.12,1.01,151.57
2022-09-22 13:58:15.040,479056.6078188957,1141367.1225602175,-4279.640984468117,-0.71,0.91,151.47
2022-09-22 13:58:19.005,479056.6940040928,1141367.1964146867,-4279.625400594191,0.01,0.96,151.65
2022-09-22 13:58:22.070,479056.92142068775,1141367.501145654,-4279.546980276311,-1.93,1.28,150.87
2022-09-22 13:58:26.035,479056.9882360184,1141368.2077065692,-4279.445437227695,-2.01,0.9,151.27
2022-09-22 13:58:30.000,479056.70044453803,1141369.288932469,-4279.431474310634,-1.15,0.79,150.74
2022-09-22 13:58:33.065,479056.31652260886,1141370.2396854574,-4279.476780545755,-2.01,0.1,151.2
2022-09-22 13:58:37.030,479055.85593587183,1141371.169743272,-4279.539727872469,0.45,1.62,151.34
2022-09-22 13:58:40.095,479055.3375877059,1141371.9763049916,-4279.592267446545,-0.53,0.88,151.19
2022-09-22 13:58:44.060,479054.7576254704,1141372.627583683,-4279.61868620328,-0.1,0.79,151.68
2022-09-22 13:58:48.025,479053.9386285314,1141373.321814227,-4279.6206869818525,-0.59,0.04,151.47
2022-09-22 13:58:51.090,479053.5583833614,1141373.634704085,-4279.618729622599,-0.52,-0.29,152.06
2022-09-22 13:58:55.055,479052.9645033443,1141374.2517919485,-4279.623342985729,-0.86,0.17,151.38
2022-09-22 13:58:59.020,479052.68816832395,1141374.7249742232,-4279.625934512527,-0.32,0.13,151.28
2022-09-22 13:59:02.085,479052.5676722765,1141375.0514547494,-4279.62280494337,-0.51,0.77,151.92
2022-09-22 13:59:06.050,479052.4066311032,1141375.7680653615,-4279.614708717375,1.03,1.07,151.51
2022-09-22 13:59:10.015,479052.27500577644,1141376.655610856,-4279.6186965260285,0.07,1.4,149.09
2022-09-22 13:59:13.080,479052.16859992855,1141377.460499862,-4279.607911627191,-1.3,0.84,148.29
2022-09-22 13:59:17.045,479052.02829326305,1141378.340273531,-4279.557494185179,-1.5,1.45,148.67
2022-09-22 13:59:21.010,479051.8008714623,1141379.2354760703,-4279.472829897884,-1.86,1.7,149.87
2022-09-22 13:59:24.075,479051.6935243979,1141379.531851768,-4279.44335572473,-2.29,1.62,150.75
2022-09-22 13:59:28.040,479051.41611100826,1141380.1224267562,-4279.392982982949,-1.28,0.84,149.77
2022-09-22 13:59:32.005,479050.5630981034,1141381.3158248027,-4279.35435590058,-0.03,1.0,149.66
2022-09-22 13:59:35.070,479049.6572321485,1141382.231882006,-4279.370732685663,-1.0,0.81,149.69
2022-09-22 13:59:39.035,479048.2217888171,1141383.4351823907,-4279.377526875841,-2.88,0.46,149.15
2022-09-22 13:59:43.000,479047.49970263976,1141383.9909979482,-4279.3447412379155,-0.95,1.21,149.13
2022-09-22 13:59:46.065,479046.83982767607,1141384.4913405788,-4279.277101199343,0.47,0.83,149.14
2022-09-22 13:59:50.030,479045.83309045096,1141385.2994182364,-4279.048825739523,-0.03,0.79,148.64
2022-09-22 13:59:53.095,479045.3483675622,1141385.786786382,-4278.851887326352,-1.88,1.62,148.74
2022-09-22 13:59:57.060,479044.98339316825,1141386.274103581,-4278.708642141792,-4.93,0.77,148.07
2022-09-22 14:00:01.025,479044.6172652434,1141386.842249206,-4278.666238578985,-0.82,0.82,149.1
2022-09-22 14:00:04.090,479044.3352625947,1141387.2785863404,-4278.696023160802,0.41,1.16,149.18
2022-09-22 14:00:08.055,479043.66143435927,1141388.246089194,-4278.854736536896,1.78,1.27,147.1
2022-09-22 14:00:12.020,479042.8866635707,1141389.2593723724,-4279.088263782323,-0.82,1.71,146.06
2022-09-22 14:00:15.085,479042.2775700763,1141390.041390543,-4279.297141873741,-1.56,1.86,147.39
2022-09-22 14:00:19.050,479041.44477657654,1141391.1596365084,-4279.609521323716,-1.77,0.93,147.33
2022-09-22 14:00:23.015,479040.57301430684,1141392.3906133047,-4279.912855131193,-2.35,-0.14,146.25
2022-09-22 14:00:26.080,479040.1192700723,1141393.0407579255,-4280.037472341502,-3.63,-0.83,146.14
2022-09-22 14:00:30.045,479039.4230190746,1141394.042380254,-4280.171873319807,-2.7,0.92,146.16
2022-09-22 14:00:34.010,479039.1888089387,1141394.3812336593,-4280.202128389791,-0.52,0.81,146.02
2022-09-22 14:00:37.075,479038.9543552552,1141394.7224072367,-4280.225741744478,-1.27,1.08,145.45
2022-09-22 14:00:41.040,479038.48640759796,1141395.4131987276,-4280.255976243662,-0.28,1.31,146.42
2022-09-22 14:00:45.005,479038.02258612285,1141396.1195620638,-4280.269134071798,-1.08,1.21,146.31
2022-09-22 14:00:48.070,479037.79351931025,1141396.4803133928,-4280.271301995308,-1.61,1.61,146.62
2022-09-22 14:00:52.035,479037.12615607394,1141397.5961622072,-4280.267313701669,-0.76,1.49,146.89
2022-09-22 14:00:56.000,479036.9128102813,1141397.9780576073,-4280.263780213765,-1.25,1.15,146.41
2022-09-22 14:00:59.065,479036.9128102813,1141397.9780576073,-4280.263780213765,-0.99,1.03,146.2
2022-09-22 14:01:03.030,479036.70491355617,1141398.363412214,-4280.259546069122,-1.24,1.06,145.99
2022-09-22 14:01:06.095,479036.30501570477,1141399.139894432,-4280.2494900061065,-2.79,0.83,145.63
2022-09-22 14:01:10.060,479035.9196335148,1141399.9185930563,-4280.237843502836,-2.36,0.69,145.02
2022-09-22 14:01:14.025,479035.53186709055,1141400.6991121909,-4280.224975204152,-1.7,0.6,144.84
2022-09-22 14:01:17.090,479035.117620908,1141401.4874969115,-4280.2111034303925,-1.68,0.71,145.06
2022-09-22 14:01:21.055,479034.65284745814,1141402.2900503024,-4280.196524412425,-1.23,0.47,145.14
2022-09-22 14:01:25.020,479034.1224428821,1141403.1055091072,-4280.181959953116,-1.58,0.86,145.17
2022-09-22 14:01:28.085,479033.20966075145,1141404.3233592485,-4280.163413206199,-1.44,0.91,145.57
2022-09-22 14:01:32.050,479032.5533985169,1141405.1013711288,-4280.1562238639035,-1.18,0.92,142.69
2022-09-22 14:01:36.015,479031.265794819,1141406.503022745,-4280.160985181353,-0.93,0.49,132.21
2022-09-22 14:01:39.080,479030.41097382334,1141407.4156689774,-4280.17955524386,-1.13,1.32,133.42
2022-09-22 14:01:43.045,479029.6630581403,1141408.2598815092,-4280.2023690096985,-1.71,0.84,133.45
2022-09-22 14:01:47.010,479029.20430842135,1141408.8143368615,-4280.215555286924,-1.53,1.08,133.35
2022-09-22 14:01:50.075,479028.98133603,1141409.093647437,-4280.220926768851,-1.87,0.67,133.33
2022-09-22 14:01:54.040,479028.53997485986,1141409.6583598393,-4280.229038006537,-1.26,0.9,133.51
2022-09-22 14:01:58.005,479028.3187807197,1141409.9428806792,-4280.231927865829,-1.15,0.77,133.65
2022-09-22 14:02:01.070,479027.6390387322,1141410.7935813928,-4280.237673340512,-0.05,1.94,133.53
2022-09-22 14:02:05.035,479026.91707558057,1141411.6222811742,-4280.241677153523,0.1,1.32,133.05
2022-09-22 14:02:09.000,479026.14692798053,1141412.4250763792,-4280.244148465906,-1.32,1.34,132.89
2022-09-22 14:02:12.065,479025.8823934424,1141412.6889924703,-4280.24411285052,-1.62,0.97,133.15
2022-09-22 14:02:16.030,479025.34858779085,1141413.21462282,-4280.241967508511,-1.67,1.11,133.18
2022-09-22 14:02:19.095,479025.0816313913,1141413.4772467518,-4280.23973458653,-2.17,1.19,133.26
2022-09-22 14:02:23.060,479024.0277290065,1141414.5352411624,-4280.224953327825,-2.22,0.71,133.12
2022-09-22 14:02:27.025,479023.5073222286,1141415.073569755,-4280.216997610129,-1.85,0.65,132.83
2022-09-22 14:02:30.090,479022.9850668658,1141415.6206860107,-4280.211037503976,-1.16,0.95,132.92
2022-09-22 14:02:34.055,479022.72159519914,1141415.8976086276,-4280.209087892061,-1.43,0.95,132.68
2022-09-22 14:02:38.020,479021.91518010915,1141416.7404612927,-4280.206935705602,-1.64,1.27,132.99
2022-09-22 14:02:41.085,479021.3591730862,1141417.311830292,-4280.207333085541,-1.5,1.22,133.47
2022-09-22 14:02:45.050,479020.48791519407,1141418.1864881185,-4280.208479497055,-1.68,1.22,133.2
2022-09-22 14:02:49.015,479019.8785579377,1141418.785871707,-4280.209290705812,-1.72,1.04,133.36
2022-09-22 14:02:52.080,479019.2456045247,1141419.4027688936,-4280.2102549283745,-1.65,1.14,133.39
2022-09-22 14:02:56.045,479018.9201768687,1141419.7192591908,-4280.210747406657,-1.56,1.21,133.42
2022-09-22 14:03:00.010,479018.5884717471,1141420.0421102303,-4280.211140339593,-1.94,1.08,133.22
2022-09-22 14:03:03.075,479018.24997450784,1141420.3722282045,-4280.211293069275,-1.73,0.98,133.43
2022-09-22 14:03:07.040,479017.1854658179,1141421.4159108594,-4280.208254684378,-1.25,1.2,133.18
2022-09-22 14:03:11.005,479016.8112266801,1141421.7842246746,-4280.205250293428,-1.66,1.12,133.28
2022-09-22 14:03:14.070,479016.03029236884,1141422.5524163283,-4280.194775866663,-1.81,1.05,133.25
2022-09-22 14:03:18.035,479015.2090355624,1141423.3558132697,-4280.177337046235,-1.81,1.28,133.11
2022-09-22 14:03:22.000,479013.50419574,1141424.9910560963,-4280.1249273992025,-1.67,1.31,133.02
2022-09-22 14:03:25.065,479012.2593914043,1141426.1413980792,-4280.085127317186,-1.34,1.21,132.89
2022-09-22 14:03:29.030,479011.11686455406,1141427.1484087957,-4280.063790727799,-1.95,0.9,132.88
2022-09-22 14:03:32.095,479010.1010144613,1141427.9882619004,-4280.06888781091,-1.86,1.04,133.24
2022-09-22 14:03:36.060,479008.9119774206,1141428.8876820102,-4280.103029813219,-1.97,0.8,133.1
2022-09-22 14:03:40.025,479008.1017157148,1141429.4575829308,-4280.1289779613135,-1.92,0.86,132.92
2022-09-22 14:03:43.090,479007.84295523,1141429.6368264793,-4280.135171404612,-1.74,0.77,132.96
2022-09-22 14:03:47.055,479007.0974650286,1141430.1614969235,-4280.143710173513,-1.63,0.95,133.01
2022-09-22 14:03:51.020,479006.1605404017,1141430.872117987,-4280.134259526713,-1.95,1.07,133.73
2022-09-22 14:03:54.085,479005.93065364927,1141431.0581386813,-4280.12961151654,0.59,2.25,133.78
2022-09-22 14:03:58.050,479005.69999896456,1141431.248951192,-4280.124636046981,1.04,1.89,133.03
2022-09-22 14:04:02.015,479004.99131449725,1141431.8539468134,-4280.1105269582395,-1.74,1.33,132.41
2022-09-22 14:04:05.080,479004.7462144411,1141432.0670698567,-4280.106813196354,-2.62,0.84,132.29
2022-09-22 14:04:09.045,479003.9750875425,1141432.7415321164,-4280.099806003845,-2.1,0.65,132.5
2022-09-22 14:04:13.010,479003.4273958957,1141433.2208810598,-4280.097662544086,-2.92,0.38,132.69
2022-09-22 14:04:16.075,479002.5520540026,1141433.9853015356,-4280.093288635658,-2.82,0.26,132.97
2022-09-22 14:04:20.040,479002.24638948543,1141434.2519288175,-4280.090133498857,-3.26,0.03,132.47
2022-09-22 14:04:24.005,479001.6174959339,1141434.8015315426,-4280.079186267278,-2.93,0.16,132.92
2022-09-22 14:04:27.070,479000.6468421267,1141435.6632071843,-4280.047818814655,-2.95,0.16,132.63
2022-09-22 14:04:31.035,478999.3597860958,1141436.8900074335,-4279.980902889437,-3.31,0.19,132.61
2022-09-22 14:04:35.000,478998.1408773672,1141438.2576169793,-4279.913793684288,-2.65,0.27,133.05
2022-09-22 14:04:38.065,478997.56809664395,1141439.0056063018,-4279.893514510158,-3.75,0.13,132.15
2022-09-22 14:04:42.030,478997.2932519643,1141439.3923037958,-4279.888290156386,-2.72,0.29,132.77
2022-09-22 14:04:45.095,478996.7720318918,1141440.1781043075,-4279.887810438202,-3.54,0.01,132.35
2022-09-22 14:04:49.060,478996.29660569393,1141440.9579885453,-4279.8984110159,-2.5,0.41,133.4
2022-09-22 14:04:53.025,478995.5068208979,1141442.3989010968,-4279.934078418954,-3.05,0.31,133.53
2022-09-22 14:04:56.090,478995.0495747611,1141443.3174092104,-4279.957890353535,-3.07,0.51,133.14
2022-09-22 14:05:00.055,478994.569096626,1141444.3142991548,-4279.983761096724,-2.83,0.57,133.53
2022-09-22 14:05:04.020,478994.15671123174,1141445.1134338623,-4280.01598003962,-2.38,1.0,133.26
2022-09-22 14:05:07.085,478993.94368962845,1141445.4807679693,-4280.033336871876,-2.86,0.62,133.31
2022-09-22 14:05:11.050,478993.70789746806,1141445.855151301,-4280.047007641681,-3.22,0.82,133.05
2022-09-22 14:05:15.015,478993.2898898333,1141446.4661106283,-4280.052741798192,-3.38,0.63,133.43
2022-09-22 14:05:18.080,478992.9622634221,1141446.9151860268,-4280.044413028442,-2.99,0.89,132.84
2022-09-22 14:05:22.045,478992.40171531826,1141447.636991208,-4280.016975038306,-3.21,0.62,132.51
2022-09-22 14:05:26.010,478991.55951663863,1141448.6253935772,-4279.970949742891,-3.82,0.93,132.68
2022-09-22 14:05:29.075,478991.12142864784,1141449.1046843808,-4279.952705241519,-4.01,0.71,132.78
2022-09-22 14:05:33.040,478990.28561470925,1141449.9779403817,-4279.941295080993,-4.8,1.41,132.38
2022-09-22 14:05:37.005,478989.7486115501,1141450.5080135243,-4279.960132018728,-4.38,0.82,132.59
2022-09-22 14:05:40.070,478989.31111648853,1141450.8977563316,-4279.9992209373395,-4.23,1.1,132.67
2022-09-22 14:05:44.035,478988.8599124156,1141451.2300462448,-4280.063633984628,-4.48,1.05,132.13
2022-09-22 14:05:48.000,478988.6758577938,1141451.3548428447,-4280.091493399041,-4.39,0.87,132.15
2022-09-22 14:05:51.065,478988.5129612995,1141451.4792471938,-4280.111486302539,-3.75,0.83,132.25
2022-09-22 14:05:55.030,478988.237489048,1141451.7856777909,-4280.122607602573,-3.92,0.98,132.36
2022-09-22 14:05:58.095,478988.0543769427,1141452.0977828556,-4280.111532071807,-3.46,0.86,132.37
2022-09-22 14:06:02.060,478987.85603643215,1141452.4981011674,-4280.095316286955,-4.24,1.69,132.2
2022-09-22 14:06:06.025,478987.5992133772,1141453.001796271,-4280.080655190712,-3.43,1.13,132.28
2022-09-22 14:06:09.090,478987.49353650655,1141453.1946279353,-4280.076085640267,-3.32,0.91,131.58
2022-09-22 14:06:13.055,478987.10432639427,1141453.8454991484,-4280.060693120846,-3.4,0.54,131.7
2022-09-22 14:06:17.020,478986.7855004027,1141454.330248582,-4280.047091110309,-4.58,1.2,131.96
2022-09-22 14:06:20.085,478986.6105668251,1141454.5836259173,-4280.038978380795,-4.62,0.92,130.93
2022-09-22 14:06:24.050,478986.03775084746,1141455.370640727,-4280.010061052965,-3.53,0.46,130.63
2022-09-22 14:06:28.015,478985.6252225995,1141455.9101456392,-4279.988489842052,-4.29,0.47,131.27
2022-09-22 14:06:31.080,478984.9662871535,1141456.7479939274,-4279.955715038041,-3.2,0.52,131.92
2022-09-22 14:06:35.045,478984.25456622354,1141457.643819082,-4279.923900033951,-4.62,0.8,131.61
2022-09-22 14:06:39.010,478984.0060484946,1141457.9574392142,-4279.913589294851,-3.76,0.19,132.08
2022-09-22 14:06:42.075,478983.7532859195,1141458.277357665,-4279.903524392899,-4.17,0.73,131.87
2022-09-22 14:06:46.040,478983.24134088954,1141458.928605636,-4279.884744448244,-3.85,0.62,132.11
2022-09-22 14:06:50.005,478982.9860388045,1141459.255091364,-4279.87646466032,-4.17,0.78,132.09
2022-09-22 14:06:53.070,478982.4870149835,1141459.8968201492,-4279.8633880240195,-3.81,0.72,131.96
2022-09-22 14:06:57.035,478982.246903136,1141460.2075501292,-4279.859042774352,-3.93,0.96,131.93
2022-09-22 14:07:01.000,478981.57765770156,1141461.08329463,-4279.856066629269,-4.43,1.13,132.05
2022-09-22 14:07:04.065,478980.98674557026,1141461.8749913361,-4279.86610688093,-3.82,0.83,131.94
2022-09-22 14:07:08.030,478980.626326945,1141462.3695844181,-4279.87638616879,-4.06,0.67,131.9
2022-09-22 14:07:11.095,478980.28167176683,1141462.8507584147,-4279.886028892839,-3.84,0.99,132.09
2022-09-22 14:07:15.060,478979.94421059586,1141463.327540607,-4279.891979963623,-4.42,0.86,131.9
2022-09-22 14:07:19.025,478979.27422030177,1141464.2797006918,-4279.8828772160205,-4.84,1.41,132.18
2022-09-22 14:07:22.090,478978.9434427686,1141464.749025993,-4279.8653717323805,-2.8,0.19,132.14
2022-09-22 14:07:26.055,478978.30854732706,1141465.6492288192,-4279.810428813373,-4.77,1.45,131.68
2022-09-22 14:07:30.020,478977.86336519645,1141466.2862139067,-4279.766083790959,-4.44,1.09,131.79
2022-09-22 14:07:33.085,478977.4462912946,1141466.89299447,-4279.733431576524,-3.39,0.39,131.62
2022-09-22 14:07:37.050,478977.1876398622,1141467.273917662,-4279.721101278764,-4.11,1.05,131.7
2022-09-22 14:07:41.015,478976.84202344244,1141467.7822266826,-4279.714915230908,-4.31,0.83,131.84
2022-09-22 14:07:44.080,478976.56588065164,1141468.1777231544,-4279.719007855006,-4.02,0.8,131.63
2022-09-22 14:07:48.045,478976.37535904796,1141468.443862391,-4279.732489230064,-4.02,0.66,131.75
2022-09-22 14:07:52.010,478976.27697583893,1141468.606580834,-4279.758540122348,-4.43,0.85,131.57
2022-09-22 14:07:55.075,478976.26319350366,1141468.7208246023,-4279.797887983284,-3.83,0.38,131.51
2022-09-22 14:07:59.040,478976.28990535793,1141468.7987793402,-4279.829600737116,-4.49,1.35,131.57
2022-09-22 14:08:03.005,478976.3343539678,1141468.8948731602,-4279.863789299856,-4.28,0.73,131.8
2022-09-22 14:08:06.070,478976.38650262676,1141469.0209833232,-4279.8988262249295,-3.98,1.04,131.52
2022-09-22 14:08:10.035,478976.45692319475,1141469.2917014875,-4279.948185937232,-4.24,0.81,131.45
2022-09-22 14:08:14.000,478976.48399415414,1141469.6963417835,-4279.983008068281,-4.33,0.92,131.42
2022-09-22 14:08:17.065,478976.42758339376,1141470.263985971,-4279.9884581152955,-4.21,0.62,131.56
2022-09-22 14:08:21.030,478976.26374486025,1141470.983420951,-4279.955541524819,-5.01,1.5,131.66
2022-09-22 14:08:24.095,478976.00437491696,1141471.7893395037,-4279.889029564787,-3.96,0.61,131.16
2022-09-22 14:08:28.060,478975.5906485943,1141472.8322170512,-4279.778719607079,-4.27,0.73,130.95
2022-09-22 14:08:32.025,478975.2189539774,1141473.673852606,-4279.6840352211675,-4.32,0.84,131.49
2022-09-22 14:08:35.090,478975.0771455698,1141473.9961882397,-4279.646185932887,-5.51,1.45,131.47
2022-09-22 14:08:39.055,478974.8951048695,1141474.453512749,-4279.5515569328045,-2.75,-0.24,131.84
2022-09-22 14:08:43.020,478974.83117178845,1141474.6893345756,-4279.3180338615475,-4.01,0.93,131.9
2022-09-22 14:08:46.085,478974.8350784704,1141474.7340284276,-4279.103223953855,-4.28,0.8,131.68
2022-09-22 14:08:50.050,478974.87711214164,1141474.72846367,-4278.630162894202,-3.81,0.51,131.6
2022-09-22 14:08:54.015,478974.98451917176,1141474.6437436559,-4277.723520203912,-3.68,0.58,131.42
2022-09-22 14:08:57.080,478975.0918084275,1141474.5720905631,-4276.860521163012,-3.43,0.59,130.9
2022-09-22 14:09:01.045,478975.2152896331,1141474.5225352023,-4275.860908833585,-4.57,2.04,130.34
2022-09-22 14:09:05.010,478975.4039118052,1141474.5074324447,-4274.359470712452,-3.39,0.81,130.51
2022-09-22 14:09:08.075,478975.511989883,1141474.5197906806,-4273.568577534763,-4.72,1.62,131.19
2022-09-22 14:09:12.040,478975.632420511,1141474.5406500848,-4272.778713363489,-5.14,1.53,131.06
2022-09-22 14:09:16.005,478975.91412452556,1141474.5917919376,-4271.281954540708,-3.43,0.42,130.87
2022-09-22 14:09:19.070,478976.15478340234,1141474.6298881273,-4270.27042197849,-4.42,1.13,131.2
2022-09-22 14:09:23.035,478976.4967170826,1141474.672825486,-4269.046674751024,-5.27,0.89,131.56
2022-09-22 14:09:27.000,478976.8545565104,1141474.688703309,-4267.896241266877,-5.98,0.96,131.58
2022-09-22 14:09:30.065,478977.13187013706,1141474.6798928678,-4267.044416597909,-5.06,0.33,131.3
2022-09-22 14:09:34.030,478977.5021405576,1141474.6743502095,-4265.888976554391,-5.4,0.1,131.06
2022-09-22 14:09:37.095,478977.7725636736,1141474.703723049,-4265.0090880833795,-5.03,0.21,131.55
2022-09-22 14:09:41.060,478978.03412381245,1141474.7683527463,-4264.173141118376,-4.02,-0.14,131.51
2022-09-22 14:09:45.025,478978.1998699349,1141474.826874795,-4263.691312769253,-5.18,0.07,131.2
2022-09-22 14:09:48.090,478978.42026916664,1141474.9347098276,-4263.1644518361145,-5.02,-0.18,130.83
2022-09-22 14:09:52.055,478978.58273961296,1141475.0776446015,-4262.920093545551,-5.29,-0.43,131.09
2022-09-22 14:09:56.020,478978.67274427344,1141475.280046458,-4262.918694302834,-5.48,-0.17,131.51
2022-09-22 14:09:59.085,478978.70259507926,1141475.5649512536,-4263.048805489761,-5.33,-0.11,131.28
2022-09-22 14:10:03.050,478978.694994102,1141476.098605378,-4263.235530394656,-5.17,-0.07,131.84
2022-09-22 14:10:07.015,478978.6646357257,1141476.6279140592,-4263.307523211948,-5.35,-0.16,131.63
2022-09-22 14:10:10.080,478978.58396092284,1141477.2735776722,-4263.308968458509,-5.34,0.0,131.67
2022-09-22 14:10:14.045,478978.3114074597,1141478.3076199896,-4263.227198269486,-5.26,-0.02,131.51
2022-09-22 14:10:18.010,478977.75334466045,1141479.5245201162,-4263.096312260651,-5.5,-0.11,131.59
2022-09-22 14:10:21.075,478977.1363847816,1141480.5427802326,-4262.996030890414,-5.42,-0.02,130.94
2022-09-22 14:10:25.040,478976.4029976926,1141481.6243129438,-4262.913325099377,-5.42,0.62,131.85
2022-09-22 14:10:29.005,478975.6330589917,1141482.7359980063,-4262.857704962986,-4.84,1.25,131.71
2022-09-22 14:10:32.070,478974.8929260917,1141483.8455319395,-4262.829488959519,-3.46,1.18,130.92
2022-09-22 14:10:36.035,478974.2120240775,1141484.9134885038,-4262.82463091502,-3.58,1.14,130.87
2022-09-22 14:10:40.000,478973.3888894286,1141486.1920840207,-4262.850517825957,-4.62,1.32,130.88
2022-09-22 14:10:43.065,478972.80392263195,1141487.0144289036,-4262.889576665817,-4.64,0.95,130.79
2022-09-22 14:10:47.030,478972.2027319566,1141487.7557496228,-4262.931145004435,-4.71,0.67,130.78
2022-09-22 14:10:50.095,478971.52998450084,1141488.4927589141,-4262.953238228807,-3.85,1.08,130.33
2022-09-22 14:10:54.060,478970.4230689713,1141489.6111825563,-4262.920292392515,-4.05,1.49,130.3
2022-09-22 14:10:58.025,478969.0341417965,1141490.9770048524,-4262.816848719879,-3.55,1.84,130.26
2022-09-22 14:11:01.090,478967.87104932754,1141492.135262762,-4262.726028336038,-3.88,1.36,130.02
2022-09-22 14:11:05.055,478966.69739237765,1141493.3447001628,-4262.657517295783,-4.73,1.41,130.44
2022-09-22 14:11:09.020,478965.5873748444,1141494.5580465093,-4262.623144652276,-4.31,1.12,130.3
2022-09-22 14:11:12.085,478964.58715528896,1141495.7506895745,-4262.609312173755,-3.58,0.93,129.69
2022-09-22 14:11:16.050,478963.4601978887,1141497.2733655334,-4262.58565081492,-5.35,1.88,130.62
2022-09-22 14:11:20.015,478962.57233536645,1141498.6345630826,-4262.552430637346,-4.82,1.32,131.53
2022-09-22 14:11:23.080,478962.0443726985,1141499.478368049,-4262.549763485787,-4.19,0.85,131.35
2022-09-22 14:11:27.045,478961.466349526,1141500.337459471,-4262.60576173,-4.9,1.32,131.56
2022-09-22 14:11:31.010,478960.9081222086,1141501.0267434765,-4262.700069810025,-4.75,1.87,131.76
2022-09-22 14:11:34.075,478960.58380540425,1141501.3878825374,-4262.735956262136,-3.05,2.15,131.62
2022-09-22 14:11:38.040,478959.7838545876,1141502.2619671915,-4262.745711634376,-2.14,1.3,130.96
2022-09-22 14:11:42.005,478959.08152206196,1141503.0520037543,-4262.707499225975,-5.97,1.77,130.98
2022-09-22 14:11:45.070,478958.6054876176,1141503.6117496747,-4262.679593650362,-5.96,0.56,131.45
2022-09-22 14:11:49.035,478957.93718251865,1141504.4463739307,-4262.6611654784265,-4.94,1.46,129.91
2022-09-22 14:11:53.000,478957.5398204979,1141504.9760631851,-4262.669141853659,-4.71,1.33,128.13
2022-09-22 14:11:56.065,478957.1813777573,1141505.4747454077,-4262.686536119049,-4.44,1.39,128.31
2022-09-22 14:12:00.030,478956.5524159369,1141506.3734739828,-4262.706086952304,-5.8,0.97,130.27
2022-09-22 14:12:03.095,478956.13136517256,1141506.9721395527,-4262.684198528417,-5.7,0.98,130.4
2022-09-22 14:12:07.060,478955.6157805849,1141507.7168197294,-4262.638085557077,-5.16,1.2,130.54
2022-09-22 14:12:11.025,478955.2586935928,1141508.2698287806,-4262.634776589364,-4.42,0.78,131.62
2022-09-22 14:12:14.090,478955.0350897627,1141508.6392908972,-4262.658038744089,-4.21,2.65,131.55
2022-09-22 14:12:18.055,478954.6222681731,1141509.3636882664,-4262.752818597533,-5.02,0.6,131.29
2022-09-22 14:12:22.020,478954.3381494317,1141509.8953340447,-4262.834804134927,-4.7,1.49,130.63
2022-09-22 14:12:25.085,478954.0810225329,1141510.4458829772,-4262.895622013302,-6.56,1.33,130.46
2022-09-22 14:12:29.050,478953.8819882648,1141511.047914455,-4262.920464478562,-5.41,1.06,130.46
2022-09-22 14:12:33.015,478953.78453653946,1141511.7192606204,-4262.908226478282,-4.51,1.01,130.83
2022-09-22 14:12:36.080,478953.7831960556,1141512.2100984296,-4262.882055996374,-7.33,3.05,130.05
2022-09-22 14:12:40.045,478953.8422306889,1141513.0244687633,-4262.819294080996,-5.02,0.66,130.94
2022-09-22 14:12:44.010,478953.90494760114,1141514.306155741,-4262.698408994075,-3.94,1.15,130.82
2022-09-22 14:12:47.075,478953.8773187912,1141515.4617871316,-4262.594150484652,-5.88,0.81,130.93
2022-09-22 14:12:51.040,478953.8348860723,1141516.3385918746,-4262.530053294067,-6.42,1.98,130.94
2022-09-22 14:12:55.005,478953.7795383916,1141517.801269392,-4262.4601657733765,-4.74,0.79,130.88
2022-09-22 14:12:58.070,478953.7713253118,1141518.3175728908,-4262.446493217116,-5.59,1.27,130.83
2022-09-22 14:13:02.035,478953.79435110063,1141519.8835524067,-4262.437278050725,-5.28,1.41,131.12
2022-09-22 14:13:06.000,478953.8197249007,1141520.390005456,-4262.444278855566,-4.61,0.68,130.86
2022-09-22 14:13:09.065,478953.85426985,1141520.8777083058,-4262.455753968642,-4.87,1.07,130.69
2022-09-22 14:13:13.030,478954.01211819676,1141522.1726023133,-4262.512730979036,-5.72,1.09,131.2
2022-09-22 14:13:16.095,478954.24660237954,1141523.1421269549,-4262.5946417944315,-4.84,0.72,130.65
2022-09-22 14:13:20.060,478954.5467599661,1141523.7679940143,-4262.69043872763,-4.39,1.23,128.09
2022-09-22 14:13:24.025,478955.00879860873,1141524.160238465,-4262.82067290283,-6.07,2.39,128.57
2022-09-22 14:13:27.090,478955.24255016015,1141524.2225884171,-4262.88014655607,-5.62,1.84,129.09
2022-09-22 14:13:31.055,478955.4651136427,1141524.228631711,-4262.932583993797,-7.38,1.87,129.44
2022-09-22 14:13:35.020,478955.77098535065,1141524.1752594009,-4262.99357589603,-6.21,1.27,130.35
2022-09-22 14:13:38.085,478956.05049117014,1141524.0993106717,-4263.028132418508,-5.56,1.44,130.51
2022-09-22 14:13:42.050,478956.307981979,1141524.0703032452,-4263.032514931284,-6.05,1.89,130.67
2022-09-22 14:13:46.015,478956.51571222674,1141524.16678347,-4263.006682995136,-5.52,2.09,130.88
2022-09-22 14:13:49.080,478956.6090720625,1141524.4365026518,-4262.953991228013,-5.17,1.68,131.06
2022-09-22 14:13:53.045,478956.508041423,1141524.8652205612,-4262.87966389854,-4.37,1.6,131.51
2022-09-22 14:13:57.010,478955.9583344984,1141525.5901701911,-4262.75901946339,-4.69,1.53,133.37
2022-09-22 14:14:00.075,478955.18712782237,1141526.196014099,-4262.665902324565,-4.69,1.28,138.99
2022-09-22 14:14:04.040,478953.6656441114,1141527.067444638,-4262.565524321638,-4.55,1.44,138.14
2022-09-22 14:14:08.005,478952.71495049045,1141527.5227266522,-4262.535440517474,-3.96,0.81,138.53
2022-09-22 14:14:11.070,478952.2028287217,1141527.7500704161,-4262.526988444952,-3.43,0.77,138.44
2022-09-22 14:14:15.035,478950.5792814174,1141528.3953653772,-4262.530903267298,-4.79,1.15,138.34
2022-09-22 14:14:19.000,478949.47900088807,1141528.7577658866,-4262.558051985069,-4.5,1.27,138.15
2022-09-22 14:14:22.065,478947.8849406062,1141529.1330266902,-4262.629550273187,-2.91,-0.04,137.74
2022-09-22 14:14:26.030,478946.382432983,1141529.2799503861,-4262.7210697783075,-3.1,0.86,137.58
2022-09-22 14:14:29.095,478944.93589718104,1141529.2492648095,-4262.807321430678,-6.05,2.33,138.05
2022-09-22 14:14:33.060,478943.99057344836,1141529.1797635397,-4262.85127468824,-4.09,1.65,138.46
2022-09-22 14:14:37.025,478942.6357656161,1141529.0712211267,-4262.892316400532,-3.76,2.8,139.65
2022-09-22 14:14:40.090,478942.2156842648,1141529.0428187647,-4262.90073337915,-4.1,1.81,140.35
2022-09-22 14:14:44.055,478941.1029198514,1141528.994664697,-4262.9199578236485,-5.65,2.3,140.02
2022-09-22 14:14:48.020,478940.0153779147,1141529.029424122,-4262.953478295743,-6.17,1.51,142.05
2022-09-22 14:14:51.085,478939.43488859455,1141529.1466714884,-4262.987432975998,-6.0,1.53,142.48
2022-09-22 14:14:55.050,478938.7810410636,1141529.4561712705,-4263.022546794381,-5.11,1.47,142.67
2022-09-22 14:14:59.015,478938.6180515385,1141529.5621070599,-4263.026853836999,-5.0,0.8,144.37
2022-09-22 14:15:02.080,478938.2804207872,1141529.8054658019,-4263.029840137402,-5.02,0.39,145.45
2022-09-22 14:15:06.045,478937.54728328146,1141530.3965653619,-4263.024153864271,-5.34,0.45,145.5
2022-09-22 14:15:10.010,478937.3545910094,1141530.5614236738,-4263.023378045223,-5.54,0.08,145.34
2022-09-22 14:15:13.075,478937.1608720284,1141530.7317521274,-4263.023816958841,-5.47,-0.41,148.09
2022-09-22 14:15:17.040,478936.77937982854,1141531.087150494,-4263.0292876341855,-4.83,-0.69,152.54
2022-09-22 14:15:21.005,478936.1132414115,1141531.8566675882,-4263.055445405474,-5.66,-0.59,150.16
2022-09-22 14:15:24.070,478935.7634384367,1141532.497810244,-4263.074091630659,-5.28,-0.53,151.44
2022-09-22 14:15:28.035,478935.6797771542,1141532.7255165302,-4263.0772860869265,-4.39,-0.1,151.74
2022-09-22 14:15:32.000,478935.4931602987,1141533.685592166,-4263.071826709993,-5.41,0.1,152.03
2022-09-22 14:15:35.065,478935.47169791633,1141534.400051062,-4263.061601489003,-5.97,-0.82,151.69
2022-09-22 14:15:39.030,478935.4984759483,1141535.0422422707,-4263.066407921479,-5.14,-0.44,151.92
2022-09-22 14:15:42.095,478935.5126835558,1141535.4145392054,-4263.081724486746,-5.29,-0.43,151.74
2022-09-22 14:15:46.060,478935.45453499083,1141536.0276150864,-4263.12581182303,-5.26,0.26,152.37
2022-09-22 14:15:50.025,478935.3110913775,1141536.3776916433,-4263.150147802534,-5.71,0.3,152.49
2022-09-22 14:15:53.090,478935.2494332702,1141536.471998371,-4263.155049888875,-5.61,-0.8,152.31
2022-09-22 14:15:57.055,478935.1192689601,1141536.625055676,-4263.161729023463,-5.24,-0.64,151.93
2022-09-22 14:16:01.020,478934.9968280468,1141536.7331918462,-4263.167841688528,-5.36,-1.1,151.32
2022-09-22 14:16:04.085,478934.8627110386,1141536.8372891257,-4263.183390980514,-4.22,-0.97,149.69
2022-09-22 14:16:08.050,478934.8184025167,1141536.9775399782,-4263.214082472593,-4.72,-0.05,148.53
2022-09-22 14:16:12.015,478934.8927654502,1141537.1747793586,-4263.230076541968,-6.76,-0.02,150.58
2022-09-22 14:16:15.080,478934.98750649916,1141537.3747513657,-4263.231964614145,-5.22,0.2,151.28
2022-09-22 14:16:19.045,478935.10916898923,1141537.6357608333,-4263.225956376957,-5.24,0.28,152.17
2022-09-22 14:16:23.010,478935.3175903526,1141538.1435925895,-4263.203595429033,-4.76,0.49,152.2
2022-09-22 14:16:26.075,478935.4567645484,1141538.557088282,-4263.181594408895,-6.0,0.4,152.35
2022-09-22 14:16:30.040,478935.69576938474,1141539.5429092976,-4263.12940621288,-5.18,0.36,152.51
2022-09-22 14:16:34.005,478935.8556161597,1141540.6882553871,-4263.085402680304,-4.79,-0.45,152.15
2022-09-22 14:16:37.070,478935.88167013664,1141540.9906080882,-4263.07792125901,-5.21,-0.32,152.18
2022-09-22 14:16:41.035,478935.9141901547,1141541.606274493,-4263.067208501862,-4.88,-0.47,151.81
2022-09-22 14:16:45.000,478935.8645932517,1141542.851624286,-4263.053435674894,-4.41,-0.52,150.93
2022-09-22 14:16:48.065,478935.74770649784,1141543.4611192935,-4263.044495794452,-4.07,-0.95,150.84
2022-09-22 14:16:52.030,478935.2242343005,1141544.567661667,-4263.02108601591,-4.58,-0.29,151.03
2022-09-22 14:16:55.095,478934.53347134794,1141545.2042870934,-4263.011105856092,-5.24,-0.17,151.06
2022-09-22 14:16:59.060,478934.2505012908,1141545.3659294737,-4263.011684346495,-4.43,-0.06,151.13
2022-09-22 14:17:03.025,478933.2935721912,1141545.6899911263,-4263.02787792938,-5.13,-0.12,151.15
2022-09-22 14:17:06.090,478932.6180611461,1141545.7844220747,-4263.049394171513,-4.41,0.36,150.92
2022-09-22 14:17:10.055,478932.28607233276,1141545.80175037,-4263.062374098176,-4.84,0.49,151.02
2022-09-22 14:17:14.020,478931.9649784571,1141545.8024384626,-4263.076256016762,-5.27,0.61,151.27
2022-09-22 14:17:17.085,478931.3724277891,1141545.7623120972,-4263.105020761995,-5.75,0.47,151.22
2022-09-22 14:17:21.050,478930.44985306484,1141545.5556514305,-4263.15733983334,-4.98,0.41,151.27
2022-09-22 14:17:25.015,478930.12225217203,1141545.4063517705,-4263.177739486041,-4.77,0.81,151.33
2022-09-22 14:17:28.080,478929.98697221186,1141545.3249954812,-4263.186210819711,-5.73,1.2,151.92
2022-09-22 14:17:32.045,478929.7634279419,1141545.1585978116,-4263.199760984615,-5.43,1.2,152.47
2022-09-22 14:17:36.010,478929.52020656614,1141544.9288273233,-4263.213167391559,-4.9,0.86,152.66
2022-09-22 14:17:39.075,478929.3665893373,1141544.7472469346,-4263.223134506497,-5.77,-0.58,152.49
2022-09-22 14:17:43.040,478929.3071798489,1141544.5980162327,-4263.235935045369,-4.71,0.21,152.67
2022-09-22 14:17:47.005,478929.40574789693,1141544.3763036164,-4263.25992815658,-5.0,-0.27,152.47
2022-09-22 14:17:50.070,478929.6204974168,1141544.1510850026,-4263.276511373423,-4.82,-0.11,152.75
2022-09-22 14:17:54.035,478929.8228096795,1141543.9647519442,-4263.283631647018,-4.74,-0.27,152.77
2022-09-22 14:17:58.000,478930.0626912306,1141543.748437453,-4263.287310681104,-4.8,-0.43,152.6
2022-09-22 14:18:01.065,478930.19362419605,1141543.6294231345,-4263.288203472707,-4.59,-0.66,152.37
2022-09-22 14:18:05.030,478930.47111887165,1141543.371462337,-4263.289205170932,-4.28,-0.65,152.21
2022-09-22 14:18:08.095,478930.76164126425,1141543.0898536441,-4263.2906569835,-4.63,-0.82,151.56
2022-09-22 14:18:12.060,478931.3526710727,1141542.4660163417,-4263.29935517625,-3.91,-0.44,151.89
2022-09-22 14:18:16.025,478931.64257014554,1141542.126749499,-4263.306724810724,-3.84,-0.5,151.99
2022-09-22 14:18:19.090,478931.9225174469,1141541.7726214118,-4263.314763993133,-4.96,-0.31,152.04
2022-09-22 14:18:23.055,478932.31639842974,1141541.2245876214,-4263.323867716545,-4.21,-0.54,151.99
2022-09-22 14:18:27.020,478932.8053107535,1141540.4810368875,-4263.321197357064,-3.91,-1.09,151.28
2022-09-22 14:18:30.085,478933.1864507373,1141539.905085764,-4263.307615809505,-4.16,-0.51,151.6
2022-09-22 14:18:34.050,478933.4656163849,1141539.50398138,-4263.296475882952,-4.39,-0.21,151.58
2022-09-22 14:18:38.015,478933.76593876915,1141539.0895434776,-4263.286096973267,-4.08,-0.18,151.71
2022-09-22 14:18:41.080,478934.07808952144,1141538.6697799072,-4263.27723766269,-3.89,-0.21,152.04
2022-09-22 14:18:45.045,478934.5291725921,1141538.0624465016,-4263.265064156513,-3.89,-0.23,152.63
2022-09-22 14:18:49.010,478934.6633353904,1141537.8748767425,-4263.260577370668,-3.87,-0.18,153.05
2022-09-22 14:18:52.075,478934.9720390261,1141537.3856758883,-4263.243921990283,-3.8,-0.11,153.31
2022-09-22 14:18:56.040,478935.058056099,1141536.9476991484,-4263.213493005796,-3.68,-0.07,153.0
2022-09-22 14:19:00.005,478934.82527771866,1141536.782255395,-4263.18570834358,-3.37,-0.55,152.02
2022-09-22 14:19:03.070,478934.6937898866,1141536.7547769316,-4263.175889493017,-3.57,0.07,152.0
2022-09-22 14:19:07.035,478934.5393024747,1141536.7398309698,-4263.166053063983,-3.76,-0.36,152.36
2022-09-22 14:19:11.000,478934.3652424944,1141536.7366623762,-4263.156446229195,-3.62,0.03,152.97
2022-09-22 14:19:14.065,478934.1755488042,1141536.7445039242,-4263.147373108586,-3.27,-0.08,152.9
2022-09-22 14:19:18.030,478933.5560295171,1141536.824958842,-4263.126787067977,-3.63,-0.05,152.71
2022-09-22 14:19:21.095,478933.3472457802,1141536.8667955576,-4263.123177654423,-3.34,-0.07,152.48
2022-09-22 14:19:25.060,478932.7678137725,1141537.0145274624,-4263.12423450464,-3.36,-0.15,152.86
2022-09-22 14:19:29.025,478932.44784033304,1141537.1124229073,-4263.133794026354,-3.35,-0.03,153.3
2022-09-22 14:19:32.090,478932.3123868764,1141537.1559880143,-4263.140399327376,-3.17,0.47,153.49
2022-09-22 14:19:36.055,478932.0906106245,1141537.227113094,-4263.155444571758,-2.89,0.66,153.58
2022-09-22 14:19:40.020,478932.00200832926,1141537.254121322,-4263.163222099688,-3.11,0.87,153.61
2022-09-22 14:19:43.085,478931.9256650586,1141537.2759407598,-4263.1708263662285,-3.36,0.81,153.43
2022-09-22 14:19:47.050,478931.85909224954,1141537.2935056223,-4263.178091236661,-3.47,0.4,153.6
2022-09-22 14:19:51.015,478931.6931377074,1141537.332900972,-4263.197132890219,-3.4,0.2,153.49
2022-09-22 14:19:54.080,478931.59432437713,1141537.3584318436,-4263.207394391469,-3.26,0.25,153.63
2022-09-22 14:19:58.045,478931.50638677215,1141537.386118655,-4263.215553275019,-3.98,0.02,153.44
2022-09-22 14:20:02.010,478931.44759111444,1141537.4102058932,-4263.221128797873,-3.32,-0.22,153.54
2022-09-22 14:20:05.075,478931.4371883972,1141537.4178373597,-4263.222757537611,-3.41,-0.39,153.56
2022-09-22 14:20:09.040,478931.5155443285,1141537.4092517202,-4263.222618031412,-3.6,-0.49,152.93
2022-09-22 14:20:13.005,478931.77412273927,1141537.3443522954,-4263.21656115755,-3.78,-0.45,152.77
2022-09-22 14:20:16.070,478932.02437260473,1141537.2753577796,-4263.211687648312,-3.4,-0.49,153.07
2022-09-22 14:20:20.035,478932.58941477415,1141537.1119294257,-4263.207364123525,-3.6,-0.51,153.16
2022-09-22 14:20:24.000,478932.9802770538,1141536.9955583517,-4263.210871754458,-3.44,-0.33,153.01
2022-09-22 14:20:27.065,478933.2015324821,1141536.9307365254,-4263.214793436094,-3.31,-0.44,153.2
2022-09-22 14:20:31.030,478933.2981372236,1141536.9039042792,-4263.2166477344845,-3.33,-0.24,152.72
2022-09-22 14:20:34.095,478933.38487324724,1141536.8816762068,-4263.218199807972,-3.3,-0.35,152.76
2022-09-22 14:20:38.060,478933.58647997695,1141536.8505624882,-4263.220085869542,-3.28,-0.5,152.24
2022-09-22 14:20:42.025,478933.6361269812,1141536.8550062447,-4263.219733000252,-3.22,-0.41,152.27
2022-09-22 14:20:45.090,478933.6361269812,1141536.8550062447,-4263.219733000252,-3.39,-0.39,152.6
2022-09-22 14:20:49.055,478933.71650666324,1141536.8915547074,-4263.21789833604,-3.37,-0.22,153.12
2022-09-22 14:20:53.020,478933.7827393304,1141536.9697707181,-4263.215218575191,-3.26,-0.14,152.81
2022-09-22 14:20:56.085,478933.81443604577,1141537.0254183698,-4263.213803211136,-3.3,-0.07,153.48
2022-09-22 14:21:00.050,478933.9143252385,1141537.2543402903,-4263.210087749286,-3.17,0.0,153.88
2022-09-22 14:21:04.015,478933.9493877204,1141537.3478622357,-4263.209176613017,-3.26,0.03,154.04
2022-09-22 14:21:07.080,478934.04939435824,1141537.6583186,-4263.20790961246,-3.21,0.01,154.14
2022-09-22 14:21:11.045,478934.0996399482,1141537.8744434942,-4263.208635835353,-3.25,0.05,154.43
2022-09-22 14:21:15.010,478934.11621202546,1141537.9817568709,-4263.209549672006,-3.2,0.03,154.22
2022-09-22 14:21:18.075,478934.11621202546,1141537.9817568709,-4263.209549672006,-3.36,0.08,154.43
2022-09-22 14:21:22.040,478934.1216252046,1141538.2958461314,-4263.214273471362,-3.34,0.07,154.43
2022-09-22 14:21:26.005,478934.1074444374,1141538.3982784008,-4263.2162540058525,-3.17,0.0,154.43
2022-09-22 14:21:29.070,478934.0561317074,1141538.6019741467,-4263.220035161172,-3.4,0.06,154.62
2022-09-22 14:21:33.035,478933.93249202706,1141538.909233233,-4263.22299278787,-3.21,0.04,154.48
2022-09-22 14:21:37.000,478933.88227608206,1141539.0120896772,-4263.222830007498,-3.33,0.23,154.57
2022-09-22 14:21:40.065,478933.77241781243,1141539.2154073252,-4263.220762372217,-3.34,0.33,154.64
2022-09-22 14:21:44.030,478933.6515654317,1141539.4092137534,-4263.21712227627,-3.37,-0.02,154.66
2022-09-22 14:21:47.095,478933.6515654317,1141539.4092137534,-4263.21712227627,-3.46,0.18,154.63
2022-09-22 14:21:51.060,478933.5867358082,1141539.4999261396,-4263.215135027946,-3.46,0.21,154.99
2022-09-22 14:21:55.025,478933.5867358082,1141539.4999261396,-4263.215135027946,-3.33,0.25,154.99
2022-09-22 14:21:58.090,478933.5184875072,1141539.5853542266,-4263.213276315495,-3.34,0.36,155.12
2022-09-22 14:22:02.055,478933.3699343651,1141539.7389748946,-4263.210481154255,-3.59,0.34,154.95
2022-09-22 14:22:06.020,478933.11116543796,1141539.9342481017,-4263.209071336636,-3.49,0.43,155.02
2022-09-22 14:22:09.085,478932.8032197197,1141540.1239884428,-4263.208753426359,-3.48,0.18,155.06
2022-09-22 14:22:13.050,478932.4405011283,1141540.3606621732,-4263.205795719777,-3.54,0.42,155.33
2022-09-22 14:22:17.015,478932.0156645039,1141540.6787794107,-4263.199427928693,-3.73,0.11,155.17
2022-09-22 14:22:20.080,478931.52307094855,1141541.0804270862,-4263.192763102632,-3.43,0.16,155.21
2022-09-22 14:22:24.045,478931.1568984912,1141541.3824056343,-4263.189958682676,-3.45,0.11,155.0
2022-09-22 14:22:28.010,478930.7610243831,1141541.69760926,-4263.188788684171,-3.2,0.21,155.06
2022-09-22 14:22:31.075,478930.7610243831,1141541.69760926,-4263.188788684171,-3.11,0.22,155.24
2022-09-22 14:22:35.040,478930.3341435783,1141542.0124010385,-4263.188569132508,-3.0,0.41,155.0
2022-09-22 14:22:39.005,478929.6269416959,1141542.4585565608,-4263.187573856668,-3.21,0.25,154.57
2022-09-22 14:22:42.070,478929.10519014945,1141542.7290801555,-4263.185237998265,-3.15,0.94,154.54
2022-09-22 14:22:46.035,478928.5454853444,1141542.9773619473,-4263.181357212648,-3.24,0.63,154.58
2022-09-22 14:22:50.000,478928.25502242264,1141543.0942492087,-4263.178944249027,-3.39,0.74,154.65
2022-09-22 14:22:53.065,478927.9607905455,1141543.2071059505,-4263.176304908098,-3.49,0.68,154.89
2022-09-22 14:22:57.030,478927.3741320058,1141543.4230167225,-4263.170631814745,-3.53,0.69,154.75
2022-09-22 14:23:00.095,478927.08889713837,1141543.5269660305,-4263.167738551111,-3.4,0.36,154.71
2022-09-22 14:23:04.060,478926.0773532027,1141543.921898859,-4263.157480258038,-3.41,0.3,154.77
2022-09-22 14:23:08.025,478925.50370242994,1141544.2049155703,-4263.152885961374,-3.33,0.3,154.81
2022-09-22 14:23:11.090,478925.20762861177,1141544.3996237922,-4263.151202195042,-3.42,0.18,154.76
2022-09-22 14:23:15.055,478924.75685769995,1141544.86061584,-4263.145774825988,-3.31,0.14,154.77
2022-09-22 14:23:19.020,478924.57043824927,1141545.149939256,-4263.139474351198,-3.46,0.27,154.83
2022-09-22 14:23:22.085,478924.4823257352,1141545.3112294516,-4263.135396631653,-3.54,0.28,154.75
2022-09-22 14:23:26.050,478924.1568807386,1141546.0487315105,-4263.119351920588,-3.33,0.17,154.71
2022-09-22 14:23:30.015,478924.01123830926,1141546.4556477675,-4263.116814514859,-3.25,0.19,154.69
2022-09-22 14:23:33.080,478923.8098815161,1141547.096536502,-4263.124954921025,-3.57,0.28,154.85
2022-09-22 14:23:37.045,478923.6782175347,1141547.5464198086,-4263.136832707836,-3.51,0.11,154.61
2022-09-22 14:23:41.010,478923.61003100965,1141547.7800587479,-4263.143641312466,-3.32,-0.6,155.12
2022-09-22 14:23:44.075,478923.46352574433,1141548.2673460331,-4263.156879374462,-3.51,-0.25,155.18
2022-09-22 14:23:48.040,478923.29711507924,1141548.7810962,-4263.167374416268,-3.26,0.0,154.94
2022-09-22 14:23:52.005,478923.2044503306,1141549.0462375763,-4263.171098907289,-3.19,-0.12,154.89
2022-09-22 14:23:55.070,478923.2044503306,1141549.0462375763,-4263.171098907289,-3.29,-0.1,154.65
2022-09-22 14:23:59.035,478923.10465385934,1141549.315208883,-4263.17374452666,-2.94,0.14,153.8
2022-09-22 14:24:03.000,478922.7583896453,1141550.1286619608,-4263.176076400897,-3.18,0.29,154.16
2022-09-22 14:24:06.065,478922.62654095714,1141550.396628645,-4263.175477196853,-3.65,0.1,155.01
2022-09-22 14:24:10.030,478922.3377082674,1141550.9208525475,-4263.173156093484,-3.37,0.19,155.25
2022-09-22 14:24:13.095,478922.01556210883,1141551.4273371475,-4263.170119837503,-3.55,0.26,155.32
2022-09-22 14:24:17.060,478921.66080765496,1141551.919094945,-4263.166929418247,-3.63,0.43,155.58
2022-09-22 14:24:21.025,478921.2752328884,1141552.4023711034,-4263.163840305341,-3.68,0.74,155.1
2022-09-22 14:24:24.090,478921.07217008545,1141552.6425183814,-4263.162377062493,-3.72,0.91,155.0
2022-09-22 14:24:28.055,478920.65071977157,1141553.1207682083,-4263.159691646917,-3.47,0.55,154.79
2022-09-22 14:24:32.020,478920.4356317907,1141553.3581657996,-4263.158506753191,-3.48,0.56,154.79
2022-09-22 14:24:35.085,478920.22052972,1141553.5934188294,-4263.157457542894,-3.64,0.35,154.99
2022-09-22 14:24:39.050,478919.60193381784,1141554.2764438675,-4263.155451058124,-3.66,0.62,155.18
2022-09-22 14:24:43.015,478919.23860077205,1141554.7049851036,-4263.155515980393,-3.54,0.69,154.83
2022-09-22 14:24:46.080,478918.9328449607,1141555.11078168,-4263.15716728734,-3.47,0.7,154.85
2022-09-22 14:24:50.045,478918.6882133602,1141555.5004108634,-4263.160571110841,-3.46,0.59,154.8
2022-09-22 14:24:54.010,478918.4134927083,1141556.0831826364,-4263.167999317185,-3.55,0.53,154.78
2022-09-22 14:24:57.075,478918.33673705166,1141556.2851303075,-4263.170584922306,-3.45,0.54,155.07
2022-09-22 14:25:01.040,478918.10958950425,1141556.9409034909,-4263.17649701627,-3.65,0.39,155.02
2022-09-22 14:25:05.005,478918.0258966451,1141557.1803633133,-4263.177468208637,-3.45,0.41,155.02
2022-09-22 14:25:08.070,478917.9347519171,1141557.4309204305,-4263.177848144875,-3.49,0.43,154.86
2022-09-22 14:25:12.035,478917.7262535303,1141557.9617950784,-4263.176896278329,-3.48,0.43,154.98
2022-09-22 14:25:16.000,478917.4841792036,1141558.5193675568,-4263.174017058361,-3.5,0.51,155.1
2022-09-22 14:25:19.065,478917.4841792036,1141558.5193675568,-4263.174017058361,-3.44,0.35,155.13
2022-09-22 14:25:23.030,478917.35386716155,1141558.8014395398,-4263.172029806775,-3.51,0.09,155.47
2022-09-22 14:25:26.095,478917.35386716155,1141558.8014395398,-4263.172029806775,-3.54,0.32,155.85
2022-09-22 14:25:30.060,478917.22027311777,1141559.0818294503,-4263.169776300255,-3.3,0.17,155.89
2022-09-22 14:25:34.025,478916.69965860504,1141560.1454349484,-4263.159723454303,-3.42,0.6,155.66
2022-09-22 14:25:37.090,478916.4682077935,1141560.6348087264,-4263.155410120301,-3.45,0.52,155.39
2022-09-22 14:25:41.055,478916.25600605644,1141561.1058586263,-4263.152621886825,-3.56,0.55,155.35
2022-09-22 14:25:45.020,478916.05404789123,1141561.5693647873,-4263.151899252396,-3.42,0.57,155.26
2022-09-22 14:25:48.085,478915.9544235006,1141561.7997585267,-4263.152405939087,-3.46,0.36,155.5
2022-09-22 14:25:52.050,478915.85532551835,1141562.0285822009,-4263.153532819564,-3.54,0.75,155.18
2022-09-22 14:25:56.015,478915.6617252792,1141562.474874629,-4263.15789752369,-3.3,0.62,154.99
2022-09-22 14:25:59.080,478915.57042331045,1141562.6874242765,-4263.161367856375,-3.38,0.75,155.28
2022-09-22 14:26:03.045,478915.41039262863,1141563.0762308673,-4263.171861597866,-3.47,0.75,155.18
2022-09-22 14:26:07.010,478915.29733529245,1141563.396435234,-4263.1888719498675,-3.37,0.48,155.2
2022-09-22 14:26:10.075,478915.24746516126,1141563.6291770213,-4263.2145246075615,-3.62,-0.13,155.79
2022-09-22 14:26:14.040,478915.30387630506,1141563.7992985866,-4263.271471669557,-3.63,0.39,156.02
2022-09-22 14:26:18.005,478915.58894053946,1141563.7347259205,-4263.375868482027,-3.2,0.24,155.66
2022-09-22 14:26:21.070,478915.9055176657,1141563.5389262142,-4263.464234827583,-3.25,0.43,155.52
2022-09-22 14:26:25.035,478916.2743576698,1141563.2667575912,-4263.553326389593,-3.38,0.38,155.47
2022-09-22 14:26:29.000,478916.68441961455,1141562.933251142,-4263.6399981052455,-3.49,0.43,155.38
2022-09-22 14:26:32.065,478917.1347597205,1141562.5343266476,-4263.721708864201,-3.29,0.43,155.25
2022-09-22 14:26:36.030,478917.78093113285,1141561.8976534232,-4263.816014014002,-3.22,0.84,155.18
2022-09-22 14:26:39.095,478917.9435781011,1141561.723443974,-4263.8358970148465,-3.21,0.6,155.11
2022-09-22 14:26:43.060,478918.1034886591,1141561.5455221494,-4263.854042951641,-3.49,0.68,155.38
2022-09-22 14:26:47.025,478918.5508162924,1141561.0038927149,-4263.8973361095095,-3.26,0.38,155.29
2022-09-22 14:26:50.090,478918.9295973081,1141560.4764476991,-4263.923491271925,-3.09,-0.07,154.42
2022-09-22 14:26:54.055,478919.24736362824,1141559.9815021486,-4263.9333238675235,-2.61,-0.04,154.44
2022-09-22 14:26:58.020,478919.4446914424,1141559.6712401267,-4263.931721592972,-2.08,0.27,154.63
2022-09-22 14:27:01.085,478919.646945303,1141559.376111298,-4263.924543046277,-1.42,0.2,154.88
2022-09-22 14:27:05.050,478919.753429643,1141559.234095159,-4263.919202345313,-1.1,0.32,154.61
2022-09-22 14:27:09.015,478920.10173194204,1141558.8299060797,-4263.898148087671,-0.92,0.49,154.86
2022-09-22 14:27:12.080,478920.22695802734,1141558.7022736045,-4263.890012364546,-1.14,0.27,154.71
2022-09-22 14:27:16.045,478920.6180934265,1141558.3391791722,-4263.864099838814,-1.09,0.27,154.83
2022-09-22 14:27:20.010,478921.0061667251,1141558.004435159,-4263.837013457898,-1.19,0.45,154.88
2022-09-22 14:27:23.075,478921.1295199828,1141557.8995639028,-4263.827680713741,-0.71,0.49,155.18
2022-09-22 14:27:27.040,478921.473116093,1141557.609783184,-4263.798136576128,-0.93,0.66,155.37
2022-09-22 14:27:31.005,478921.6802566665,1141557.4420485962,-4263.77677337065,-1.0,0.35,155.44
2022-09-22 14:27:34.070,478921.77836897335,1141557.36724684,-4263.765530625181,-0.55,0.49,155.31
2022-09-22 14:27:38.035,478922.144471222,1141557.136656155,-4263.716739605751,-0.67,0.26,155.1
2022-09-22 14:27:42.000,478922.2298162865,1141557.0973187468,-4263.703556701539,-0.71,0.02,154.75
2022-09-22 14:27:45.065,478922.31188476755,1141557.0656543605,-4263.68993807813,-0.45,0.28,154.98
2022-09-22 14:27:49.030,478922.58710183366,1141557.0200125438,-4263.630026319636,-0.61,0.33,154.9
2022-09-22 14:27:52.095,478922.6368961603,1141557.030277808,-4263.613320568473,-0.3,0.51,154.97
2022-09-22 14:27:56.060,478922.7274155774,1141557.118276775,-4263.557898223984,-0.41,0.4,154.92
2022-09-22 14:28:00.025,478922.73774509114,1141557.1676715645,-4263.537566112917,-0.08,0.49,155.03
2022-09-22 14:28:03.090,478922.73920290585,1141557.2276003805,-4263.516370562528,-0.39,0.44,155.02
2022-09-22 14:28:07.055,478922.7214822278,1141557.380824888,-4263.471967115935,-0.3,0.44,154.91
2022-09-22 14:28:11.020,478922.6709054284,1141557.84449795,-4263.382678333609,-0.33,0.54,154.99
2022-09-22 14:28:14.085,478922.6734162861,1141558.0004367507,-4263.362343083852,-0.83,0.46,154.99
2022-09-22 14:28:18.050,478922.77340495866,1141558.581825241,-4263.311785678061,-0.58,0.48,154.98
2022-09-22 14:28:22.015,478923.069044439,1141559.323296399,-4263.2808255975715,-0.52,0.36,154.94
2022-09-22 14:28:25.080,478923.2166801436,1141559.5955503788,-4263.274804509742,-0.72,0.37,154.99
2022-09-22 14:28:29.045,478923.57948872226,1141560.155199555,-4263.267744034167,-0.81,0.37,154.99
2022-09-22 14:28:33.010,478924.4899278197,1141561.238081209,-4263.26201236506,-0.96,0.53,155.23
2022-09-22 14:28:36.075,478924.9796439354,1141561.7347690358,-4263.25670864897,-0.7,0.9,155.69
2022-09-22 14:28:40.040,478925.6964581855,1141562.4449859064,-4263.240634405268,-0.84,0.81,156.32
2022-09-22 14:28:44.005,478926.591040497,1141563.4334141924,-4263.208521847695,-0.81,1.05,156.4
2022-09-22 14:28:47.070,478927.2274808291,1141564.2790544457,-4263.185669051467,-1.28,0.74,156.49
2022-09-22 14:28:51.035,478927.63310931454,1141564.901068325,-4263.175008385778,-1.53,0.53,156.51
2022-09-22 14:28:55.000,478928.01100504195,1141565.5583370018,-4263.171142281064,-0.61,0.44,155.92
2022-09-22 14:28:58.065,478928.3445150569,1141566.2307047416,-4263.1790438211365,-0.85,-1.35,154.29
2022-09-22 14:29:02.030,478928.6176419915,1141566.892532738,-4263.20714734687,-0.94,-0.6,154.52
2022-09-22 14:29:05.095,478928.7280829949,1141567.2112465226,-4263.232479196556,-1.59,-0.26,154.45
2022-09-22 14:29:09.060,478928.95137034176,1141568.0860082856,-4263.376057818669,-1.5,0.7,154.39
2022-09-22 14:29:13.025,478929.03370136215,1141569.0136919026,-4263.798197083009,-0.84,1.03,154.18
