[2024/10/02, 13:26:58.146]4,-08,00*6B
[2024/10/02, 13:26:58.224]$GPRMC,052657,A,0113.8261,N,10339.0236,E,3.86,133.[2024/10/02, 13:26:58.490]73,021024,0.16,E,A*23
$GPRMB,A,,,,,,,,,,,,V,A*1C
$GPGGA,052657,0[2024/10/02, 13:26:58.630]113.8261,N,10339.0236,E,1,19,0.64,-0.59,M,9.62,M,,*66
$GPGSA,A,3,1[2024/10/02, 13:26:58.771]0,12,18,23,25,28,29,31,32,,,,1.29,0.64,1.12*07
$GPGSV,5,1,19,10,3[2024/10/02, 13:26:58.911]4,356,24,12,17,066,25,18,46,172,26,23,53,050,27*7B
$GPGSV,5,2,19,2[2024/10/02, 13:26:59.052]5,45,097,30,28,58,264,23,29,10,146,19,31,28,231,16*75
$GPGSV,5,3,1[2024/10/02, 13:26:59.192]9,32,23,332,17,,35,101,30,,42,148,22,,62,337,24*78
$GPGSV,5,4,19,,5[2024/10/02, 13:26:59.333]9,036,25,,54,010,29,,56,353,28,,80,164,26*76
$GPGSV,5,5,19,,39,042[2024/10/02, 13:26:59.474],29,,28,264,14,,37,210,16*49
$GPGLL,0113.8261,N,10339.0236,E,0526[2024/10/02, 13:26:59.614]57,A,A*45
$GPBOD,,T,,M,,*47
$GPBWC,052657,,,,,,T,,M,,N,,A*78
$GP[2024/10/02, 13:26:59.755]VTG,133.73,T,133.57,M,3.86,N,7.16,K,A*28
$PGRME,12.45,M,15.27,M,19[2024/10/02, 13:26:59.896].71,M*23
$PGRMZ,-2,f,3*34
$PGRMM,WGS 84*06
$HCHDM,,M*07
$WIMWV[2024/10/02, 13:27:00.036],,R,,,A*6D
$GPAPB,V,V,,,N,V,V,,,,,,,,N*68
$GPZDA,052657,02,10,20[2024/10/02, 13:27:00.146]24,-08,00*69
[2024/10/02, 13:27:00.224]$GPRMC,052659,A,0113.8259,N,10339.0257,E,3.68,116[2024/10/02, 13:27:00.489].53,021024,0.16,E,A*24
$GPRMB,A,,,,,,,,,,,,V,A*1C
$GPGGA,052659,0[2024/10/02, 13:27:00.630]113.8259,N,10339.0257,E,1,19,0.64,1.39,M,9.62,M,,*4E
$GPGSA,A,3,10[2024/10/02, 13:27:00.770],12,18,23,25,28,29,31,32,,,,1.29,0.64,1.12*07
$GPGSV,5,1,19,10,34,[2024/10/02, 13:27:00.924]356,27,12,17,066,26,18,46,172,26,23,53,050,26*7A
$GPGSV,5,2,19,25,45,097[2024/10/02, 13:27:01.064],30,28,58,264,22,29,10,146,20,31,28,231,16*7E
$GPGSV,5,3,19,32,23,[2024/10/02, 13:27:01.205]332,18,,35,101,30,,42,148,19,,62,337,24*7F
$GPGSV,5,4,19,,59,036,2[2024/10/02, 13:27:01.346]4,,54,010,30,,56,353,28,,80,164,26*7F
$GPGSV,5,5,19,,39,042,28,,28[2024/10/02, 13:27:01.486],264,14,,37,210,15*4B
$GPGLL,0113.8259,N,10339.0257,E,052659,A,A*4[2024/10/02, 13:27:01.627]7
$GPBOD,,T,,M,,*47
$GPBWC,052659,,,,,,T,,M,,N,,A*76
$GPVTG,116[2024/10/02, 13:27:01.767].53,T,116.37,M,3.68,N,6.81,K,A*23
$PGRME,12.49,M,15.22,M,19.69,M*2[2024/10/02, 13:27:01.908]3
$PGRMZ,5,f,3*1E
$PGRMM,WGS 84*06
$HCHDM,,M*07
$WIMWV,,R,,,A*[2024/10/02, 13:27:02.048]6D
$GPAPB,V,V,,,N,V,V,,,,,,,,N*68
$GPZDA,052659,02,10,2024,-08,00[2024/10/02, 13:27:02.142]*67
[2024/10/02, 13:27:02.220]$GPRMC,052701,A,0113.8253,N,10339.0279,E,3.75,10[2024/10/02, 13:27:02.486]6.99,021024,0.16,E,A*25
$GPRMB,A,,,,,,,,,,,,V,A*1C
$GPGGA,052701,[2024/10/02, 13:27:02.626]0113.8253,N,10339.0279,E,1,19,0.64,2.86,M,9.62,M,,*43
$GPGSA,A,3,[2024/10/02, 13:27:02.767]10,12,18,23,25,28,29,31,32,,,,1.29,0.64,1.12*07
$GPGSV,5,1,19,10,3[2024/10/02, 13:27:02.908]4,356,27,12,17,066,27,18,46,172,26,23,53,050,27*7A
$GPGSV,5,2,19,2[2024/10/02, 13:27:03.048]5,45,097,29,28,58,266,23,29,10,146,17,31,28,231,16*71
$GPGSV,5,3,1[2024/10/02, 13:27:03.189]9,32,23,332,17,,35,101,29,,42,148,18,,62,337,25*78
$GPGSV,5,4,19,,[2024/10/02, 13:27:03.329]59,036,25,,54,010,29,,56,353,28,,80,164,27*77
$GPGSV,5,5,19,,39,04[2024/10/02, 13:27:03.470]2,29,,28,264,14,,37,210,15*4A
$GPGLL,0113.8253,N,10339.0279,E,0527[2024/10/02, 13:27:03.611]01,A,A*4D
$GPBOD,,T,,M,,*47
$GPBWC,052701,,,,,,T,,M,,N,,A*7A
$GP[2024/10/02, 13:27:03.751]VTG,106.99,T,106.83,M,3.75,N,6.94,K,A*22
$PGRME,12.52,M,15.17,M,1[2024/10/02, 13:27:03.892]9.67,M*21
$PGRMZ,9,f,3*12
$PGRMM,WGS 84*06
$HCHDM,,M*07
$WIMWV[2024/10/02, 13:27:04.032],,R,,,A*6D
$GPAPB,V,V,,,N,V,V,,,,,,,,N*68
$GPZDA,052701,02,10,202[2024/10/02, 13:27:04.142]4,-08,00*6B
[2024/10/02, 13:27:04.220]$GPRMC,052703,A,0113.8249,N,10339.0302,E,3.90,10[2024/10/02, 13:27:04.485]4.07,021024,0.16,E,A*2F
$GPRMB,A,,,,,,,,,,,,V,A*1C
$GPGGA,052703[2024/10/02, 13:27:04.626],0113.8249,N,10339.0302,E,1,19,0.64,4.55,M,9.62,M,,*4F
$GPGSA,A,3,[2024/10/02, 13:27:04.767]10,12,18,23,25,28,29,31,32,,,,1.29,0.64,1.12*07
$GPGSV,5,1,19,10,3[2024/10/02, 13:27:04.907]4,356,27,12,17,066,27,18,46,172,26,23,53,050,27*7A
$GPGSV,5,2,19,2[2024/10/02, 13:27:05.048]5,45,097,29,28,58,266,24,29,10,146,17,31,28,232,13*70
$GPGSV,5,3,1[2024/10/02, 13:27:05.188]9,32,23,332,21,,35,101,29,,42,148,18,,62,337,26*7E
$GPGSV,5,4,19,,[2024/10/02, 13:27:05.329]59,036,24,,54,010,29,,56,353,28,,80,164,25*74
$GPGSV,5,5,19,,39,04[2024/10/02, 13:27:05.470]2,29,,28,264,23,,37,210,19*42
$GPGLL,0113.8249,N,10339.0302,E,0527[2024/10/02, 13:27:05.610]03,A,A*49
$GPBOD,,T,,M,,*47
$GPBWC,052703,,,,,,T,,M,,N,,A*78
$G[2024/10/02, 13:27:05.751]PVTG,104.07,T,103.91,M,3.90,N,7.23,K,A*27
$PGRME,12.55,M,15.12,M,1[2024/10/02, 13:27:05.891]9.65,M*21
$PGRMZ,15,f,3*2F
$PGRMM,WGS 84*06
$HCHDM,,M*07
$WIMW[2024/10/02, 13:27:06.032]V,,R,,,A*6D
$GPAPB,V,V,,,N,V,V,,,,,,,,N*68
$GPZDA,052703,02,10,20[2024/10/02, 13:27:06.141]24,-08,00*69
[2024/10/02, 13:27:06.219]$GPRMC,052705,A,0113.8241,N,10339.0325,E,4.03,1[2024/10/02, 13:27:06.485]09.12,021024,0.16,E,A*20
$GPRMB,A,,,,,,,,,,,,V,A*1C
$GPGGA,052705[2024/10/02, 13:27:06.626],0113.8241,N,10339.0325,E,1,19,0.64,6.43,M,9.62,M,,*41
$GPGSA,A,3,[2024/10/02, 13:27:06.766]10,12,18,23,25,28,29,31,32,,,,1.29,0.64,1.12*07
$GPGSV,5,1,19,10,3[2024/10/02, 13:27:06.907]4,356,28,12,17,066,27,18,46,172,26,23,53,050,28*7A
$GPGSV,5,2,19,2[2024/10/02, 13:27:07.047]5,45,097,28,28,58,266,23,29,10,146,19,31,28,232,13*78
$GPGSV,5,3,1[2024/10/02, 13:27:07.188]9,32,23,333,22,,35,101,28,,42,148,17,,62,337,26*72
$GPGSV,5,4,19,,[2024/10/02, 13:27:07.328]59,036,25,,54,010,29,,56,353,29,,80,164,26*77
$GPGSV,5,5,19,,39,04[2024/10/02, 13:27:07.469]2,30,,28,264,23,,37,210,19*4A
$GPGLL,0113.8241,N,10339.0325,E,0527[2024/10/02, 13:27:07.610]05,A,A*42
$GPBOD,,T,,M,,*47
$GPBWC,052705,,,,,,T,,M,,N,,A*7E
$GP[2024/10/02, 13:27:07.750]VTG,109.12,T,108.96,M,4.03,N,7.47,K,A*2D
$PGRME,12.58,M,15.27,M,1[2024/10/02, 13:27:07.891]9.78,M*26
$PGRMZ,21,f,3*28
$PGRMM,WGS 84*06
$HCHDM,,M*07
$WIMWV[2024/10/02, 13:27:08.031],,R,,,A*6D
$GPAPB,V,V,,,N,V,V,,,,,,,,N*68
$GPZDA,052705,02,10,20[2024/10/02, 13:27:08.141]24,-08,00*6F
[2024/10/02, 13:27:08.219]$GPRMC,052707,A,0113.8232,N,10339.0345,E,4.12,1[2024/10/02, 13:27:08.484]21.22,021024,0.16,E,A*29
$GPRMB,A,,,,,,,,,,,,V,A*1C
$GPGGA,05270[2024/10/02, 13:27:08.625]7,0113.8232,N,10339.0345,E,1,19,0.64,8.16,M,9.62,M,,*4F
$GPGSA,A,3[2024/10/02, 13:27:08.766],10,12,18,23,25,28,29,31,32,,,,1.29,0.64,1.12*07
$GPGSV,5,1,19,10,[2024/10/02, 13:27:08.906]34,356,27,12,17,066,25,18,46,172,25,23,53,050,26*7A
$GPGSV,5,2,19,[2024/10/02, 13:27:09.047]25,45,097,28,28,58,266,22,29,10,146,14,31,28,232,13*74
$GPGSV,5,3,[2024/10/02, 13:27:09.187]19,32,23,333,23,,35,101,28,,42,148,17,,62,337,25*70
$GPGSV,5,4,19,[2024/10/02, 13:27:09.328],59,036,24,,54,010,29,,56,353,28,,80,164,25*74
$GPGSV,5,5,19,,39,0[2024/10/02, 13:27:09.469]42,30,,28,264,25,,37,210,18*4D
$GPGLL,0113.8232,N,10339.0345,E,052[2024/10/02, 13:27:09.609]707,A,A*42
$GPBOD,,T,,M,,*47
$GPBWC,052707,,,,,,T,,M,,N,,A*7C
$[2024/10/02, 13:27:09.753]GPVTG,121.22,T,121.06,M,4.12,N,7.63,K,A*20
$PGRME,12.60,M,15.34,M,19[2024/10/02, 13:27:09.893].85,M*2D
$PGRMZ,27,f,3*2E
$PGRMM,WGS 84*06
$HCHDM,,M*07
$WIMWV[2024/10/02, 13:27:10.034],,R,,,A*6D
$GPAPB,V,V,,,N,V,V,,,,,,,,N*68
$GPZDA,052707,02,10,20[2024/10/02, 13:27:10.143]24,-08,00*6D
[2024/10/02, 13:27:10.221]$GPRMC,052709,A,0113.8224,N,10339.0364,E,4.06,12[2024/10/02, 13:27:10.487]4.84,021024,0.16,E,A*2F
$GPRMB,A,,,,,,,,,,,,V,A*1C
$GPGGA,052709,[2024/10/02, 13:27:10.628]0113.8224,N,10339.0364,E,1,19,0.64,9.19,M,9.62,M,,*4B
$GPGSA,A,3,1[2024/10/02, 13:27:10.768]0,12,18,23,25,28,29,31,32,,,,1.29,0.64,1.12*07
$GPGSV,5,1,19,10,34[2024/10/02, 13:27:10.909],356,26,12,17,066,26,18,46,172,26,23,53,050,27*7A
$GPGSV,5,2,19,25[2024/10/02, 13:27:11.049],45,097,28,28,58,266,23,29,10,146,17,31,28,232,14*71
$GPGSV,5,3,19[2024/10/02, 13:27:11.190],32,23,333,20,,35,101,28,,42,148,18,,62,337,26*7F
$GPGSV,5,4,19,,5[2024/10/02, 13:27:11.331]9,036,24,,54,010,30,,56,353,29,,80,164,25*7D
$GPGSV,5,5,19,,39,042[2024/10/02, 13:27:11.471],30,,28,264,24,,37,210,18*4C
$GPGLL,0113.8224,N,10339.0364,E,05270[2024/10/02, 13:27:11.612]9,A,A*48
$GPBOD,,T,,M,,*47
$GPBWC,052709,,,,,,T,,M,,N,,A*72
$GP[2024/10/02, 13:27:11.752]VTG,124.84,T,124.68,M,4.06,N,7.52,K,A*23
$PGRME,12.63,M,15.38,M,19[2024/10/02, 13:27:11.893].90,M*26
$PGRMZ,30,f,3*28
$PGRMM,WGS 84*06
$HCHDM,,M*07
$WIMWV[2024/10/02, 13:27:12.034],,R,,,A*6D
$GPAPB,V,V,,,N,V,V,,,,,,,,N*68
$GPZDA,052709,02,10,202[2024/10/02, 13:27:12.143]4,-08,00*63
[2024/10/02, 13:27:12.221]$GPRMC,052711,A,0113.8221,N,10339.0384,E,3.94,10[2024/10/02, 13:27:12.487]5.90,021024,0.16,E,A*27
$GPRMB,A,,,,,,,,,,,,V,A*1C
$GPGGA,052711,[2024/10/02, 13:27:12.627]0113.8221,N,10339.0384,E,1,19,0.64,10.39,M,9.62,M,,*73
$GPGSA,A,3,[2024/10/02, 13:27:12.768]10,12,18,23,25,28,29,31,32,,,,1.29,0.64,1.12*07
$GPGSV,5,1,19,10,3[2024/10/02, 13:27:12.908]4,356,27,12,17,066,27,18,46,172,25,23,53,050,28*76
$GPGSV,5,2,19,2[2024/10/02, 13:27:13.049]5,45,097,27,28,58,266,23,29,10,146,17,31,28,232,14*7E
$GPGSV,5,3,1[2024/10/02, 13:27:13.190]9,32,23,333,21,,35,101,28,,42,148,17,,62,337,26*71
$GPGSV,5,4,19,,[2024/10/02, 13:27:13.330]59,036,25,,54,010,30,,56,353,28,,80,164,25*7D
$GPGSV,5,5,19,,39,04[2024/10/02, 13:27:13.471]2,29,,28,264,23,,37,210,19*42
$GPGLL,0113.8221,N,10339.0384,E,0527[2024/10/02, 13:27:13.611]11,A,A*4A
$GPBOD,,T,,M,,*47
$GPBWC,052711,,,,,,T,,M,,N,,A*7B
$G[2024/10/02, 13:27:13.752]PVTG,105.90,T,105.74,M,3.94,N,7.29,K,A*2B
$PGRME,12.66,M,15.44,M,1[2024/10/02, 13:27:13.893]9.97,M*2F
$PGRMZ,34,f,3*2C
$PGRMM,WGS 84*06
$HCHDM,,M*07
$WIMW[2024/10/02, 13:27:14.033]V,,R,,,A*6D
$GPAPB,V,V,,,N,V,V,,,,,,,,N*68
$GPZDA,052711,02,10,2[2024/10/02, 13:27:14.143]024,-08,00*6A
[2024/10/02, 13:27:14.221]$GPRMC,052713,A,0113.8213,N,10339.0403,E,3.97,10[2024/10/02, 13:27:14.486]3.89,021024,0.16,E,A*21
$GPRMB,A,,,,,,,,,,,,V,A*1C
$GPGGA,052713[2024/10/02, 13:27:14.627],0113.8213,N,10339.0403,E,1,19,0.64,11.25,M,9.62,M,,*74
$GPGSA,A,3[2024/10/02, 13:27:14.767],10,12,18,23,25,28,29,31,32,,,,1.29,0.64,1.12*07
$GPGSV,5,1,19,10,[2024/10/02, 13:27:14.908]34,356,27,12,17,066,27,18,46,172,24,23,53,050,28*77
$GPGSV,5,2,19,[2024/10/02, 13:27:15.048]25,45,097,27,28,58,266,22,29,10,146,14,31,28,232,15*7D
$GPGSV,5,3,[2024/10/02, 13:27:15.189]19,32,23,333,19,,35,101,28,,42,148,17,,62,337,27*7B
$GPGSV,5,4,19,[2024/10/02, 13:27:15.330],59,036,24,,54,010,30,,56,353,29,,80,164,25*7D
$GPGSV,5,5,19,,39,0[2024/10/02, 13:27:15.470]42,30,,28,264,24,,37,210,18*4C
$GPGLL,0113.8213,N,10339.0403,E,052[2024/10/02, 13:27:15.611]713,A,A*41
$GPBOD,,T,,M,,*47
$GPBWC,052713,,,,,,T,,M,,N,,A*79
$[2024/10/02, 13:27:15.752]GPVTG,103.89,T,103.73,M,3.97,N,7.36,K,A*29
$PGRME,12.68,M,15.45,M,[2024/10/02, 13:27:15.892]19.99,M*2E
$PGRMZ,37,f,3*2F
$PGRMM,WGS 84*06
$HCHDM,,M*07
$WIM[2024/10/02, 13:27:16.033]WV,,R,,,A*6D
$GPAPB,V,V,,,N,V,V,,,,,,,,N*68
$GPZDA,052713,02,10,2[2024/10/02, 13:27:16.142]024,-08,00*68
[2024/10/02, 13:27:16.220]$GPRMC,052715,A,0113.8201,N,10339.0421,E,3.97,11[2024/10/02, 13:27:16.486]9.38,021024,0.16,E,A*25
$GPRMB,A,,,,,,,,,,,,V,A*1C
$GPGGA,052715,[2024/10/02, 13:27:16.626]0113.8201,N,10339.0421,E,1,19,0.64,11.46,M,9.62,M,,*74
$GPGSA,A,3,[2024/10/02, 13:27:16.767]10,12,18,23,25,28,29,31,32,,,,1.29,0.64,1.12*07
$GPGSV,5,1,19,10,[2024/10/02, 13:27:16.907]34,356,28,12,17,066,24,18,46,172,24,23,53,050,27*74
$GPGSV,5,2,19,2[2024/10/02, 13:27:17.048]5,45,097,28,28,58,266,21,29,10,146,16,31,28,232,15*73
$GPGSV,5,3,1[2024/10/02, 13:27:17.189]9,32,23,333,19,,35,101,28,,42,148,18,,62,337,26*75
$GPGSV,5,4,19,,[2024/10/02, 13:27:17.329]59,037,24,,54,010,30,,56,353,28,,80,164,25*7D
$GPGSV,5,5,19,,39,04[2024/10/02, 13:27:17.470]2,30,,28,264,24,,37,210,18*4C
$GPGLL,0113.8201,N,10339.0421,E,0527[2024/10/02, 13:27:17.610]15,A,A*44
$GPBOD,,T,,M,,*47
$GPBWC,052715,,,,,,T,,M,,N,,A*7F
$G[2024/10/02, 13:27:17.751]PVTG,119.38,T,119.22,M,3.97,N,7.35,K,A*24
$PGRME,12.69,M,15.58,M,2[2024/10/02, 13:27:17.892]0.10,M*28
$PGRMZ,38,f,3*20
$PGRMM,WGS 84*06
$HCHDM,,M*07
$WIMW[2024/10/02, 13:27:18.032]V,,R,,,A*6D
$GPAPB,V,V,,,N,V,V,,,,,,,,N*68
$GPZDA,052715,02,10,2[2024/10/02, 13:27:18.141]024,-08,00*6E
[2024/10/02, 13:27:18.220]$GPRMC,052717,A,0113.8198,N,10339.0440,E,3.97,99[2024/10/02, 13:27:18.485].56,021024,0.16,E,A*12
$GPRMB,A,,,,,,,,,,,,V,A*1C
$GPGGA,052717,[2024/10/02, 13:27:18.626]0113.8198,N,10339.0440,E,1,19,0.64,11.36,M,9.62,M,,*75
$GPGSA,A,3,[2024/10/02, 13:27:18.766]10,12,18,23,25,28,29,31,32,,,,1.29,0.64,1.12*07
$GPGSV,5,1,19,10,3[2024/10/02, 13:27:18.907]4,356,28,12,17,066,24,18,46,172,24,23,53,050,26*75
$GPGSV,5,2,19,2[2024/10/02, 13:27:19.048]5,45,097,28,28,58,266,22,29,10,146,17,31,28,232,17*73
$GPGSV,5,3,1[2024/10/02, 13:27:19.188]9,32,23,333,23,,35,101,28,,42,148,19,,62,337,26*7D
$GPGSV,5,4,19,,[2024/10/02, 13:27:19.329]59,037,23,,54,010,29,,56,353,28,,80,164,26*71
$GPGSV,5,5,19,,39,04[2024/10/02, 13:27:19.469]2,29,,28,264,23,,37,210,17*4C
$GPGLL,0113.8198,N,10339.0440,E,0527[2024/10/02, 13:27:19.610]17,A,A*42
$GPBOD,,T,,M,,*47
$GPBWC,052717,,,,,,T,,M,,N,,A*7D
$G[2024/10/02, 13:27:19.751]PVTG,99.56,T,99.40,M,3.97,N,7.36,K,A*2B
$PGRME,12.71,M,15.51,M,20[2024/10/02, 13:27:19.891].05,M*2C
$PGRMZ,37,f,3*2F
$PGRMM,WGS 84*06
$HCHDM,,M*07
$WIMWV,[2024/10/02, 13:27:20.032],R,,,A*6D
$GPAPB,V,V,,,N,V,V,,,,,,,,N*68
$GPZDA,052717,02,10,202[2024/10/02, 13:27:20.141]4,-08,00*6C
[2024/10/02, 13:27:20.219]$GPRMC,052719,A,0113.8192,N,10339.0458,E,3.97,1[2024/10/02, 13:27:20.485]00.57,021024,0.16,E,A*2F
$GPRMB,A,,,,,,,,,,,,V,A*1C
$GPGGA,052719[2024/10/02, 13:27:20.625],0113.8192,N,10339.0458,E,1,19,0.64,11.27,M,9.62,M,,*78
$GPGSA,A,3[2024/10/02, 13:27:20.766],10,12,18,23,25,28,29,31,32,,,,1.29,0.64,1.12*07
$GPGSV,5,1,19,10,[2024/10/02, 13:27:20.906]34,356,28,12,17,066,26,18,46,172,25,23,53,050,27*77
$GPGSV,5,2,19,[2024/10/02, 13:27:21.047]25,45,097,28,28,58,266,23,29,10,146,18,31,28,232,16*7C
$GPGSV,5,3,[2024/10/02, 13:27:21.188]19,32,23,333,22,,35,101,28,,42,148,19,,62,337,26*7C
$GPGSV,5,4,19,[2024/10/02, 13:27:21.328],59,037,23,,54,010,30,,56,353,29,,80,164,26*78
$GPGSV,5,5,19,,39,0[2024/10/02, 13:27:21.469]42,29,,28,264,24,,37,210,18*44
$GPGLL,0113.8192,N,10339.0458,E,052[2024/10/02, 13:27:21.609]719,A,A*4F
$GPBOD,,T,,M,,*47
$GPBWC,052719,,,,,,T,,M,,N,,A*73
$[2024/10/02, 13:27:21.750]GPVTG,100.57,T,100.41,M,3.97,N,7.35,K,A*28
$PGRME,12.71,M,15.47,M,[2024/10/02, 13:27:21.891]20.03,M*2D
$PGRMZ,37,f,3*2F
$PGRMM,WGS 84*06
$HCHDM,,M*07
$WIM[2024/10/02, 13:27:22.031]WV,,R,,,A*6D
$GPAPB,V,V,,,N,V,V,,,,,,,,N*68
$GPZDA,052719,02,10,2[2024/10/02, 13:27:22.156]024,-08,00*62
[2024/10/02, 13:27:22.234]$GPRMC,052721,A,0113.8189,N,10339.0478,E,3.89,99.93,021[2024/10/02, 13:27:22.500]024,0.16,E,A*1A
$GPRMB,A,,,,,,,,,,,,V,A*1C
$GPGGA,052721,0113.81[2024/10/02, 13:27:22.640]89,N,10339.0478,E,1,19,0.64,10.15,M,9.62,M,,*7B
$GPGSA,A,3,10,12,1[2024/10/02, 13:27:22.781]8,23,25,28,29,31,32,,,,1.29,0.64,1.12*07
$GPGSV,5,1,19,10,34,356,2[2024/10/02, 13:27:22.922]8,12,17,066,26,18,46,172,25,23,53,050,27*77
$GPGSV,5,2,19,25,45,09[2024/10/02, 13:27:23.062]7,28,28,58,266,21,29,10,146,16,31,28,232,17*71
$GPGSV,5,3,19,32,23[2024/10/02, 13:27:23.203],333,22,,35,101,28,,42,148,17,,62,337,26*72
$GPGSV,5,4,19,,59,037,[2024/10/02, 13:27:23.343]25,,54,010,30,,56,353,30,,80,164,26*76
$GPGSV,5,5,19,,39,042,30,,2[2024/10/02, 13:27:23.484]8,264,22,,37,210,19*4B
$GPGLL,0113.8189,N,10339.0478,E,052721,A,A*[2024/10/02, 13:27:23.625]4C
$GPBOD,,T,,M,,*47
$GPBWC,052721,,,,,,T,,M,,N,,A*78
$GPVTG,99[2024/10/02, 13:27:23.765].93,T,99.77,M,3.89,N,7.20,K,A*2E
$PGRME,12.72,M,15.49,M,20.04,M*27[2024/10/02, 13:27:23.906]
$PGRMZ,33,f,3*2B
$PGRMM,WGS 84*06
$HCHDM,,M*07
$WIMWV,,R,,,A*[2024/10/02, 13:27:24.046]6D
$GPAPB,V,V,,,N,V,V,,,,,,,,N*68
$GPZDA,052721,02,10,2024,-08,0[2024/10/02, 13:27:24.140]0*69
[2024/10/02, 13:27:24.218]$GPRMC,052723,A,0113.8184,N,10339.0498,E,3.89,1[2024/10/02, 13:27:24.484]01.48,021024,0.16,E,A*2D
$GPRMB,A,,,,,,,,,,,,V,A*1C
$GPGGA,052723[2024/10/02, 13:27:24.624],0113.8184,N,10339.0498,E,1,19,0.64,9.84,M,9.62,M,,*4A
$GPGSA,A,3,[2024/10/02, 13:27:24.765]10,12,18,23,25,28,29,31,32,,,,1.29,0.64,1.12*07
$GPGSV,5,1,19,10,3[2024/10/02, 13:27:24.905]4,356,27,12,17,066,27,18,46,172,25,23,53,050,26*78
$GPGSV,5,2,19,2[2024/10/02, 13:27:25.046]5,45,097,28,28,58,266,22,29,10,146,16,31,28,232,14*71
$GPGSV,5,3,1[2024/10/02, 13:27:25.187]9,32,23,333,22,,35,101,28,,42,148,18,,62,337,26*7D
$GPGSV,5,4,19,,[2024/10/02, 13:27:25.327]59,037,25,,54,010,29,,56,352,30,,80,164,26*7F
$GPGSV,5,5,19,,39,04[2024/10/02, 13:27:25.468]2,30,,28,264,21,,37,210,17*46
$GPGLL,0113.8184,N,10339.0498,E,0527[2024/10/02, 13:27:25.608]23,A,A*4D
$GPBOD,,T,,M,,*47
$GPBWC,052723,,,,,,T,,M,,N,,A*7A
$G[2024/10/02, 13:27:25.749]PVTG,101.48,T,101.32,M,3.89,N,7.21,K,A*28
$PGRME,12.73,M,15.52,M,2[2024/10/02, 13:27:25.890]0.07,M*2F
$PGRMZ,32,f,3*2A
$PGRMM,WGS 84*06
$HCHDM,,M*07
$WIMW[2024/10/02, 13:27:26.030]V,,R,,,A*6D
$GPAPB,V,V,,,N,V,V,,,,,,,,N*68
$GPZDA,052723,02,10,20[2024/10/02, 13:27:26.140]24,-08,00*6B
[2024/10/02, 13:27:26.218]$GPRMC,052725,A,0113.8179,N,10339.0519,E,3.93,1[2024/10/02, 13:27:26.483]01.52,021024,0.16,E,A*21
$GPRMB,A,,,,,,,,,,,,V,A*1C
$GPGGA,052725[2024/10/02, 13:27:26.624],0113.8179,N,10339.0519,E,1,19,0.64,9.94,M,9.62,M,,*47
$GPGSA,A,3[2024/10/02, 13:27:26.765],10,12,18,23,25,28,29,31,32,,,,1.29,0.64,1.12*07
$GPGSV,5,1,19,10,[2024/10/02, 13:27:26.905]34,356,27,12,17,066,27,18,46,172,26,23,53,050,27*7A
$GPGSV,5,2,19,[2024/10/02, 13:27:27.046]25,45,097,28,28,58,266,21,29,10,146,17,31,28,232,14*73
$GPGSV,5,3,1[2024/10/02, 13:27:27.186]9,32,23,333,21,,35,101,29,,42,148,19,,62,337,26*7E
$GPGSV,5,4,19,,[2024/10/02, 13:27:27.327]59,037,25,,54,010,30,,56,352,29,,80,164,26*7F
$GPGSV,5,5,19,,39,04[2024/10/02, 13:27:27.467]2,29,,28,264,19,,37,210,21*40
$GPGLL,0113.8179,N,10339.0519,E,052[2024/10/02, 13:27:27.608]725,A,A*41
$GPBOD,,T,,M,,*47
$GPBWC,052725,,,,,,T,,M,,N,,A*7C
$G[2024/10/02, 13:27:27.749]PVTG,101.52,T,101.35,M,3.93,N,7.29,K,A*27
$PGRME,12.73,M,15.57,M,2[2024/10/02, 13:27:27.889]0.12,M*2E
$PGRMZ,33,f,3*2B
$PGRMM,WGS 84*06
$HCHDM,,M*07
$WIMW[2024/10/02, 13:27:28.030]V,,R,,,A*6D
$GPAPB,V,V,,,N,V,V,,,,,,,,N*68
$GPZDA,052725,02,10,2[2024/10/02, 13:27:28.139]024,-08,00*6D
[2024/10/02, 13:27:28.217]$GPRMC,052727,A,0113.8174,N,10339.0539,E,3.99,9[2024/10/02, 13:27:28.483]9.89,021024,0.16,E,A*10
$GPRMB,A,,,,,,,,,,,,V,A*1C
$GPGGA,05272[2024/10/02, 13:27:28.623]7,0113.8174,N,10339.0539,E,1,19,0.64,9.38,M,9.62,M,,*4C
$GPGSA,A,3[2024/10/02, 13:27:28.764],10,12,18,23,25,28,29,31,32,,,,1.29,0.64,1.12*07
$GPGSV,5,1,19,10,[2024/10/02, 13:27:28.905]34,356,27,12,17,066,28,18,46,172,26,23,53,050,27*75
$GPGSV,5,2,19,[2024/10/02, 13:27:29.045]25,45,097,28,28,58,266,22,29,10,146,17,31,28,232,14*70
$GPGSV,5,3,[2024/10/02, 13:27:29.186]19,32,23,333,21,,35,101,29,,42,148,19,,62,337,26*7E
$GPGSV,5,4,19,[2024/10/02, 13:27:29.326],59,037,22,,54,010,30,,56,352,29,,80,164,26*78
$GPGSV,5,5,19,,39,0[2024/10/02, 13:27:29.467]42,28,,28,264,20,,37,210,20*4A
$GPGLL,0113.8174,N,10339.0539,E,052[2024/10/02, 13:27:29.608]727,A,A*4C
$GPBOD,,T,,M,,*47
$GPBWC,052727,,,,,,T,,M,,N,,A*7E
$[2024/10/02, 13:27:29.748]GPVTG,99.89,T,99.73,M,3.99,N,7.39,K,A*28
$PGRME,12.74,M,15.59,M,20[2024/10/02, 13:27:29.889].13,M*26
$PGRMZ,31,f,3*29
$PGRMM,WGS 84*06
$HCHDM,,M*07
$WIMWV[2024/10/02, 13:27:30.029],,R,,,A*6D
$GPAPB,V,V,,,N,V,V,,,,,,,,N*68
$GPZDA,052727,02,10,202[2024/10/02, 13:27:30.139]4,-08,00*6F
[2024/10/02, 13:27:30.217]$GPRMC,052729,A,0113.8167,N,10339.0560,E,4.04,[2024/10/02, 13:27:30.482]101.67,021024,0.16,E,A*23
$GPRMB,A,,,,,,,,,,,,V,A*1C
$GPGGA,05272[2024/10/02, 13:27:30.623]9,0113.8167,N,10339.0560,E,1,19,0.64,8.38,M,9.62,M,,*4D
$GPGSA,A,3[2024/10/02, 13:27:30.763],10,12,18,23,25,28,29,31,32,,,,1.29,0.64,1.12*07
$GPGSV,5,1,19,10[2024/10/02, 13:27:30.904],34,356,26,12,17,066,25,18,46,172,25,23,53,050,27*7A
$GPGSV,5,2,19,[2024/10/02, 13:27:31.045]25,45,097,28,28,58,266,23,29,10,146,19,31,28,232,15*7E
$GPGSV,5,3,[2024/10/02, 13:27:31.185]19,32,23,333,21,,35,101,29,,42,148,18,,62,337,25*7C
$GPGSV,5,4,19,[2024/10/02, 13:27:31.326],59,037,24,,54,010,30,,56,352,28,,80,164,24*7D
$GPGSV,5,5,19,,39,0[2024/10/02, 13:27:31.466]42,29,,28,264,24,,37,210,17*4B
$GPGLL,0113.8167,N,10339.0560,E,052[2024/10/02, 13:27:31.607]729,A,A*4C
$GPBOD,,T,,M,,*47
$GPBWC,052729,,,,,,T,,M,,N,,A*70
$[2024/10/02, 13:27:31.748]GPVTG,101.67,T,101.51,M,4.04,N,7.49,K,A*2C
$PGRME,12.74,M,15.65,M,[2024/10/02, 13:27:31.888]20.18,M*22
$PGRMZ,27,f,3*2E
$PGRMM,WGS 84*06
$HCHDM,,M*07
$WIM[2024/10/02, 13:27:32.029]WV,,R,,,A*6D
$GPAPB,V,V,,,N,V,V,,,,,,,,N*68
$GPZDA,052729,02,10,[2024/10/02, 13:27:32.154]2024,-08,00*61
[2024/10/02, 13:27:32.232]$GPRMC,052731,A,0113.8163,N,10339.0578,E,4.00,98.04,02[2024/10/02, 13:27:32.497]1024,0.16,E,A*17
$GPRMB,A,,,,,,,,,,,,V,A*1C
$GPGGA,052731,0113.8[2024/10/02, 13:27:32.638]163,N,10339.0578,E,1,19,0.64,7.12,M,9.62,M,,*4E
$GPGSA,A,3,10,12,1[2024/10/02, 13:27:32.779]8,23,25,28,29,31,32,,,,1.29,0.64,1.12*07
$GPGSV,5,1,19,10,34,356,2[2024/10/02, 13:27:32.919]6,12,17,066,26,18,46,172,26,23,53,050,28*75
$GPGSV,5,2,19,25,45,09[2024/10/02, 13:27:33.060]7,27,28,58,266,21,29,10,146,19,31,28,232,14*72
$GPGSV,5,3,19,32,23[2024/10/02, 13:27:33.200],333,21,,35,101,28,,42,148,18,,62,337,26*7E
$GPGSV,5,4,19,,59,037,[2024/10/02, 13:27:33.341]25,,54,010,30,,56,352,28,,80,162,26*78
$GPGSV,5,5,19,,39,042,29,,2[2024/10/02, 13:27:33.482]8,264,22,,37,210,18*42
$GPGLL,0113.8163,N,10339.0578,E,052731,A,A*[2024/10/02, 13:27:33.622]48
$GPBOD,,T,,M,,*47
$GPBWC,052731,,,,,,T,,M,,N,,A*79
$GPVTG,98[2024/10/02, 13:27:33.763].04,T,97.87,M,4.00,N,7.41,K,A*21
$PGRME,12.75,M,15.65,M,20.18,M*23[2024/10/02, 13:27:33.903]
$PGRMZ,23,f,3*2A
$PGRMM,WGS 84*06
$HCHDM,,M*07
$WIMWV,,R,,,A*[2024/10/02, 13:27:34.044]6D
$GPAPB,V,V,,,N,V,V,,,,,,,,N*68
$GPZDA,052731,02,10,2024,-08,00[2024/10/02, 13:27:34.138]*68
[2024/10/02, 13:27:34.216]$GPRMC,052733,A,0113.8154,N,10339.0595,E,3.96,[2024/10/02, 13:27:34.481]111.72,021024,0.16,E,A*2B
$GPRMB,A,,,,,,,,,,,,V,A*1C
$GPGGA,05273[2024/10/02, 13:27:34.622]3,0113.8154,N,10339.0595,E,1,19,0.64,6.33,M,9.62,M,,*49
$GPGSA,A,3[2024/10/02, 13:27:34.763],10,12,18,23,25,28,29,31,32,,,,1.29,0.64,1.12*07
$GPGSV,5,1,19,10,[2024/10/02, 13:27:34.903]34,356,27,12,17,066,27,18,46,172,27,23,53,050,27*7B
$GPGSV,5,2,19,[2024/10/02, 13:27:35.044]25,45,097,27,28,58,266,21,29,10,146,18,31,28,232,14*73
$GPGSV,5,3,[2024/10/02, 13:27:35.184]19,32,23,333,23,,35,101,28,,42,148,18,,62,337,26*7C
$GPGSV,5,4,19,[2024/10/02, 13:27:35.325],59,037,24,,54,010,30,,56,352,28,,80,162,26*79
$GPGSV,5,5,19,,39,0[2024/10/02, 13:27:35.466]42,29,,28,264,23,,37,210,19*42
$GPGLL,0113.8154,N,10339.0595,E,052[2024/10/02, 13:27:35.606]733,A,A*4D
$GPBOD,,T,,M,,*47
$GPBWC,052733,,,,,,T,,M,,N,,A*7B
$[2024/10/02, 13:27:35.747]GPVTG,111.72,T,111.56,M,3.96,N,7.33,K,A*2E
$PGRME,12.75,M,15.69,M,[2024/10/02, 13:27:35.887]20.22,M*26
$PGRMZ,21,f,3*28
$PGRMM,WGS 84*06
$HCHDM,,M*07
$WIM[2024/10/02, 13:27:36.028]WV,,R,,,A*6D
$GPAPB,V,V,,,N,V,V,,,,,,,,N*68
$GPZDA,052733,02,10,2[2024/10/02, 13:27:36.153]024,-08,00*6A
[2024/10/02, 13:27:36.231]$GPRMC,052735,A,0113.8148,N,10339.0614,E,3.93,111.07,[2024/10/02, 13:27:36.496]021024,0.16,E,A*2D
$GPRMB,A,,,,,,,,,,,,V,A*1C
$GPGGA,052735,0113.[2024/10/02, 13:27:36.637]8148,N,10339.0614,E,1,19,0.64,5.79,M,9.62,M,,*45
$GPGSA,A,3,10,12,[2024/10/02, 13:27:36.778]18,23,25,28,29,31,32,,,,1.29,0.64,1.12*07
$GPGSV,5,1,19,10,34,356[2024/10/02, 13:27:36.918],28,12,17,066,27,18,46,172,25,23,53,050,28*79
$GPGSV,5,2,19,25,45,[2024/10/02, 13:27:37.059]097,26,28,58,266,22,29,10,146,16,31,28,232,13*78
$GPGSV,5,3,19,32,[2024/10/02, 13:27:37.200]23,333,22,,35,101,28,,42,148,17,,62,337,26*72
$GPGSV,5,4,19,,59,03[2024/10/02, 13:27:37.340]7,25,,54,010,29,,56,352,28,,80,162,24*72
$GPGSV,5,5,19,,39,042,29,,[2024/10/02, 13:27:37.481]28,264,23,,37,210,18*43
$GPGLL,0113.8148,N,10339.0614,E,052735,A,[2024/10/02, 13:27:37.621]A*4C
$GPBOD,,T,,M,,*47
$GPBWC,052735,,,,,,T,,M,,N,,A*7D
$GPVTG,1[2024/10/02, 13:27:37.762]11.07,T,110.91,M,3.93,N,7.28,K,A*29
$PGRME,12.75,M,15.73,M,20.25,M[2024/10/02, 13:27:37.902]*2A
$PGRMZ,19,f,3*23
$PGRMM,WGS 84*06
$HCHDM,,M*07
$WIMWV,,R,,[2024/10/02, 13:27:38.043],A*6D
$GPAPB,V,V,,,N,V,V,,,,,,,,N*68
$GPZDA,052735,02,10,2024,-0[2024/10/02, 13:27:38.152]8,00*6C
[2024/10/02, 13:27:38.230]$GPRMC,052737,A,0113.8144,N,10339.0635,E,3.94,109.58,[2024/10/02, 13:27:38.496]021024,0.16,E,A*24
$GPRMB,A,,,,,,,,,,,,V,A*1C
$GPGGA,052737,0113.[2024/10/02, 13:27:38.637]8144,N,10339.0635,E,1,19,0.64,5.43,M,9.62,M,,*41
$GPGSA,A,3,10,12,[2024/10/02, 13:27:38.777]18,23,25,28,29,31,32,,,,1.29,0.64,1.12*07
$GPGSV,5,1,19,10,34,356[2024/10/02, 13:27:38.918],28,12,17,066,27,18,46,172,24,23,53,050,27*77
$GPGSV,5,2,19,25,45,[2024/10/02, 13:27:39.058]097,27,28,58,266,23,29,10,146,16,31,28,232,16*7D
$GPGSV,5,3,19,32,[2024/10/02, 13:27:39.199]23,333,19,,35,101,28,,42,148,19,,62,337,26*74
$GPGSV,5,4,19,,59,03[2024/10/02, 13:27:39.340]7,24,,54,010,29,,56,352,28,,80,162,25*72
$GPGSV,5,5,19,,39,042,30,[2024/10/02, 13:27:39.480],28,264,20,,37,210,18*48
$GPGLL,0113.8144,N,10339.0635,E,052737,A,[2024/10/02, 13:27:39.621]A*41
$GPBOD,,T,,M,,*47
$GPBWC,052737,,,,,,T,,M,,N,,A*7F
$GPVTG,1[2024/10/02, 13:27:39.761]09.58,T,109.42,M,3.94,N,7.30,K,A*22
$PGRME,12.76,M,15.84,M,20.34,[2024/10/02, 13:27:39.902]M*21
$PGRMZ,18,f,3*22
$PGRMM,WGS 84*06
$HCHDM,,M*07
$WIMWV,,R,,[2024/10/02, 13:27:40.043],A*6D
$GPAPB,V,V,,,N,V,V,,,,,,,,N*68
$GPZDA,052737,02,10,2024,-0[2024/10/02, 13:27:40.152]8,00*6E
[2024/10/02, 13:27:40.230]$GPRMC,052739,A,0113.8137,N,10339.0654,E,3.87,108.98,[2024/10/02, 13:27:40.496]021024,0.16,E,A*26
$GPRMB,A,,,,,,,,,,,,V,A*1C
$GPGGA,052739,0113[2024/10/02, 13:27:40.636].8137,N,10339.0654,E,1,19,0.64,4.89,M,9.62,M,,*4B
$GPGSA,A,3,10,12[2024/10/02, 13:27:40.777],18,23,25,28,29,31,32,,,,1.29,0.64,1.12*07
$GPGSV,5,1,19,10,34,356[2024/10/02, 13:27:40.917],28,12,17,066,26,18,46,172,22,23,53,050,26*71
$GPGSV,5,2,19,25,45,[2024/10/02, 13:27:41.058]097,27,28,58,266,23,29,10,146,24,31,28,232,15*7F
$GPGSV,5,3,19,32,[2024/10/02, 13:27:41.199]23,333,21,,35,101,28,,42,148,19,,62,337,26*7F
$GPGSV,5,4,19,,59,03[2024/10/02, 13:27:41.339]7,24,,54,010,29,,56,352,28,,80,162,24*73
$GPGSV,5,5,19,,39,042,29,[2024/10/02, 13:27:41.480],28,264,23,,37,210,18*43
$GPGLL,0113.8137,N,10339.0654,E,052739,A,[2024/10/02, 13:27:41.620]A*4C
$GPBOD,,T,,M,,*47
$GPBWC,052739,,,,,,T,,M,,N,,A*71
$GPVTG,[2024/10/02, 13:27:41.761]108.98,T,108.82,M,3.87,N,7.16,K,A*24
$PGRME,12.76,M,15.91,M,20.39,[2024/10/02, 13:27:41.902]M*28
$PGRMZ,16,f,3*2C
$PGRMM,WGS 84*06
$HCHDM,,M*07
$WIMWV,,R,[2024/10/02, 13:27:42.042],,A*6D
$GPAPB,V,V,,,N,V,V,,,,,,,,N*68
$GPZDA,052739,02,10,2024,-0[2024/10/02, 13:27:42.151]8,00*60
[2024/10/02, 13:27:42.230]$GPRMC,052741,A,0113.8129,N,10339.0672,E,3.94,108.74,[2024/10/02, 13:27:42.495]021024,0.16,E,A*22
$GPRMB,A,,,,,,,,,,,,V,A*1C
$GPGGA,052741,0113[2024/10/02, 13:27:42.636].8129,N,10339.0672,E,1,19,0.64,4.10,M,9.62,M,,*4F
$GPGSA,A,3,10,12[2024/10/02, 13:27:42.776],18,23,25,28,29,31,32,,,,1.29,0.64,1.12*07
$GPGSV,5,1,19,10,34,356[2024/10/02, 13:27:42.917],29,12,17,066,25,18,46,172,25,23,53,050,26*74
$GPGSV,5,2,19,25,45,[2024/10/02, 13:27:43.057]097,28,28,58,266,20,29,10,146,19,31,28,232,15*7D
$GPGSV,5,3,19,32,[2024/10/02, 13:27:43.198]23,333,24,,35,101,28,,42,148,22,,62,337,27*73
$GPGSV,5,4,19,,59,03[2024/10/02, 13:27:43.339]7,25,,54,010,29,,56,352,29,,80,162,25*72
$GPGSV,5,5,19,,39,042,30,[2024/10/02, 13:27:43.479],28,264,24,,37,210,19*4D
$GPGLL,0113.8129,N,10339.0672,E,052741,A,[2024/10/02, 13:27:43.620]A*48
$GPBOD,,T,,M,,*47
$GPBWC,052741,,,,,,T,,M,,N,,A*7E
$GPVTG,[2024/10/02, 13:27:43.761]108.74,T,108.58,M,3.94,N,7.29,K,A*2F
$PGRME,12.74,M,15.99,M,20.44,[2024/10/02, 13:27:43.901]M*28
$PGRMZ,13,f,3*29
$PGRMM,WGS 84*06
$HCHDM,,M*07
$WIMWV,,R,[2024/10/02, 13:27:44.042],,A*6D
$GPAPB,V,V,,,N,V,V,,,,,,,,N*68
$GPZDA,052741,02,10,2024,-0[2024/10/02, 13:27:44.151]8,00*6F
[2024/10/02, 13:27:44.229]$GPRMC,052743,A,0113.8127,N,10339.0694,E,4.09,97.57,[2024/10/02, 13:27:44.495]021024,0.16,E,A*13
$GPRMB,A,,,,,,,,,,,,V,A*1C
$GPGGA,052743,0113.[2024/10/02, 13:27:44.635]8127,N,10339.0694,E,1,19,0.64,3.75,M,9.62,M,,*4F
$GPGSA,A,3,10,12,[2024/10/02, 13:27:44.776]18,23,25,28,29,31,32,,,,1.29,0.64,1.12*07
$GPGSV,5,1,19,10,34,356[2024/10/02, 13:27:44.916],28,12,17,066,27,18,46,172,23,23,53,050,26*71
$GPGSV,5,2,19,25,45,[2024/10/02, 13:27:45.057]097,27,28,58,266,22,29,10,146,22,31,28,232,15*78
$GPGSV,5,3,19,32,2[2024/10/02, 13:27:45.198]3,333,21,,35,101,27,,42,148,22,,62,337,27*79
$GPGSV,5,4,19,,59,037[2024/10/02, 13:27:45.338],24,,54,010,29,,56,352,29,,80,162,25*73
$GPGSV,5,5,19,,39,042,28,,[2024/10/02, 13:27:45.479]28,264,23,,37,210,18*42
$GPGLL,0113.8127,N,10339.0694,E,052743,A,A[2024/10/02, 13:27:45.619]*4C
$GPBOD,,T,,M,,*47
$GPBWC,052743,,,,,,T,,M,,N,,A*7C
$GPVTG,9[2024/10/02, 13:27:45.760]7.57,T,97.41,M,4.09,N,7.57,K,A*2C
$PGRME,12.74,M,16.02,M,20.47,M*2[2024/10/02, 13:27:45.901]A
$PGRMZ,12,f,3*28
$PGRMM,WGS 84*06
$HCHDM,,M*07
$WIMWV,,R,,,A[2024/10/02, 13:27:46.041]*6D
$GPAPB,V,V,,,N,V,V,,,,,,,,N*68
$GPZDA,052743,02,10,2024,-08,[2024/10/02, 13:27:46.135]00*6D
[2024/10/02, 13:27:46.213]$GPRMC,052745,A,0113.8118,N,10339.0713,E,4.13[2024/10/02, 13:27:46.479],110.22,021024,0.16,E,A*20
$GPRMB,A,,,,,,,,,,,,V,A*1C
$GPGGA,052[2024/10/02, 13:27:46.619]745,0113.8118,N,10339.0713,E,1,19,0.64,2.91,M,9.62,M,,*40
$GPGSA,A[2024/10/02, 13:27:46.760],3,10,12,18,23,25,28,29,31,32,,,,1.29,0.64,1.12*07
$GPGSV,5,1,19,1[2024/10/02, 13:27:46.900]0,34,356,27,12,17,066,25,18,46,172,24,23,53,050,26*7B
$GPGSV,5,2,1[2024/10/02, 13:27:47.041]9,25,45,097,28,28,58,266,23,29,10,146,23,31,28,232,18*7A
$GPGSV,5,[2024/10/02, 13:27:47.181]3,19,32,23,333,20,,35,101,27,,42,148,17,,62,337,26*7F
$GPGSV,5,4,19[2024/10/02, 13:27:47.322],,59,037,24,,54,010,29,,56,352,29,,80,162,25*73
$GPGSV,5,5,19,,39,[2024/10/02, 13:27:47.463]042,29,,28,264,25,,37,210,18*45
$GPGLL,0113.8118,N,10339.0713,E,0[2024/10/02, 13:27:47.603]52745,A,A*48
$GPBOD,,T,,M,,*47
$GPBWC,052745,,,,,,T,,M,,N,,A*7A
[2024/10/02, 13:27:47.744]$GPVTG,110.22,T,110.06,M,4.13,N,7.65,K,A*27
$PGRME,12.74,M,16.14,M[2024/10/02, 13:27:47.884],20.56,M*2D
$PGRMZ,10,f,3*2A
$PGRMM,WGS 84*06
$HCHDM,,M*07
$WI[2024/10/02, 13:27:48.025]MWV,,R,,,A*6D
$GPAPB,V,V,,,N,V,V,,,,,,,,N*68
$GPZDA,052745,02,10[2024/10/02, 13:27:48.150],2024,-08,00*6B
[2024/10/02, 13:27:48.228]$GPRMC,052747,A,0113.8113,N,10339.0736,E,4.25,109.17[2024/10/02, 13:27:48.494],021024,0.16,E,A*25
$GPRMB,A,,,,,,,,,,,,V,A*1C
$GPGGA,052747,0113[2024/10/02, 13:27:48.634].8113,N,10339.0736,E,1,19,0.64,1.78,M,9.62,M,,*4A
$GPGSA,A,3,10,12[2024/10/02, 13:27:48.775],18,23,25,28,29,31,32,,,,1.29,0.64,1.12*07
$GPGSV,5,1,19,10,34,35[2024/10/02, 13:27:48.915]6,27,12,17,066,27,18,46,172,25,23,53,050,27*79
$GPGSV,5,2,19,25,45[2024/10/02, 13:27:49.056],097,28,28,58,266,22,29,10,146,15,31,28,232,18*7E
$GPGSV,5,3,19,32[2024/10/02, 13:27:49.197],23,333,20,,35,101,28,,42,148,19,,62,337,23*7B
$GPGSV,5,4,19,,59,0[2024/10/02, 13:27:49.337]37,24,,54,010,30,,56,352,29,,80,162,25*7B
$GPGSV,5,5,19,,39,042,28[2024/10/02, 13:27:49.478],,28,264,21,,37,210,18*40
$GPGLL,0113.8113,N,10339.0736,E,052747,A[2024/10/02, 13:27:49.618],A*46
$GPBOD,,T,,M,,*47
$GPBWC,052747,,,,,,T,,M,,N,,A*78
$GPVTG,[2024/10/02, 13:27:49.759]109.17,T,109.01,M,4.25,N,7.88,K,A*20
$PGRME,12.74,M,16.18,M,20.59[2024/10/02, 13:27:49.900],M*2E
$PGRMZ,6,f,3*1D
$PGRMM,WGS 84*06
$HCHDM,,M*07
$WIMWV,,R,[2024/10/02, 13:27:50.040],,A*6D
$GPAPB,V,V,,,N,V,V,,,,,,,,N*68
$GPZDA,052747,02,10,2024,-[2024/10/02, 13:27:50.150]08,00*69
[2024/10/02, 13:27:50.228]$GPRMC,052749,A,0113.8108,N,10339.0762,E,4.30,108.64[2024/10/02, 13:27:50.493],021024,0.16,E,A*21
$GPRMB,A,,,,,,,,,,,,V,A*1C
$GPGGA,052749,011[2024/10/02, 13:27:50.634]3.8108,N,10339.0762,E,1,19,0.64,1.04,M,9.62,M,,*44
$GPGSA,A,3,10,1[2024/10/02, 13:27:50.774]2,18,23,25,28,29,31,32,,,,1.29,0.64,1.12*07
$GPGSV,5,1,19,10,34,35[2024/10/02, 13:27:50.915]6,27,12,17,066,27,18,46,172,26,23,53,050,26*7B
$GPGSV,5,2,19,25,45[2024/10/02, 13:27:51.056],097,28,28,58,266,23,29,10,146,16,31,28,232,15*71
$GPGSV,5,3,19,32[2024/10/02, 13:27:51.196],23,333,21,,35,101,28,,42,148,21,,62,337,25*77
$GPGSV,5,4,19,,59,0[2024/10/02, 13:27:51.337]37,24,,54,010,29,,56,352,29,,80,162,27*71
$GPGSV,5,5,19,,39,042,29[2024/10/02, 13:27:51.477],,28,264,20,,37,210,18*40
$GPGLL,0113.8108,N,10339.0762,E,052749,A[2024/10/02, 13:27:51.618],A*43
$GPBOD,,T,,M,,*47
$GPBWC,052749,,,,,,T,,M,,N,,A*76
$GPVTG[2024/10/02, 13:27:51.759],108.64,T,108.48,M,4.30,N,7.96,K,A*22
$PGRME,12.63,M,16.15,M,20.50[2024/10/02, 13:27:51.899],M*2C
$PGRMZ,3,f,3*18
$PGRMM,WGS 84*06
$HCHDM,,M*07
$WIMWV,,R,[2024/10/02, 13:27:52.040],,A*6D
$GPAPB,V,V,,,N,V,V,,,,,,,,N*68
$GPZDA,052749,02,10,2024,-0[2024/10/02, 13:27:52.149]8,00*67
[2024/10/02, 13:27:52.227]$GPRMC,052751,A,0113.8103,N,10339.0786,E,4.40,108.35[2024/10/02, 13:27:52.493],021024,0.16,E,A*2A
$GPRMB,A,,,,,,,,,,,,V,A*1C
$GPGGA,052751,011[2024/10/02, 13:27:52.633]3.8103,N,10339.0786,E,1,19,0.64,0.97,M,9.62,M,,*47
$GPGSA,A,3,10,1[2024/10/02, 13:27:52.774]2,18,23,25,28,29,31,32,,,,1.29,0.64,1.12*07
$GPGSV,5,1,19,10,34,35[2024/10/02, 13:27:52.915]6,27,12,17,066,27,18,46,172,26,23,53,050,27*7A
$GPGSV,5,2,19,25,45[2024/10/02, 13:27:53.055],097,28,28,58,266,22,29,10,146,19,31,28,232,14*7E
$GPGSV,5,3,19,32[2024/10/02, 13:27:53.196],23,333,23,,35,101,29,,42,148,20,,62,337,24*74
$GPGSV,5,4,19,,59,0[2024/10/02, 13:27:53.336]37,24,,54,010,30,,56,352,29,,80,162,25*7B
$GPGSV,5,5,19,,39,042,29[2024/10/02, 13:27:53.477],,28,264,20,,37,210,16*4E
$GPGLL,0113.8103,N,10339.0786,E,052751,A[2024/10/02, 13:27:53.618],A*4B
$GPBOD,,T,,M,,*47
$GPBWC,052751,,,,,,T,,M,,N,,A*7F
$GPVTG,[2024/10/02, 13:27:53.758]108.35,T,108.19,M,4.40,N,8.15,K,A*21
$PGRME,12.63,M,16.25,M,20.58[2024/10/02, 13:27:53.899],M*27
$PGRMZ,3,f,3*18
$PGRMM,WGS 84*06
$HCHDM,,M*07
$WIMWV,,R,,[2024/10/02, 13:27:54.039],A*6D
$GPAPB,V,V,,,N,V,V,,,,,,,,N*68
$GPZDA,052751,02,10,2024,-0[2024/10/02, 13:27:54.149]8,00*6E
[2024/10/02, 13:27:54.227]$GPRMC,052753,A,0113.8097,N,10339.0812,E,4.46,104.0[2024/10/02, 13:27:54.492]7,021024,0.16,E,A*2D
$GPRMB,A,,,,,,,,,,,,V,A*1C
$GPGGA,052753,011[2024/10/02, 13:27:54.633]3.8097,N,10339.0812,E,1,19,0.64,0.75,M,9.62,M,,*47
$GPGSA,A,3,10,1[2024/10/02, 13:27:54.773]2,18,23,25,28,29,31,32,,,,1.29,0.64,1.12*07
$GPGSV,5,1,19,10,34,35[2024/10/02, 13:27:54.914]6,27,12,17,066,26,18,46,172,26,23,53,050,27*7B
$GPGSV,5,2,19,25,45[2024/10/02, 13:27:55.055],097,28,28,58,266,21,29,10,146,18,31,28,232,15*7D
$GPGSV,5,3,19,32[2024/10/02, 13:27:55.195],23,333,20,,35,101,28,,42,148,20,,62,337,25*77
$GPGSV,5,4,19,,59,0[2024/10/02, 13:27:55.336]37,25,,54,010,29,,56,352,29,,80,162,27*70
$GPGSV,5,5,19,,39,042,29[2024/10/02, 13:27:55.476],,28,264,20,,37,210,20*4B
$GPGLL,0113.8097,N,10339.0812,E,052753,A[2024/10/02, 13:27:55.617],A*47
$GPBOD,,T,,M,,*47
$GPBWC,052753,,,,,,T,,M,,N,,A*7D
$GPVTG[2024/10/02, 13:27:55.758],104.07,T,103.91,M,4.46,N,8.27,K,A*20
$PGRME,12.63,M,16.29,M,20.62[2024/10/02, 13:27:55.898],M*22
$PGRMZ,2,f,3*19
$PGRMM,WGS 84*06
$HCHDM,,M*07
$WIMWV,,R,[2024/10/02, 13:27:56.039],,A*6D
$GPAPB,V,V,,,N,V,V,,,,,,,,N*68
$GPZDA,052753,02,10,2024,-0[2024/10/02, 13:27:56.148]8,00*6C
[2024/10/02, 13:27:56.226]$GPRMC,052755,A,0113.8085,N,10339.0834,E,4.44,120.3[2024/10/02, 13:27:56.492]0,021024,0.16,E,A*2C
$GPRMB,A,,,,,,,,,,,,V,A*1C
$GPGGA,052755,011[2024/10/02, 13:27:56.632]3.8085,N,10339.0834,E,1,19,0.64,0.47,M,9.62,M,,*47
$GPGSA,A,3,10,1[2024/10/02, 13:27:56.773]2,18,23,25,28,29,31,32,,,,1.29,0.64,1.12*07
$GPGSV,5,1,19,10,34,35[2024/10/02, 13:27:56.914]6,26,12,17,066,26,18,46,172,26,23,53,050,28*75
$GPGSV,5,2,19,25,45[2024/10/02, 13:27:57.054],097,27,28,58,266,23,29,10,146,19,31,28,232,15*71
$GPGSV,5,3,19,32[2024/10/02, 13:27:57.195],23,333,21,,35,101,28,,42,148,19,,62,337,25*7C
$GPGSV,5,4,19,,59,0[2024/10/02, 13:27:57.335]37,25,,54,010,30,,56,352,29,,80,162,25*7A
$GPGSV,5,5,19,,39,042,30[2024/10/02, 13:27:57.476],,28,264,22,,37,210,18*4A
$GPGLL,0113.8085,N,10339.0834,E,052755,A[2024/10/02, 13:27:57.617],A*46
$GPBOD,,T,,M,,*47
$GPBWC,052755,,,,,,T,,M,,N,,A*7B
$GPVTG[2024/10/02, 13:27:57.757],120.30,T,120.14,M,4.44,N,8.22,K,A*29
$PGRME,12.64,M,16.43,M,20.73[2024/10/02, 13:27:57.898],M*29
$PGRMZ,2,f,3*19
$PGRMM,WGS 84*06
$HCHDM,,M*07
$WIMWV,,R,[2024/10/02, 13:27:58.038],,A*6D
$GPAPB,V,V,,,N,V,V,,,,,,,,N*68
$GPZDA,052755,02,10,2024,-0[2024/10/02, 13:27:58.148]8,00*6A
[2024/10/02, 13:27:58.226]$GPRMC,052757,A,0113.8077,N,10339.0854,E,4.33,125.2[2024/10/02, 13:27:58.491]7,021024,0.16,E,A*26
$GPRMB,A,,,,,,,,,,,,V,A*1C
$GPGGA,052757,011[2024/10/02, 13:27:58.632]3.8077,N,10339.0854,E,1,19,0.64,-0.03,M,9.62,M,,*63
$GPGSA,A,3,10[2024/10/02, 13:27:58.773],12,18,23,25,28,29,31,32,,,,1.29,0.64,1.12*07
$GPGSV,5,1,19,10,34,[2024/10/02, 13:27:58.913]356,27,12,17,066,27,18,46,172,26,23,53,050,28*75
$GPGSV,5,2,19,25,[2024/10/02, 13:27:59.054]45,097,28,28,58,266,21,29,10,146,16,31,28,232,15*73
$GPGSV,5,3,19,[2024/10/02, 13:27:59.194]32,23,333,20,,35,101,28,,42,148,20,,62,337,26*74
$GPGSV,5,4,19,,59[2024/10/02, 13:27:59.335],037,23,,54,010,30,,56,352,28,,80,162,25*7D
$GPGSV,5,5,19,,39,042,[2024/10/02, 13:27:59.475]29,,28,264,21,,37,210,18*41
$GPGLL,0113.8077,N,10339.0854,E,052757[2024/10/02, 13:27:59.616],A,A*4F
$GPBOD,,T,,M,,*47
$GPBWC,052757,,,,,,T,,M,,N,,A*79
$GPVT[2024/10/02, 13:27:59.757]G,125.27,T,125.11,M,4.33,N,8.01,K,A*2B
$PGRME,12.64,M,16.45,M,20.[2024/10/02, 13:27:59.897]74,M*28
$PGRMZ,0,f,3*1B
$PGRMM,WGS 84*06
$HCHDM,,M*07
$WIMWV,,[2024/10/02, 13:28:00.038]R,,,A*6D
$GPAPB,V,V,,,N,V,V,,,,,,,,N*68
$GPZDA,052757,02,10,2024,[2024/10/02, 13:28:00.147]-08,00*68
[2024/10/02, 13:28:00.225]$GPRMC,052759,A,0113.8078,N,10339.0878,E,4.31,94.46[2024/10/02, 13:28:00.491],021024,0.16,E,A*17
$GPRMB,A,,,,,,,,,,,,V,A*1C
$GPGGA,052759,011[2024/10/02, 13:28:00.631]3.8078,N,10339.0878,E,1,19,0.64,-0.46,M,9.62,M,,*6D
$GPGSA,A,3,10,[2024/10/02, 13:28:00.772]12,18,23,25,28,29,31,32,,,,1.29,0.64,1.12*07
$GPGSV,5,1,19,10,35,3[2024/10/02, 13:28:00.913]56,27,12,17,066,27,18,46,172,26,23,53,050,28*74
$GPGSV,5,2,19,25,4[2024/10/02, 13:28:01.053]5,097,28,28,58,266,22,29,10,146,16,31,28,232,15*70
$GPGSV,5,3,19,3[2024/10/02, 13:28:01.194]2,23,333,21,,35,101,29,,42,148,17,,62,337,26*70
$GPGSV,5,4,19,,59,[2024/10/02, 13:28:01.334]037,24,,54,010,30,,56,352,28,,80,162,25*7A
$GPGSV,5,5,19,,39,042,30[2024/10/02, 13:28:01.475],,28,264,23,,37,210,18*4B
$GPGLL,0113.8078,N,10339.0878,E,052759,[2024/10/02, 13:28:01.616]A,A*40
$GPBOD,,T,,M,,*47
$GPBWC,052759,,,,,,T,,M,,N,,A*77
$GPVTG[2024/10/02, 13:28:01.756],94.46,T,94.30,M,4.31,N,7.99,K,A*23
$PGRME,12.65,M,16.50,M,20.79,[2024/10/02, 13:28:01.897]M*20
$PGRMZ,-2,f,3*34
$PGRMM,WGS 84*06
$HCHDM,,M*07
$WIMWV,,R,,[2024/10/02, 13:28:02.037],A*6D
$GPAPB,V,V,,,N,V,V,,,,,,,,N*68
$GPZDA,052759,02,10,2024,-0[2024/10/02, 13:28:02.147]8,00*66
[2024/10/02, 13:28:02.225]$GPRMC,052801,A,0113.8072,N,10339.0904,E,4.42,91.0[2024/10/02, 13:28:02.490]0,021024,0.16,E,A*16
$GPRMB,A,,,,,,,,,,,,V,A*1C
$GPGGA,052801,011[2024/10/02, 13:28:02.631]3.8072,N,10339.0904,E,1,19,0.64,-1.12,M,9.63,M,,*6E
$GPGSA,A,3,10,[2024/10/02, 13:28:02.772]12,18,23,25,28,29,31,32,,,,1.29,0.64,1.12*07
$GPGSV,5,1,19,10,35,3[2024/10/02, 13:28:02.912]56,27,12,17,065,28,18,46,172,26,23,53,050,28*78
$GPGSV,5,2,19,25,4[2024/10/02, 13:28:03.053]5,097,28,28,58,266,21,29,10,146,17,31,28,232,16*71
$GPGSV,5,3,19,3[2024/10/02, 13:28:03.193]2,23,333,21,,35,101,28,,42,148,18,,62,337,27*7F
$GPGSV,5,4,19,,59,[2024/10/02, 13:28:03.334]037,24,,54,010,30,,56,352,28,,80,162,26*79
$GPGSV,5,5,19,,39,042,3[2024/10/02, 13:28:03.475]0,,28,264,22,,37,210,18*4A
$GPGLL,0113.8072,N,10339.0904,E,052801,[2024/10/02, 13:28:03.615]A,A*42
$GPBOD,,T,,M,,*47
$GPBWC,052801,,,,,,T,,M,,N,,A*75
$GPVTG[2024/10/02, 13:28:03.756],91.00,T,90.84,M,4.42,N,8.18,K,A*2D
$PGRME,12.65,M,16.52,M,20.81,[2024/10/02, 13:28:03.896]M*25
$PGRMZ,-4,f,3*32
$PGRMM,WGS 84*06
$HCHDM,,M*07
$WIMWV,,R,[2024/10/02, 13:28:04.037],,A*6D
$GPAPB,V,V,,,N,V,V,,,,,,,,N*68
$GPZDA,052801,02,10,2024,-0[2024/10/02, 13:28:04.146]8,00*64
[2024/10/02, 13:28:04.224]$GPRMC,052803,A,0113.8061,N,10339.0925,E,4.29,120.[2024/10/02, 13:28:04.490]84,021024,0.16,E,A*2F
$GPRMB,A,,,,,,,,,,,,V,A*1C
$GPGGA,052803,01[2024/10/02, 13:28:04.631]13.8061,N,10339.0925,E,1,19,0.64,-2.42,M,9.63,M,,*6B
$GPGSA,A,3,10[2024/10/02, 13:28:04.771],12,18,23,25,28,29,31,32,,,,1.29,0.64,1.12*07
$GPGSV,5,1,19,10,35[2024/10/02, 13:28:04.912],356,28,12,17,065,28,18,46,172,26,23,53,050,27*78
$GPGSV,5,2,19,25[2024/10/02, 13:28:05.052],45,097,28,28,58,266,23,29,10,146,20,31,28,232,13*72
$GPGSV,5,3,19,[2024/10/02, 13:28:05.193]32,23,333,20,,35,101,28,,42,148,20,,62,337,26*74
$GPGSV,5,4,19,,59[2024/10/02, 13:28:05.334],037,24,,54,010,30,,56,352,28,,80,162,27*78
$GPGSV,5,5,19,,39,042,[2024/10/02, 13:28:05.474]27,,28,264,23,,37,210,19*4C
$GPGLL,0113.8061,N,10339.0925,E,052803[2024/10/02, 13:28:05.615],A,A*41
$GPBOD,,T,,M,,*47
$GPBWC,052803,,,,,,T,,M,,N,,A*77
$GPV[2024/10/02, 13:28:05.755]TG,120.84,T,120.68,M,4.29,N,7.95,K,A*25
$PGRME,12.66,M,16.74,M,20.[2024/10/02, 13:28:05.896]99,M*2B
$PGRMZ,-8,f,3*3E
$PGRMM,WGS 84*06
$HCHDM,,M*07
$WIMWV,[2024/10/02, 13:28:06.036],R,,,A*6D
$GPAPB,V,V,,,N,V,V,,,,,,,,N*68
$GPZDA,052803,02,10,202[2024/10/02, 13:28:06.146]4,-08,00*66
[2024/10/02, 13:28:06.224]$GPRMC,052805,A,0113.8053,N,10339.0947,E,4.19,114.[2024/10/02, 13:28:06.489]32,021024,0.16,E,A*25
$GPRMB,A,,,,,,,,,,,,V,A*1C
$GPGGA,052805,01[2024/10/02, 13:28:06.630]13.8053,N,10339.0947,E,1,19,0.64,-3.20,M,9.63,M,,*6D
$GPGSA,A,3,10[2024/10/02, 13:28:06.771],12,18,23,25,28,29,31,32,,,,1.29,0.64,1.12*07
$GPGSV,5,1,19,10,35,[2024/10/02, 13:28:06.911]356,28,12,17,065,25,18,46,172,25,23,53,050,28*79
$GPGSV,5,2,19,25,[2024/10/02, 13:28:07.052]45,097,28,28,58,266,24,29,10,146,18,31,28,232,13*7E
$GPGSV,5,3,19,[2024/10/02, 13:28:07.192]32,23,333,23,,35,101,28,,42,148,20,,62,337,26*77
$GPGSV,5,4,19,,59[2024/10/02, 13:28:07.333],037,25,,54,010,30,,56,352,29,,80,162,24*7B
$GPGSV,5,5,19,,39,042,[2024/10/02, 13:28:07.474]29,,28,264,22,,37,210,20*49
$GPGLL,0113.8053,N,10339.0947,E,052805[2024/10/02, 13:28:07.614],A,A*42
$GPBOD,,T,,M,,*47
$GPBWC,052805,,,,,,T,,M,,N,,A*71
$GPV[2024/10/02, 13:28:07.755]TG,114.32,T,114.16,M,4.19,N,7.76,K,A*2F
$PGRME,12.67,M,16.90,M,21.[2024/10/02, 13:28:07.895]12,M*22
$PGRMZ,-11,f,3*06
$PGRMM,WGS 84*06
$HCHDM,,M*07
$WIMWV[2024/10/02, 13:28:08.036],,R,,,A*6D
$GPAPB,V,V,,,N,V,V,,,,,,,,N*68
$GPZDA,052805,02,10,202[2024/10/02, 13:28:08.145]4,-08,00*60
[2024/10/02, 13:28:08.223]$GPRMC,052807,A,0113.8051,N,10339.0966,E,4.19,87.9[2024/10/02, 13:28:08.489]8,021024,0.16,E,A*1D
$GPRMB,A,,,,,,,,,,,,V,A*1C
$GPGGA,052807,01[2024/10/02, 13:28:08.630]13.8051,N,10339.0966,E,1,19,0.64,-3.38,M,9.63,M,,*67
$GPGSA,A,3,10[2024/10/02, 13:28:08.770],12,18,23,25,28,29,31,32,,,,1.29,0.64,1.12*07
$GPGSV,5,1,19,10,35,[2024/10/02, 13:28:08.911]356,28,12,17,065,26,18,45,172,23,23,53,050,27*70
$GPGSV,5,2,19,25,[2024/10/02, 13:28:09.051]45,097,28,28,58,266,20,29,10,146,23,31,28,232,15*74
$GPGSV,5,3,19,[2024/10/02, 13:28:09.192]32,23,333,21,,35,101,28,,42,148,20,,62,337,26*75
$GPGSV,5,4,19,,59[2024/10/02, 13:28:09.332],037,25,,54,010,30,,56,352,29,,80,162,24*7B
$GPGSV,5,5,19,,39,042,[2024/10/02, 13:28:09.473]29,,28,264,22,,37,210,19*43
$GPGLL,0113.8051,N,10339.0966,E,052807[2024/10/02, 13:28:09.614],A,A*41
$GPBOD,,T,,M,,*47
$GPBWC,052807,,,,,,T,,M,,N,,A*73
$GPV[2024/10/02, 13:28:09.754]TG,87.98,T,87.82,M,4.19,N,7.77,K,A*23
$PGRME,12.68,M,17.05,M,21.24[2024/10/02, 13:28:09.895],M*25
$PGRMZ,-11,f,3*06
$PGRMM,WGS 84*06
$HCHDM,,M*07
$WIMWV,,[2024/10/02, 13:28:10.035]R,,,A*6D
$GPAPB,V,V,,,N,V,V,,,,,,,,N*68
$GPZDA,052807,02,10,2024[2024/10/02, 13:28:10.145],-08,00*62
[2024/10/02, 13:28:10.223]$GPRMC,052809,A,0113.8042,N,10339.0989,E,4.00,107.[2024/10/02, 13:28:10.489]61,021024,0.16,E,A*27
$GPRMB,A,,,,,,,,,,,,V,A*1C
$GPGGA,052809,0[2024/10/02, 13:28:10.629]113.8042,N,10339.0989,E,1,19,0.64,-4.12,M,9.63,M,,*65
$GPGSA,A,3,1[2024/10/02, 13:28:10.770]0,12,18,23,25,28,29,31,32,,,,1.29,0.64,1.12*07
$GPGSV,5,1,19,10,35[2024/10/02, 13:28:10.910],356,28,12,17,065,25,18,45,172,25,23,53,050,27*75
$GPGSV,5,2,19,25[2024/10/02, 13:28:11.051],45,097,28,28,58,266,22,29,10,146,23,31,28,232,16*75
$GPGSV,5,3,19[2024/10/02, 13:28:11.191],32,23,333,23,,35,101,28,,42,148,17,,62,337,26*73
$GPGSV,5,4,19,,5[2024/10/02, 13:28:11.332]9,037,24,,54,010,30,,56,352,28,,80,162,26*79
$GPGSV,5,5,19,,39,042[2024/10/02, 13:28:11.473],29,,28,264,22,,37,210,18*42
$GPGLL,0113.8042,N,10339.0989,E,05280[2024/10/02, 13:28:11.613]9,A,A*4C
$GPBOD,,T,,M,,*47
$GPBWC,052809,,,,,,T,,M,,N,,A*7D
$GP[2024/10/02, 13:28:11.754]VTG,107.61,T,107.45,M,4.00,N,7.41,K,A*23
$PGRME,12.68,M,17.16,M,21[2024/10/02, 13:28:11.894].34,M*26
$PGRMZ,-14,f,3*03
$PGRMM,WGS 84*06
$HCHDM,,M*07
$WIMW[2024/10/02, 13:28:12.035]V,,R,,,A*6D
$GPAPB,V,V,,,N,V,V,,,,,,,,N*68
$GPZDA,052809,02,10,2[2024/10/02, 13:28:12.144]024,-08,00*6C
[2024/10/02, 13:28:12.223]$GPRMC,052811,A,0113.8027,N,10339.1007,E,4.01,127[2024/10/02, 13:28:12.488].48,021024,0.16,E,A*2B
$GPRMB,A,,,,,,,,,,,,V,A*1C
$GPGGA,052811,0[2024/10/02, 13:28:12.629]113.8027,N,10339.1007,E,1,19,0.64,-5.55,M,9.63,M,,*63
$GPGSA,A,3,1[2024/10/02, 13:28:12.769]0,12,18,23,25,28,29,31,32,,,,1.29,0.64,1.12*07
$GPGSV,5,1,19,10,35[2024/10/02, 13:28:12.910],356,28,12,17,065,26,18,45,172,26,23,53,050,28*7A
$GPGSV,5,2,19,25[2024/10/02, 13:28:13.050],45,097,28,28,58,266,22,29,10,146,19,31,28,232,16*7C
$GPGSV,5,3,19[2024/10/02, 13:28:13.191],32,23,333,22,,35,101,28,,42,148,17,,62,337,27*73
$GPGSV,5,4,19,,5[2024/10/02, 13:28:13.332]9,037,25,,54,010,30,,56,352,28,,80,162,25*7B
$GPGSV,5,5,19,,39,042[2024/10/02, 13:28:13.472],31,,28,264,22,,37,210,19*4A
$GPGLL,0113.8027,N,10339.1007,E,05281[2024/10/02, 13:28:13.613]1,A,A*48
$GPBOD,,T,,M,,*47
$GPBWC,052811,,,,,,T,,M,,N,,A*74
$GP[2024/10/02, 13:28:13.753]VTG,127.48,T,127.32,M,4.01,N,7.42,K,A*2A
$PGRME,12.69,M,17.28,M,21[2024/10/02, 13:28:13.894].44,M*2D
$PGRMZ,-18,f,3*0F
$PGRMM,WGS 84*06
$HCHDM,,M*07
$WIMW[2024/10/02, 13:28:14.034]V,,R,,,A*6D
$GPAPB,V,V,,,N,V,V,,,,,,,,N*68
$GPZDA,052811,02,10,2[2024/10/02, 13:28:14.144]024,-08,00*65
[2024/10/02, 13:28:14.222]$GPRMC,052813,A,0113.8018,N,10339.1029,E,4.06,118[2024/10/02, 13:28:14.488].44,021024,0.16,E,A*2E
$GPRMB,A,,,,,,,,,,,,V,A*1C
$GPGGA,052813,0[2024/10/02, 13:28:14.628]113.8018,N,10339.1029,E,1,19,0.64,-5.76,M,9.63,M,,*60
$GPGSA,A,3,1[2024/10/02, 13:28:14.769]0,12,18,23,25,28,29,31,32,,,,1.29,0.64,1.12*07
$GPGSV,5,1,19,10,35[2024/10/02, 13:28:14.909],356,28,12,17,065,26,18,45,172,27,23,53,051,27*75
$GPGSV,5,2,19,25[2024/10/02, 13:28:15.050],45,097,28,28,58,266,20,29,10,146,19,31,28,232,14*7C
$GPGSV,5,3,19[2024/10/02, 13:28:15.190],32,23,333,22,,35,101,28,,42,148,18,,62,337,26*7D
$GPGSV,5,4,19,,5[2024/10/02, 13:28:15.331]9,037,23,,54,010,30,,56,352,28,,80,162,26*7E
$GPGSV,5,5,19,,39,042[2024/10/02, 13:28:15.472],30,,28,264,22,,37,210,17*45
$GPGLL,0113.8018,N,10339.1029,E,05281[2024/10/02, 13:28:15.612]3,A,A*4A
$GPBOD,,T,,M,,*47
$GPBWC,052813,,,,,,T,,M,,N,,A*76
$GP[2024/10/02, 13:28:15.753]VTG,118.44,T,118.28,M,4.06,N,7.52,K,A*2B
$PGRME,12.70,M,17.48,M,21[2024/10/02, 13:28:15.893].61,M*24
$PGRMZ,-19,f,3*0E
$PGRMM,WGS 84*06
$HCHDM,,M*07
$WIMW[2024/10/02, 13:28:16.034]V,,R,,,A*6D
$GPAPB,V,V,,,N,V,V,,,,,,,,N*68
$GPZDA,052813,02,10,2[2024/10/02, 13:28:16.143]024,-08,00*67
[2024/10/02, 13:28:16.222]$GPRMC,052815,A,0113.8009,N,10339.1051,E,4.06,117[2024/10/02, 13:28:16.487].81,021024,0.16,E,A*21
$GPRMB,A,,,,,,,,,,,,V,A*1C
$GPGGA,052815,0[2024/10/02, 13:28:16.628]113.8009,N,10339.1051,E,1,19,0.64,-7.36,M,9.63,M,,*6F
$GPGSA,A,3,[2024/10/02, 13:28:16.768]10,12,18,23,25,28,29,31,32,,,,1.29,0.64,1.12*07
$GPGSV,5,1,19,10,3[2024/10/02, 13:28:16.909]5,356,27,12,17,065,27,18,45,172,25,23,53,051,28*76
$GPGSV,5,2,19,2[2024/10/02, 13:28:17.049]5,45,096,27,28,58,266,23,29,10,146,16,31,28,232,14*7E
$GPGSV,5,3,1[2024/10/02, 13:28:17.190]9,32,23,333,19,,35,101,28,,42,148,17,,62,337,26*7A
$GPGSV,5,4,19,,[2024/10/02, 13:28:17.331]59,037,24,,54,010,30,,56,352,28,,80,162,25*7A
$GPGSV,5,5,19,,39,04[2024/10/02, 13:28:17.471]2,28,,28,264,23,,37,210,20*49
$GPGLL,0113.8009,N,10339.1051,E,0528[2024/10/02, 13:28:17.612]15,A,A*43
$GPBOD,,T,,M,,*47
$GPBWC,052815,,,,,,T,,M,,N,,A*70
$G[2024/10/02, 13:28:17.752]PVTG,117.81,T,117.65,M,4.06,N,7.52,K,A*2B
$PGRME,12.72,M,17.53,M,2[2024/10/02, 13:28:17.893]1.66,M*2B
$PGRMZ,-24,f,3*00
$PGRMM,WGS 84*06
$HCHDM,,M*07
$WIM[2024/10/02, 13:28:18.034]WV,,R,,,A*6D
$GPAPB,V,V,,,N,V,V,,,,,,,,N*68
$GPZDA,052815,02,10,2[2024/10/02, 13:28:18.143]024,-08,00*61
[2024/10/02, 13:28:18.221]$GPRMC,052817,A,0113.8005,N,10339.1074,E,4.13,93.[2024/10/02, 13:28:18.487]11,021024,0.16,E,A*18
$GPRMB,A,,,,,,,,,,,,V,A*1C
$GPGGA,052817,0[2024/10/02, 13:28:18.627]113.8005,N,10339.1074,E,1,19,0.64,-7.22,M,9.63,M,,*63
$GPGSA,A,3,1[2024/10/02, 13:28:18.768]0,12,18,23,25,28,29,31,32,,,,1.29,0.64,1.12*07
$GPGSV,5,1,19,10,35[2024/10/02, 13:28:18.908],356,27,12,17,065,26,18,45,172,26,23,53,051,27*7B
$GPGSV,5,2,19,25[2024/10/02, 13:28:19.049],45,096,27,28,59,267,22,29,10,146,15,31,28,232,15*7D
$GPGSV,5,3,19[2024/10/02, 13:28:19.190],32,23,333,24,,35,101,28,,42,148,17,,62,337,26*74
$GPGSV,5,4,19,,5[2024/10/02, 13:28:19.330]9,037,25,,54,010,30,,56,352,28,,80,162,25*7B
$GPGSV,5,5,19,,39,042[2024/10/02, 13:28:19.471],29,,28,264,24,,37,210,19*45
$GPGLL,0113.8005,N,10339.1074,E,05281[2024/10/02, 13:28:19.611]7,A,A*4A
$GPBOD,,T,,M,,*47
$GPBWC,052817,,,,,,T,,M,,N,,A*72
$GP[2024/10/02, 13:28:19.752]VTG,93.11,T,92.95,M,4.13,N,7.66,K,A*2F
$PGRME,12.73,M,17.58,M,21.[2024/10/02, 13:28:19.892]70,M*26
$PGRMZ,-24,f,3*00
$PGRMM,WGS 84*06
$HCHDM,,M*07
$WIMWV[2024/10/02, 13:28:20.033],,R,,,A*6D
$GPAPB,V,V,,,N,V,V,,,,,,,,N*68
$GPZDA,052817,02,10,20[2024/10/02, 13:28:20.142]24,-08,00*63
[2024/10/02, 13:28:20.220]$GPRMC,052819,A,0113.7997,N,10339.1097,E,4.14,103[2024/10/02, 13:28:20.486].74,021024,0.16,E,A*2A
$GPRMB,A,,,,,,,,,,,,V,A*1C
$GPGGA,052819,[2024/10/02, 13:28:20.627]0113.7997,N,10339.1097,E,1,19,0.64,-7.75,M,9.63,M,,*6F
$GPGSA,A,3,[2024/10/02, 13:28:20.767]10,12,18,23,25,28,29,31,32,,,,1.29,0.64,1.12*07
$GPGSV,5,1,19,10,3[2024/10/02, 13:28:20.908]5,356,28,12,17,065,26,18,45,172,26,23,53,051,27*74
$GPGSV,5,2,19,2[2024/10/02, 13:28:21.049]5,45,096,27,28,59,267,22,29,10,145,21,31,28,232,14*78
$GPGSV,5,3,1[2024/10/02, 13:28:21.189]9,32,23,333,21,,35,101,28,,42,148,18,,62,337,26*7E
$GPGSV,5,4,19,,[2024/10/02, 13:28:21.330]59,037,24,,54,010,30,,56,352,26,,80,162,25*74
$GPGSV,5,5,19,,39,04[2024/10/02, 13:28:21.470]2,29,,28,264,23,,37,210,19*42
$GPGLL,0113.7997,N,10339.1097,E,0528[2024/10/02, 13:28:21.611]19,A,A*44
$GPBOD,,T,,M,,*47
$GPBWC,052819,,,,,,T,,M,,N,,A*7C
$GP[2024/10/02, 13:28:21.751]VTG,103.74,T,103.58,M,4.14,N,7.67,K,A*2A
$PGRME,12.74,M,17.71,M,2[2024/10/02, 13:28:21.892]1.82,M*27
$PGRMZ,-25,f,3*01
$PGRMM,WGS 84*06
$HCHDM,,M*07
$WIM[2024/10/02, 13:28:22.033]WV,,R,,,A*6D
$GPAPB,V,V,,,N,V,V,,,,,,,,N*68
$GPZDA,052819,02,10,2[2024/10/02, 13:28:22.142]024,-08,00*6D
[2024/10/02, 13:28:22.220]$GPRMC,052821,A,0113.7990,N,10339.1117,E,4.09,10[2024/10/02, 13:28:22.486]5.07,021024,0.16,E,A*21
$GPRMB,A,,,,,,,,,,,,V,A*1C
$GPGGA,052821[2024/10/02, 13:28:22.626],0113.7990,N,10339.1117,E,1,19,0.64,-8.40,M,9.63,M,,*63
$GPGSA,A,3[2024/10/02, 13:28:22.767],10,12,18,23,25,28,29,31,32,,,,1.29,0.64,1.12*07
$GPGSV,5,1,19,10,[2024/10/02, 13:28:22.907]35,356,28,12,17,065,25,18,45,172,24,23,53,051,26*74
$GPGSV,5,2,19,[2024/10/02, 13:28:23.048]25,45,096,28,28,59,267,22,29,10,145,21,31,29,232,15*77
$GPGSV,5,3,[2024/10/02, 13:28:23.189]19,32,23,333,18,,35,101,28,,42,148,19,,62,337,26*75
$GPGSV,5,4,19,[2024/10/02, 13:28:23.329],59,037,24,,54,010,30,,56,352,28,,80,162,26*79
$GPGSV,5,5,19,,39,0[2024/10/02, 13:28:23.470]42,29,,28,264,24,,37,210,18*44
$GPGLL,0113.7990,N,10339.1117,E,052[2024/10/02, 13:28:23.610]821,A,A*41
$GPBOD,,T,,M,,*47
$GPBWC,052821,,,,,,T,,M,,N,,A*77
$G[2024/10/02, 13:28:23.751]PVTG,105.07,T,104.91,M,4.09,N,7.58,K,A*2A
$PGRME,12.76,M,17.81,M,[2024/10/02, 13:28:23.892]21.91,M*28
$PGRMZ,-28,f,3*0C
$PGRMM,WGS 84*06
$HCHDM,,M*07
$WIM[2024/10/02, 13:28:24.032]WV,,R,,,A*6D
$GPAPB,V,V,,,N,V,V,,,,,,,,N*68
$GPZDA,052821,02,10,[2024/10/02, 13:28:24.157]2024,-08,00*66
[2024/10/02, 13:28:24.235]$GPRMC,052823,A,0113.7987,N,10339.1138,E,4.08,106.45,02[2024/10/02, 13:28:24.501]1024,0.16,E,A*2C
$GPRMB,A,,,,,,,,,,,,V,A*1C
$GPGGA,052823,0113.79[2024/10/02, 13:28:24.641]87,N,10339.1138,E,1,19,0.64,-8.24,M,9.63,M,,*68
$GPGSA,A,3,10,12,1[2024/10/02, 13:28:24.782]8,23,25,28,29,31,32,,,,1.29,0.64,1.12*07
$GPGSV,5,1,19,10,35,356,2[2024/10/02, 13:28:24.923]8,12,17,065,25,18,45,172,24,23,53,051,26*74
$GPGSV,5,2,19,25,45,09[2024/10/02, 13:28:25.063]6,28,28,59,267,22,29,10,145,16,31,29,232,15*73
$GPGSV,5,3,19,32,23[2024/10/02, 13:28:25.204],333,22,,35,100,27,,42,148,18,,62,337,26*73
$GPGSV,5,4,19,,59,037,[2024/10/02, 13:28:25.344]24,,54,010,30,,56,352,28,,80,162,26*79
$GPGSV,5,5,19,,39,042,29,,2[2024/10/02, 13:28:25.485]8,264,25,,37,210,18*45
$GPGLL,0113.7987,N,10339.1138,E,052823,A,A*[2024/10/02, 13:28:25.626]48
$GPBOD,,T,,M,,*47
$GPBWC,052823,,,,,,T,,M,,N,,A*75
$GPVTG,10[2024/10/02, 13:28:25.766]6.45,T,106.29,M,4.08,N,7.55,K,A*22
$PGRME,12.77,M,17.79,M,21.89,M*[2024/10/02, 13:28:25.907]27
$PGRMZ,-27,f,3*03
$PGRMM,WGS 84*06
$HCHDM,,M*07
$WIMWV,,R,,[2024/10/02, 13:28:26.047],A*6D
$GPAPB,V,V,,,N,V,V,,,,,,,,N*68
$GPZDA,052823,02,10,2024,-08[2024/10/02, 13:28:26.157],00*64
[2024/10/02, 13:28:26.235]$GPRMC,052825,A,0113.7982,N,10339.1161,E,4.08,106.47,02[2024/10/02, 13:28:26.500]1024,0.16,E,A*21
$GPRMB,A,,,,,,,,,,,,V,A*1C
$GPGGA,052825,0113.79[2024/10/02, 13:28:26.641]82,N,10339.1161,E,1,19,0.64,-8.46,M,9.63,M,,*63
$GPGSA,A,3,10,12,1[2024/10/02, 13:28:26.782]8,23,25,28,29,31,32,,,,1.29,0.64,1.12*07
$GPGSV,5,1,19,10,35,356,2[2024/10/02, 13:28:26.922]9,12,17,065,25,18,45,172,25,23,53,051,27*75
$GPGSV,5,2,19,25,45,09[2024/10/02, 13:28:27.063]6,28,28,59,267,21,29,10,145,16,31,29,232,16*73
$GPGSV,5,3,19,32,23[2024/10/02, 13:28:27.203],333,21,,35,100,27,,41,148,18,,62,337,26*73
$GPGSV,5,4,19,,59,037,[2024/10/02, 13:28:27.344]25,,54,010,30,,56,352,28,,80,162,26*78
$GPGSV,5,5,19,,39,042,30,,2[2024/10/02, 13:28:27.484]8,264,23,,37,210,17*44
$GPGLL,0113.7982,N,10339.1161,E,052825,A,A*[2024/10/02, 13:28:27.625]47
$GPBOD,,T,,M,,*47
$GPBWC,052825,,,,,,T,,M,,N,,A*73
$GPVTG,10[2024/10/02, 13:28:27.766]6.47,T,106.31,M,4.08,N,7.55,K,A*29
$PGRME,12.78,M,17.73,M,21.85,M*[2024/10/02, 13:28:27.906]2E
$PGRMZ,-28,f,3*0C
$PGRMM,WGS 84*06
$HCHDM,,M*07
$WIMWV,,R,,[2024/10/02, 13:28:28.047],A*6D
$GPAPB,V,V,,,N,V,V,,,,,,,,N*68
$GPZDA,052825,02,10,2024,-08[2024/10/02, 13:28:28.156],00*62
[2024/10/02, 13:28:28.234]$GPRMC,052827,A,0113.7978,N,10339.1186,E,3.97,101.45,02[2024/10/02, 13:28:28.500]1024,0.16,E,A*2B
$GPRMB,A,,,,,,,,,,,,V,A*1C
$GPGGA,052827,0113.79[2024/10/02, 13:28:28.640]78,N,10339.1186,E,1,19,0.64,-8.35,M,9.63,M,,*69
$GPGSA,A,3,10,12,1[2024/10/02, 13:28:28.781]8,23,25,28,29,31,32,,,,1.29,0.64,1.12*07
$GPGSV,5,1,19,10,35,356,2[2024/10/02, 13:28:28.922]9,12,17,065,26,18,45,172,26,23,53,051,27*75
$GPGSV,5,2,19,25,45,09[2024/10/02, 13:28:29.062]6,28,28,59,267,22,29,10,145,16,31,29,232,16*70
$GPGSV,5,3,19,32,23[2024/10/02, 13:28:29.203],333,21,,35,100,27,,41,148,17,,62,337,27*7D
$GPGSV,5,4,19,,59,037,[2024/10/02, 13:28:29.343]25,,54,010,30,,56,352,28,,80,162,27*79
$GPGSV,5,5,19,,39,042,30,,2[2024/10/02, 13:28:29.484]8,264,23,,37,210,18*4B
$GPGLL,0113.7978,N,10339.1186,E,052827,A,A*[2024/10/02, 13:28:29.625]49
$GPBOD,,T,,M,,*47
$GPBWC,052827,,,,,,T,,M,,N,,A*71
$GPVTG,10[2024/10/02, 13:28:29.765]1.45,T,101.29,M,3.97,N,7.34,K,A*24
$PGRME,12.79,M,17.78,M,21.90,M*[2024/10/02, 13:28:29.906]20
$PGRMZ,-27,f,3*03
$PGRMM,WGS 84*06
$HCHDM,,M*07
$WIMWV,,R,,[2024/10/02, 13:28:30.046],A*6D
$GPAPB,V,V,,,N,V,V,,,,,,,,N*68
$GPZDA,052827,02,10,2024,-08[2024/10/02, 13:28:30.156],00*60
[2024/10/02, 13:28:30.234]$GPRMC,052829,A,0113.7970,N,10339.1208,E,3.96,112.28,02[2024/10/02, 13:28:30.499]1024,0.16,E,A*20
$GPRMB,A,,,,,,,,,,,,V,A*1C
$GPGGA,052829,0113.79[2024/10/02, 13:28:30.640]70,N,10339.1208,E,1,19,0.64,-8.09,M,9.63,M,,*65
$GPGSA,A,3,10,12,1[2024/10/02, 13:28:30.781]8,23,25,28,29,31,32,,,,1.29,0.64,1.12*07
$GPGSV,5,1,19,10,35,356,2[2024/10/02, 13:28:30.921]8,12,17,065,27,18,45,172,26,23,53,051,28*7A
$GPGSV,5,2,19,25,45,09[2024/10/02, 13:28:31.061]6,28,28,59,267,23,29,10,145,16,31,29,232,16*71
$GPGSV,5,3,19,32,2[2024/10/02, 13:28:31.202]3,333,20,,35,100,28,,41,148,17,,62,337,26*72
$GPGSV,5,4,19,,59,037[2024/10/02, 13:28:31.342],24,,54,010,29,,56,352,28,,80,162,26*71
$GPGSV,5,5,19,,39,042,28,,2[2024/10/02, 13:28:31.483]8,264,24,,37,210,19*44
$GPGLL,0113.7970,N,10339.1208,E,052829,A,A[2024/10/02, 13:28:31.624]*4A
$GPBOD,,T,,M,,*47
$GPBWC,052829,,,,,,T,,M,,N,,A*7F
$GPVTG,11[2024/10/02, 13:28:31.764]2.28,T,112.12,M,3.96,N,7.33,K,A*21
$PGRME,12.79,M,17.86,M,21.97,M[2024/10/02, 13:28:31.905]*26
$PGRMZ,-27,f,3*03
$PGRMM,WGS 84*06
$HCHDM,,M*07
$WIMWV,,R,,[2024/10/02, 13:28:32.045],A*6D
$GPAPB,V,V,,,N,V,V,,,,,,,,N*68
$GPZDA,052829,02,10,2024,-0[2024/10/02, 13:28:32.154]8,00*6E
[2024/10/02, 13:28:32.233]$GPRMC,052831,A,0113.7964,N,10339.1235,E,4.18,111.71,0[2024/10/02, 13:28:32.498]21024,0.16,E,A*2C
$GPRMB,A,,,,,,,,,,,,V,A*1C
$GPGGA,052831,0113.7[2024/10/02, 13:28:32.639]964,N,10339.1235,E,1,19,0.64,-8.00,M,9.63,M,,*6E
$GPGSA,A,3,10,12,[2024/10/02, 13:28:32.779]18,23,25,28,29,31,32,,,,1.29,0.64,1.12*07
$GPGSV,5,1,19,10,35,356,[2024/10/02, 13:28:32.920]25,12,17,065,27,18,45,172,25,23,53,051,26*7A
$GPGSV,5,2,19,25,45,0[2024/10/02, 13:28:33.061]96,28,28,59,267,22,29,10,145,15,31,29,232,16*73
$GPGSV,5,3,19,32,2[2024/10/02, 13:28:33.201]3,333,22,,35,100,28,,41,148,17,,61,337,25*70
$GPGSV,5,4,19,,59,037[2024/10/02, 13:28:33.342],24,,54,010,29,,56,352,27,,80,162,27*7F
$GPGSV,5,5,19,,39,042,26,,[2024/10/02, 13:28:33.482]28,264,20,,37,210,18*4F
$GPGLL,0113.7964,N,10339.1235,E,052831,A,A[2024/10/02, 13:28:33.623]*48
$GPBOD,,T,,M,,*47
$GPBWC,052831,,,,,,T,,M,,N,,A*76
$GPVTG,11[2024/10/02, 13:28:33.764]1.71,T,111.55,M,4.18,N,7.73,K,A*2B
$PGRME,12.81,M,17.94,M,22.04,M[2024/10/02, 13:28:33.904]*2B
$PGRMZ,-26,f,3*02
$PGRMM,WGS 84*06
$HCHDM,,M*07
$WIMWV,,R,,[2024/10/02, 13:28:34.045],A*6D
$GPAPB,V,V,,,N,V,V,,,,,,,,N*68
$GPZDA,052831,02,10,2024,-0[2024/10/02, 13:28:34.154]8,00*67
[2024/10/02, 13:28:34.232]$GPRMC,052833,A,0113.7959,N,10339.1261,E,4.27,106.95,0[2024/10/02, 13:28:34.498]21024,0.16,E,A*21
$GPRMB,A,,,,,,,,,,,,V,A*1C
$GPGGA,052833,0113.7[2024/10/02, 13:28:34.638]959,N,10339.1261,E,1,19,0.64,-7.97,M,9.63,M,,*62
$GPGSA,A,3,10,12,[2024/10/02, 13:28:34.779]18,23,25,28,29,31,32,,,,1.29,0.64,1.12*07
$GPGSV,5,1,19,10,35,356,[2024/10/02, 13:28:34.920]27,12,17,065,28,18,45,172,25,23,53,051,27*76
$GPGSV,5,2,19,25,45,0[2024/10/02, 13:28:35.060]96,29,28,59,267,23,29,10,145,14,31,29,232,16*72
$GPGSV,5,3,19,32,2[2024/10/02, 13:28:35.201]3,333,22,,35,100,29,,41,148,19,,61,337,26*7C
$GPGSV,5,4,19,,60,037[2024/10/02, 13:28:35.341],24,,54,010,30,,56,352,27,,80,162,27*7D
$GPGSV,5,5,19,,39,042,28,,[2024/10/02, 13:28:35.482]28,264,17,,37,210,15*48
$GPGLL,0113.7959,N,10339.1261,E,052833,A,A[2024/10/02, 13:28:35.622]*45
$GPBOD,,T,,M,,*47
$GPBWC,052833,,,,,,T,,M,,N,,A*74
$GPVTG,1[2024/10/02, 13:28:35.763]06.95,T,106.79,M,4.27,N,7.90,K,A*2E
$PGRME,12.82,M,18.11,M,22.19,M[2024/10/02, 13:28:35.904]*26
$PGRMZ,-26,f,3*02
