[2024/10/02, 13:02:21.643],T,,M,,*47
$GPBWC,050219,,,,,,T,,M,,N,,A*74
$GPVTG,337.60,T,337.[2024/10/02, 13:02:21.783]44,M,4.06,N,7.52,K,A*27
$PGRME,13.05,M,16.35,M,20.92,M*21
$PGRMZ,[2024/10/02, 13:02:21.924]78,f,3*24
$PGRMM,WGS 84*06
$HCHDM,,M*07
$WIMWV,,R,,,A*6D
$GPAP[2024/10/02, 13:02:22.065]B,V,V,,,N,V,V,,,,,,,,N*68
$GPZDA,050219,02,10,2024,-08,00*65
[2024/10/02, 13:02:22.268]$GPRMC,050221,A,0114.3344,N,10339.0117,E,3.75,5.17,021024,0.[2024/10/02, 13:02:22.533]16,E,A*24
$GPRMB,A,,,,,,,,,,,,V,A*1C
$GPGGA,050221,0114.3344,N,1[2024/10/02, 13:02:22.674]0339.0117,E,1,18,0.67,23.86,M,9.60,M,,*75
$GPGSA,A,3,10,12,18,23,2[2024/10/02, 13:02:22.814]5,28,29,32,,,,,1.34,0.67,1.16*0E
$GPGSV,5,1,18,10,26,350,26,12,20,[2024/10/02, 13:02:22.955]077,14,18,58,175,22,23,46,033,22*73
$GPGSV,5,2,18,25,44,115,19,28,[2024/10/02, 13:02:23.096]54,243,31,29,13,156,19,32,24,321,26*71
$GPGSV,5,3,18,,33,106,18,,4[2024/10/02, 13:02:23.236]5,146,20,,68,336,24,,53,033,19*78
$GPGSV,5,4,18,,48,010,23,,61,355[2024/10/02, 13:02:23.377],24,,68,175,23,,47,052,26*73
$GPGSV,5,5,18,,28,276,31,,43,222,29*7[2024/10/02, 13:02:23.517]5
$GPGLL,0114.3344,N,10339.0117,E,050221,A,A*48
$GPBOD,,T,,M,,*47[2024/10/02, 13:02:23.658]
$GPBWC,050221,,,,,,T,,M,,N,,A*7F
$GPVTG,5.17,T,5.01,M,3.75,N,6.[2024/10/02, 13:02:23.799]95,K,A*2F
$PGRME,13.06,M,16.22,M,20.83,M*24
$PGRMZ,78,f,3*24
$PG[2024/10/02, 13:02:23.939]RMM,WGS 84*06
$HCHDM,,M*07
$WIMWV,,R,,,A*6D
$GPAPB,V,V,,,N,V,V,[2024/10/02, 13:02:24.064],,,,,,,N*68
$GPZDA,050221,02,10,2024,-08,00*6E
[2024/10/02, 13:02:24.267]$GPRMC,050223,A,0114.3368,N,10339.0111,E,3.74,1.42,021024,0[2024/10/02, 13:02:24.533].16,E,A*2B
$GPRMB,A,,,,,,,,,,,,V,A*1C
$GPGGA,050223,0114.3368,N,1[2024/10/02, 13:02:24.673]0339.0111,E,1,18,0.67,23.45,M,9.60,M,,*70
$GPGSA,A,3,10,12,18,23,[2024/10/02, 13:02:24.814]25,28,29,32,,,,,1.34,0.67,1.16*0E
$GPGSV,5,1,18,10,26,350,26,12,20[2024/10/02, 13:02:24.955],077,17,18,58,175,24,23,46,033,22*76
$GPGSV,5,2,18,25,44,115,19,28[2024/10/02, 13:02:25.095],54,243,31,29,13,156,19,32,24,321,27*70
$GPGSV,5,3,18,,33,106,18,,[2024/10/02, 13:02:25.236]45,146,16,,68,336,26,,53,033,18*7E
$GPGSV,5,4,18,,48,010,25,,61,355[2024/10/02, 13:02:25.376],24,,68,175,23,,47,052,25*76
$GPGSV,5,5,18,,28,276,31,,43,222,28*7[2024/10/02, 13:02:25.517]4
$GPGLL,0114.3368,N,10339.0111,E,050223,A,A*42
$GPBOD,,T,,M,,*4[2024/10/02, 13:02:25.657]7
$GPBWC,050223,,,,,,T,,M,,N,,A*7D
$GPVTG,1.42,T,1.26,M,3.74,N,6.[2024/10/02, 13:02:25.798]93,K,A*2D
$PGRME,13.07,M,16.25,M,20.85,M*24
$PGRMZ,77,f,3*2B
$P[2024/10/02, 13:02:25.939]GRMM,WGS 84*06
$HCHDM,,M*07
$WIMWV,,R,,,A*6D
$GPAPB,V,V,,,N,V,V[2024/10/02, 13:02:26.064],,,,,,,,N*68
$GPZDA,050223,02,10,2024,-08,00*6C
[2024/10/02, 13:02:26.267]$GPRMC,050225,A,0114.3387,N,10339.0114,E,3.98,359.07,021024[2024/10/02, 13:02:26.532],0.16,E,A*24
$GPRMB,A,,,,,,,,,,,,V,A*1C
$GPGGA,050225,0114.3387,N[2024/10/02, 13:02:26.673],10339.0114,E,1,18,0.67,23.56,M,9.60,M,,*70
$GPGSA,A,3,10,12,18,2[2024/10/02, 13:02:26.813]3,25,28,29,32,,,,,1.21,0.67,1.00*0D
$GPGSV,5,1,18,10,26,350,27,12,[2024/10/02, 13:02:26.954]20,077,18,18,58,175,21,23,46,033,22*7D
$GPGSV,5,2,18,25,44,115,20,[2024/10/02, 13:02:27.095]28,54,243,30,29,13,156,17,32,24,321,26*74
$GPGSV,5,3,18,,33,106,13[2024/10/02, 13:02:27.235],,45,146,16,,68,336,25,,53,033,18*76
$GPGSV,5,4,18,,48,010,24,,61,[2024/10/02, 13:02:27.376]355,25,,68,175,23,,47,052,24*77
$GPGSV,5,5,18,,28,276,32,,43,222,2[2024/10/02, 13:02:27.516]9*76
$GPGLL,0114.3387,N,10339.0114,E,050225,A,A*40
$GPBOD,,T,,M,,[2024/10/02, 13:02:27.657]*47
$GPBWC,050225,,,,,,T,,M,,N,,A*7B
$GPVTG,359.07,T,358.91,M,3.9[2024/10/02, 13:02:27.798]8,N,7.38,K,A*23
$PGRME,13.08,M,16.20,M,20.82,M*29
$PGRMZ,77,f,3*[2024/10/02, 13:02:27.938]2B
$PGRMM,WGS 84*06
$HCHDM,,M*07
$WIMWV,,R,,,A*6D
$GPAPB,V,V,,[2024/10/02, 13:02:28.086],N,V,V,,,,,,,,N*68
$GPZDA,050225,02,10,2024,-08,00*6A
[2024/10/02, 13:02:28.258]$GPRMC,050227,A,0114.3408,N,10339.0117,E,4.04,355.10,02[2024/10/02, 13:02:28.523]1024,0.16,E,A*2D
$GPRMB,A,,,,,,,,,,,,V,A*1C
$GPGGA,050227,0114.34[2024/10/02, 13:02:28.664]08,N,10339.0117,E,1,18,0.67,22.33,M,9.60,M,,*73
$GPGSA,A,3,10,12,1[2024/10/02, 13:02:28.805]8,23,25,28,29,32,,,,,1.21,0.67,1.00*0D
$GPGSV,5,1,18,10,26,350,26[2024/10/02, 13:02:28.945],12,20,077,18,18,58,175,22,23,46,033,25*78
$GPGSV,5,2,18,25,44,115,[2024/10/02, 13:02:29.086]18,28,54,243,31,29,13,156,19,32,24,321,25*73
$GPGSV,5,3,18,,33,106[2024/10/02, 13:02:29.226],14,,45,146,19,,68,336,26,,53,033,19*7C
$GPGSV,5,4,18,,48,010,21,,[2024/10/02, 13:02:29.367]61,355,25,,68,175,23,,47,052,26*70
$GPGSV,5,5,18,,28,276,31,,43,22[2024/10/02, 13:02:29.508]2,29*75
$GPGLL,0114.3408,N,10339.0117,E,050227,A,A*41
$GPBOD,,T,[2024/10/02, 13:02:29.648],M,,*47
$GPBWC,050227,,,,,,T,,M,,N,,A*79
$GPVTG,355.10,T,354.94,M[2024/10/02, 13:02:29.789],4.04,N,7.49,K,A*24
$PGRME,13.10,M,16.19,M,20.83,M*2B
$PGRMZ,73,[2024/10/02, 13:02:29.929]f,3*2F
$PGRMM,WGS 84*06
$HCHDM,,M*07
$WIMWV,,R,,,A*6D
$GPAPB,V[2024/10/02, 13:02:30.070],V,,,N,V,V,,,,,,,,N*68
$GPZDA,050227,02,10,2024,-08,00*68
[2024/10/02, 13:02:30.257]$GPRMC,050229,A,0114.3425,N,10339.0124,E,3.97,4.37,0210[2024/10/02, 13:02:30.523]24,0.16,E,A*23
$GPRMB,A,,,,,,,,,,,,V,A*1C
$GPGGA,050229,0114.342[2024/10/02, 13:02:30.664]5,N,10339.0124,E,1,18,0.67,21.12,M,9.60,M,,*72
$GPGSA,A,3,10,12,18[2024/10/02, 13:02:30.804],23,25,28,29,32,,,,,1.21,0.67,1.00*0D
$GPGSV,5,1,18,10,26,350,27,1[2024/10/02, 13:02:30.945]2,20,077,17,18,58,175,22,23,46,033,24*77
$GPGSV,5,2,18,25,44,115,2[2024/10/02, 13:02:31.085]0,28,54,243,31,29,13,156,20,32,24,321,24*73
$GPGSV,5,3,18,,33,106,[2024/10/02, 13:02:31.226]17,,45,146,21,,68,336,26,,53,033,21*7F
$GPGSV,5,4,18,,48,010,24,,6[2024/10/02, 13:02:31.367]1,355,23,,68,175,23,,47,052,27*72
$GPGSV,5,5,18,,28,276,31,,43,222[2024/10/02, 13:02:31.507],29*75
$GPGLL,0114.3425,N,10339.0124,E,050229,A,A*40
$GPBOD,,T,,M[2024/10/02, 13:02:31.648],,*47
$GPBWC,050229,,,,,,T,,M,,N,,A*77
$GPVTG,4.37,T,4.21,M,3.97,[2024/10/02, 13:02:31.788]N,7.36,K,A*2B
$PGRME,13.12,M,16.32,M,20.93,M*21
$PGRMZ,69,f,3*24[2024/10/02, 13:02:31.929]
$PGRMM,WGS 84*06
$HCHDM,,M*07
$WIMWV,,R,,,A*6D
$GPAPB,V,V,,,N[2024/10/02, 13:02:32.069],V,V,,,,,,,,N*68
$GPZDA,050229,02,10,2024,-08,00*66
[2024/10/02, 13:02:32.257]$GPRMC,050231,A,0114.3445,N,10339.0128,E,3.90,2.96,0210[2024/10/02, 13:02:32.523]24,0.16,E,A*2A
$GPRMB,A,,,,,,,,,,,,V,A*1C
$GPGGA,050231,0114.344[2024/10/02, 13:02:32.663]5,N,10339.0128,E,1,18,0.67,19.99,M,9.60,M,,*79
$GPGSA,A,3,10,12,18[2024/10/02, 13:02:32.804],23,25,28,29,32,,,,,1.21,0.67,1.00*0D
$GPGSV,5,1,18,10,26,350,26,[2024/10/02, 13:02:32.944]12,20,077,17,18,58,175,22,23,46,033,20*72
$GPGSV,5,2,18,25,44,115,2[2024/10/02, 13:02:33.085]1,28,54,243,31,29,13,156,15,32,24,321,27*77
$GPGSV,5,3,18,,33,106,[2024/10/02, 13:02:33.225]21,,45,146,22,,68,336,24,,53,033,22*78
$GPGSV,5,4,18,,48,010,23,,6[2024/10/02, 13:02:33.366]1,355,23,,68,175,23,,47,052,27*75
$GPGSV,5,5,18,,28,276,32,,43,222[2024/10/02, 13:02:33.507],29*76
$GPGLL,0114.3445,N,10339.0128,E,050231,A,A*43
$GPBOD,,T,,[2024/10/02, 13:02:33.647]M,,*47
$GPBWC,050231,,,,,,T,,M,,N,,A*7E
$GPVTG,2.96,T,2.80,M,3.90[2024/10/02, 13:02:33.788],N,7.22,K,A*29
$PGRME,13.13,M,16.46,M,21.06,M*2E
$PGRMZ,66,f,3*2[2024/10/02, 13:02:33.928]B
$PGRMM,WGS 84*06
$HCHDM,,M*07
$WIMWV,,R,,,A*6D
$GPAPB,V,V,,,[2024/10/02, 13:02:34.069]N,V,V,,,,,,,,N*68
$GPZDA,050231,02,10,2024,-08,00*6F
[2024/10/02, 13:02:34.257]$GPRMC,050233,A,0114.3463,N,10339.0128,E,3.68,348.47,0[2024/10/02, 13:02:34.522]21024,0.16,E,A*2A
$GPRMB,A,,,,,,,,,,,,V,A*1C
$GPGGA,050233,0114.3[2024/10/02, 13:02:34.663]463,N,10339.0128,E,1,18,0.67,18.43,M,9.60,M,,*79
$GPGSA,A,3,10,12,[2024/10/02, 13:02:34.803]18,23,25,28,29,32,,,,,1.17,0.67,0.96*06
$GPGSV,5,1,18,10,26,350,27[2024/10/02, 13:02:34.944],12,20,077,17,18,58,175,23,23,46,034,22*77
$GPGSV,5,2,18,25,44,115[2024/10/02, 13:02:35.084],20,28,54,243,31,29,13,156,14,32,24,321,27*77
$GPGSV,5,3,18,,33,10[2024/10/02, 13:02:35.225]6,20,,45,146,23,,68,336,26,,53,033,23*7B
$GPGSV,5,4,18,,48,010,18,[2024/10/02, 13:02:35.366],61,355,22,,68,175,20,,47,052,26*7E
$GPGSV,5,5,18,,28,276,31,,43,2[2024/10/02, 13:02:35.506]22,29*75
$GPGLL,0114.3463,N,10339.0128,E,050233,A,A*45
$GPBOD,,T,[2024/10/02, 13:02:35.647],M,,*47
$GPBWC,050233,,,,,,T,,M,,N,,A*7C
$GPVTG,348.47,T,348.31,[2024/10/02, 13:02:35.787]M,3.68,N,6.82,K,A*23
$PGRME,13.16,M,16.86,M,21.39,M*2B
$PGRMZ,60,[2024/10/02, 13:02:35.928]f,3*2D
$PGRMM,WGS 84*06
$HCHDM,,M*07
$WIMWV,,R,,,A*6D
$GPAPB,V[2024/10/02, 13:02:36.069],V,,,N,V,V,,,,,,,,N*68
$GPZDA,050233,02,10,2024,-08,00*6D
[2024/10/02, 13:02:36.256]$GPRMC,050235,A,0114.3483,N,10339.0127,E,3.58,344.25,0[2024/10/02, 13:02:36.522]21024,0.16,E,A*26
$GPRMB,A,,,,,,,,,,,,V,A*1C
$GPGGA,050235,0114.3[2024/10/02, 13:02:36.662]483,N,10339.0127,E,1,18,0.67,17.19,M,9.60,M,,*7E
$GPGSA,A,3,10,12,[2024/10/02, 13:02:36.803]18,23,25,28,29,32,,,,,1.21,0.67,1.00*0D
$GPGSV,5,1,19,10,26,350,26[2024/10/02, 13:02:36.943],12,20,077,17,18,58,175,22,23,46,034,19*7E
$GPGSV,5,2,19,25,44,114[2024/10/02, 13:02:37.084],18,28,54,243,32,29,13,156,16,32,24,321,27*7D
$GPGSV,5,3,19,,33,10[2024/10/02, 13:02:37.224]6,18,,45,146,19,,68,336,22,,53,033,22*7D
$GPGSV,5,4,19,,73,304,25,[2024/10/02, 13:02:37.365],48,010,18,,61,355,22,,68,175,21*7A
$GPGSV,5,5,19,,47,052,26,,28,2[2024/10/02, 13:02:37.506]76,31,,43,222,29*44
$GPGLL,0114.3483,N,10339.0127,E,050235,A,A*42[2024/10/02, 13:02:37.646]
$GPBOD,,T,,M,,*47
$GPBWC,050235,,,,,,T,,M,,N,,A*7A
$GPVTG,344.2[2024/10/02, 13:02:37.787]5,T,344.09,M,3.58,N,6.62,K,A*21
$PGRME,13.18,M,16.89,M,21.43,M*27[2024/10/02, 13:02:37.928]
$PGRMZ,56,f,3*28
$PGRMM,WGS 84*06
$HCHDM,,M*07
$WIMWV,,R,,,A*6[2024/10/02, 13:02:38.068]D
$GPAPB,V,V,,,N,V,V,,,,,,,,N*68
$GPZDA,050235,02,10,2024,-08,00[2024/10/02, 13:02:38.162]*6B
[2024/10/02, 13:02:38.240]$GPRMC,050237,A,0114.3499,N,10339.0118,E,3.61,[2024/10/02, 13:02:38.505]333.17,021024,0.16,E,A*28
$GPRMB,A,,,,,,,,,,,,V,A*1C
$GPGGA,05023[2024/10/02, 13:02:38.646]7,0114.3499,N,10339.0118,E,1,18,0.67,16.61,M,9.60,M,,*75
$GPGSA,A,[2024/10/02, 13:02:38.787]3,10,12,18,23,25,28,29,32,,,,,1.21,0.67,1.00*0D
$GPGSV,5,1,18,10,2[2024/10/02, 13:02:38.927]6,350,26,12,20,077,17,18,58,175,22,23,46,034,20*75
$GPGSV,5,2,18,2[2024/10/02, 13:02:39.068]5,44,114,18,28,54,244,32,29,13,156,16,32,24,321,28*74
$GPGSV,5,3,1[2024/10/02, 13:02:39.208]8,,33,106,19,,45,146,20,,68,336,24,,53,033,22*71
$GPGSV,5,4,18,,48[2024/10/02, 13:02:39.349],010,18,,61,355,21,,68,175,22,,47,052,27*7E
$GPGSV,5,5,18,,28,276,[2024/10/02, 13:02:39.490]30,,43,222,28*75
$GPGLL,0114.3499,N,10339.0118,E,050237,A,A*47
$G[2024/10/02, 13:02:39.630]PBOD,,T,,M,,*47
$GPBWC,050237,,,,,,T,,M,,N,,A*78
$GPVTG,333.17,T[2024/10/02, 13:02:39.771],333.01,M,3.61,N,6.69,K,A*29
$PGRME,13.20,M,17.44,M,21.87,M*24
$P[2024/10/02, 13:02:39.911]GRMZ,54,f,3*2A
$PGRMM,WGS 84*06
$HCHDM,,M*07
$WIMWV,,R,,,A*6D
[2024/10/02, 13:02:40.052]$GPAPB,V,V,,,N,V,V,,,,,,,,N*68
$GPZDA,050237,02,10,2024,-08,00*69[2024/10/02, 13:02:40.146]
[2024/10/02, 13:02:40.224]$GPRMC,050239,A,0114.3521,N,10339.0115,[2024/10/02, 13:02:40.489]E,3.75,335.32,021024,0.16,E,A*2D
$GPRMB,A,,,,,,,,,,,,V,A*1C
$GPG[2024/10/02, 13:02:40.630]GA,050239,0114.3521,N,10339.0115,E,1,18,0.67,16.99,M,9.60,M,,*73
$[2024/10/02, 13:02:40.771]GPGSA,A,3,10,12,18,23,25,28,29,32,,,,,1.21,0.67,1.00*0D
$GPGSV,5,1[2024/10/02, 13:02:40.911],18,10,26,350,26,12,20,077,15,18,58,175,22,23,46,034,22*75
$GPGSV,[2024/10/02, 13:02:41.052]5,2,18,25,44,114,20,28,54,244,32,29,13,155,16,32,24,321,25*71
$GPG[2024/10/02, 13:02:41.192]SV,5,3,18,,33,106,20,,45,146,22,,68,336,26,,53,033,22*7B
$GPGSV,5,4[2024/10/02, 13:02:41.333],18,,48,010,22,,61,355,23,,68,175,24,,47,052,27*73
$GPGSV,5,5,18,,[2024/10/02, 13:02:41.473]28,276,31,,43,222,30*7D
$GPGLL,0114.3521,N,10339.0115,E,050239,A,[2024/10/02, 13:02:41.614]A*46
$GPBOD,,T,,M,,*47
$GPBWC,050239,,,,,,T,,M,,N,,A*76
$GPVTG,3[2024/10/02, 13:02:41.755]35.32,T,335.16,M,3.75,N,6.94,K,A*2F
$PGRME,13.22,M,16.57,M,21.20,[2024/10/02, 13:02:41.895]M*28
$PGRMZ,56,f,3*28
$PGRMM,WGS 84*06
$HCHDM,,M*07
$WIMWV,,R,[2024/10/02, 13:02:42.036],,A*6D
$GPAPB,V,V,,,N,V,V,,,,,,,,N*68
$GPZDA,050239,02,10,2024,-0[2024/10/02, 13:02:42.145]8,00*67
[2024/10/02, 13:02:42.223]$GPRMC,050241,A,0114.3547,N,10339.0114,[2024/10/02, 13:02:42.489]E,3.96,354.80,021024,0.16,E,A*20
$GPRMB,A,,,,,,,,,,,,V,A*1C
$GPG[2024/10/02, 13:02:42.629]GA,050241,0114.3547,N,10339.0114,E,1,18,0.67,17.19,M,9.60,M,,*74
$[2024/10/02, 13:02:42.770]GPGSA,A,3,10,12,18,23,25,28,29,32,,,,,1.21,0.67,1.00*0D
$GPGSV,5,1[2024/10/02, 13:02:42.911],18,10,26,350,26,12,20,077,18,18,58,175,21,23,46,034,24*7D
$GPGSV,[2024/10/02, 13:02:43.051]5,2,18,25,44,114,18,28,54,244,32,29,13,155,15,32,24,322,25*7A
$GPG[2024/10/02, 13:02:43.192]SV,5,3,18,,33,106,19,,45,146,22,,68,336,24,,53,033,19*7B
$GPGSV,5,[2024/10/02, 13:02:43.332]4,18,,48,010,24,,61,355,22,,68,175,21,,47,052,26*70
$GPGSV,5,5,18,[2024/10/02, 13:02:43.473],28,276,31,,43,222,29*75
$GPGLL,0114.3547,N,10339.0114,E,050241,A,[2024/10/02, 13:02:43.614]A*48
$GPBOD,,T,,M,,*47
$GPBWC,050241,,,,,,T,,M,,N,,A*79
$GPVTG,[2024/10/02, 13:02:43.754]354.80,T,354.64,M,3.96,N,7.33,K,A*22
$PGRME,13.24,M,16.26,M,20.97,[2024/10/02, 13:02:43.895]M*25
$PGRMZ,56,f,3*28
$PGRMM,WGS 84*06
$HCHDM,,M*07
$WIMWV,,R,[2024/10/02, 13:02:44.035],,A*6D
$GPAPB,V,V,,,N,V,V,,,,,,,,N*68
$GPZDA,050241,02,10,2024,-0[2024/10/02, 13:02:44.145]8,00*68
[2024/10/02, 13:02:44.223]$GPRMC,050243,A,0114.3570,N,10339.0113[2024/10/02, 13:02:44.488],E,4.08,356.53,021024,0.16,E,A*2D
$GPRMB,A,,,,,,,,,,,,V,A*1C
$GPG[2024/10/02, 13:02:44.629]GA,050243,0114.3570,N,10339.0113,E,1,18,0.67,17.15,M,9.60,M,,*79
[2024/10/02, 13:02:44.770]$GPGSA,A,3,10,12,18,23,25,28,29,32,,,,,1.21,0.67,1.00*0D
$GPGSV,5,[2024/10/02, 13:02:44.910]1,18,10,26,350,27,12,20,077,16,18,58,175,22,23,46,034,24*71
$GPGSV[2024/10/02, 13:02:45.051],5,2,18,25,44,114,19,28,54,244,32,29,13,155,16,32,24,322,26*7B
$GP[2024/10/02, 13:02:45.191]GSV,5,3,18,,33,106,19,,45,146,22,,68,336,24,,53,033,20*71
$GPGSV,5,[2024/10/02, 13:02:45.332]4,18,,48,010,23,,61,355,25,,68,175,23,,47,052,27*73
$GPGSV,5,5,18,[2024/10/02, 13:02:45.473],28,276,31,,43,222,30*7D
$GPGLL,0114.3570,N,10339.0113,E,050243,A[2024/10/02, 13:02:45.613],A*49
$GPBOD,,T,,M,,*47
$GPBWC,050243,,,,,,T,,M,,N,,A*7B
$GPVTG[2024/10/02, 13:02:45.754],356.53,T,356.37,M,4.08,N,7.56,K,A*29
$PGRME,13.25,M,15.69,M,20.54[2024/10/02, 13:02:45.894],M*23
$PGRMZ,56,f,3*28
$PGRMM,WGS 84*06
$HCHDM,,M*07
$WIMWV,,R[2024/10/02, 13:02:46.035],,,A*6D
$GPAPB,V,V,,,N,V,V,,,,,,,,N*68
$GPZDA,050243,02,10,2024,-[2024/10/02, 13:02:46.144]08,00*6A
[2024/10/02, 13:02:46.222]$GPRMC,050245,A,0114.3594,N,10339.0114[2024/10/02, 13:02:46.488],E,4.18,359.55,021024,0.16,E,A*2E
$GPRMB,A,,,,,,,,,,,,V,A*1C
$GPG[2024/10/02, 13:02:46.629]GA,050245,0114.3594,N,10339.0114,E,1,18,0.67,17.09,M,9.60,M,,*7F
$[2024/10/02, 13:02:46.769]GPGSA,A,3,10,12,18,23,25,28,29,32,,,,,1.21,0.67,1.00*0D
$GPGSV,5,1[2024/10/02, 13:02:46.910],18,10,26,350,25,12,20,077,15,18,58,175,20,23,46,034,25*73
$GPGSV,[2024/10/02, 13:02:47.050]5,2,18,25,44,114,19,28,54,244,31,29,13,155,20,32,24,322,26*7D
$GPG[2024/10/02, 13:02:47.191]SV,5,3,18,,33,106,17,,45,146,19,,68,336,25,,53,033,19*7C
$GPGSV,5,[2024/10/02, 13:02:47.331]4,18,,48,010,23,,61,355,23,,68,175,21,,47,052,24*74
$GPGSV,5,5,18,[2024/10/02, 13:02:47.472],28,276,31,,43,222,30*7D
$GPGLL,0114.3594,N,10339.0114,E,050245,A,[2024/10/02, 13:02:47.613]A*42
$GPBOD,,T,,M,,*47
$GPBWC,050245,,,,,,T,,M,,N,,A*7D
$GPVTG,[2024/10/02, 13:02:47.753]359.55,T,359.39,M,4.18,N,7.74,K,A*20
$PGRME,13.27,M,15.51,M,20.41,[2024/10/02, 13:02:47.894]M*2E
$PGRMZ,56,f,3*28
$PGRMM,WGS 84*06
$HCHDM,,M*07
$WIMWV,,R,[2024/10/02, 13:02:48.035],,A*6D
$GPAPB,V,V,,,N,V,V,,,,,,,,N*68
$GPZDA,050245,02,10,2024,-[2024/10/02, 13:02:48.144]08,00*6C
[2024/10/02, 13:02:48.222]$GPRMC,050247,A,0114.3618,N,10339.0116[2024/10/02, 13:02:48.488],E,4.25,9.92,021024,0.16,E,A*2A
$GPRMB,A,,,,,,,,,,,,V,A*1C
$GPGG[2024/10/02, 13:02:48.628]A,050247,0114.3618,N,10339.0116,E,1,18,0.67,16.50,M,9.60,M,,*75
$G[2024/10/02, 13:02:48.769]PGSA,A,3,10,12,18,23,25,28,29,32,,,,,1.21,0.67,1.00*0D
$GPGSV,5,1,[2024/10/02, 13:02:48.909]18,10,26,350,26,12,20,077,18,18,58,175,26,23,46,034,23*7D
$GPGSV,5[2024/10/02, 13:02:49.050],2,18,25,44,114,19,28,54,244,31,29,13,155,18,32,24,322,23*73
$GPGS[2024/10/02, 13:02:49.190]V,5,3,18,,33,106,14,,45,146,19,,68,336,26,,53,033,18*7D
$GPGSV,5,4,[2024/10/02, 13:02:49.331]18,,48,010,25,,61,355,25,,68,175,23,,47,052,24*76
$GPGSV,5,5,18,,2[2024/10/02, 13:02:49.472]8,276,31,,43,222,29*75
$GPGLL,0114.3618,N,10339.0116,E,050247,A,A[2024/10/02, 13:02:49.612]*45
$GPBOD,,T,,M,,*47
$GPBWC,050247,,,,,,T,,M,,N,,A*7F
$GPVTG,9.[2024/10/02, 13:02:49.753]92,T,9.76,M,4.25,N,7.87,K,A*22
$PGRME,13.29,M,15.63,M,20.52,M*23[2024/10/02, 13:02:49.893]
$PGRMZ,54,f,3*2A
$PGRMM,WGS 84*06
$HCHDM,,M*07
$WIMWV,,R,,,A*6[2024/10/02, 13:02:50.034]D
$GPAPB,V,V,,,N,V,V,,,,,,,,N*68
$GPZDA,050247,02,10,2024,-08,00*[2024/10/02, 13:02:50.128]6E
[2024/10/02, 13:02:50.268]$GPRMC,050249,A,0114.3645,N,10339.0122,E,4.27,10.43,021024,0[2024/10/02, 13:02:50.534].16,E,A*1D
$GPRMB,A,,,,,,,,,,,,V,A*1C
$GPGGA,050249,0114.3645,N,1[2024/10/02, 13:02:50.674]0339.0122,E,1,18,0.67,15.78,M,9.60,M,,*7D
$GPGSA,A,3,10,12,18,23,2[2024/10/02, 13:02:50.815]5,28,29,32,,,,,1.21,0.67,1.00*0D
$GPGSV,5,1,18,10,26,350,28,12,20,[2024/10/02, 13:02:50.956]077,20,18,58,175,25,23,46,034,22*7A
$GPGSV,5,2,18,25,44,114,20,28,[2024/10/02, 13:02:51.096]54,244,30,29,13,155,14,32,24,322,26*71
$GPGSV,5,3,18,,33,106,15,,4[2024/10/02, 13:02:51.237]5,146,15,,68,336,25,,53,033,18*73
$GPGSV,5,4,18,,48,010,25,,61,355[2024/10/02, 13:02:51.377],25,,68,175,24,,47,052,22*77
$GPGSV,5,5,18,,28,276,31,,43,222,29*7[2024/10/02, 13:02:51.518]5
$GPGLL,0114.3645,N,10339.0122,E,050249,A,A*44
$GPBOD,,T,,M,,*4[2024/10/02, 13:02:51.659]7
$GPBWC,050249,,,,,,T,,M,,N,,A*71
$GPVTG,10.43,T,10.27,M,4.27,N,[2024/10/02, 13:02:51.799]7.91,K,A*2F
$PGRME,13.32,M,16.02,M,20.83,M*21
$PGRMZ,52,f,3*2C
[2024/10/02, 13:02:51.940]$PGRMM,WGS 84*06
$HCHDM,,M*07
$WIMWV,,R,,,A*6D
$GPAPB,V,V,,,N,V,[2024/10/02, 13:02:52.065]V,,,,,,,,N*68
$GPZDA,050249,02,10,2024,-08,00*60
[2024/10/02, 13:02:52.268]$GPRMC,050251,A,0114.3668,N,10339.0123,E,4.22,5.16,021024,0.[2024/10/02, 13:02:52.533]16,E,A*2B
$GPRMB,A,,,,,,,,,,,,V,A*1C
$GPGGA,050251,0114.3668,N,1[2024/10/02, 13:02:52.674]0339.0123,E,1,18,0.67,14.56,M,9.60,M,,*77
$GPGSA,A,3,10,12,18,23,2[2024/10/02, 13:02:52.815]5,28,29,32,,,,,1.21,0.67,1.00*0D
$GPGSV,5,1,18,10,26,350,28,12,20,[2024/10/02, 13:02:52.955]077,21,18,58,175,25,23,46,034,22*7B
$GPGSV,5,2,18,25,44,114,18,28,[2024/10/02, 13:02:53.096]54,244,30,29,13,155,14,32,24,322,27*7B
$GPGSV,5,3,18,,33,106,15,,4[2024/10/02, 13:02:53.236]5,146,16,,67,336,25,,53,033,18*7F
$GPGSV,5,4,18,,48,010,24,,61,355,[2024/10/02, 13:02:53.377]24,,68,175,24,,47,052,20*75
$GPGSV,5,5,18,,28,276,31,,43,222,28*74[2024/10/02, 13:02:53.518]
$GPGLL,0114.3668,N,10339.0123,E,050251,A,A*43
$GPBOD,,T,,M,,*47[2024/10/02, 13:02:53.658]
$GPBWC,050251,,,,,,T,,M,,N,,A*78
$GPVTG,5.16,T,5.00,M,4.22,N,7.8[2024/10/02, 13:02:53.799]1,K,A*2E
$PGRME,13.36,M,16.93,M,21.57,M*25
$PGRMZ,48,f,3*27
$PG[2024/10/02, 13:02:53.939]RMM,WGS 84*06
$HCHDM,,M*07
$WIMWV,,R,,,A*6D
$GPAPB,V,V,,,N,V,V,[2024/10/02, 13:02:54.064],,,,,,,N*68
$GPZDA,050251,02,10,2024,-08,00*69
[2024/10/02, 13:02:54.267]$GPRMC,050254,A,0114.3692,N,10339.0128,E,4.20,6.77,021024,0.[2024/10/02, 13:02:54.533]16,E,A*26
$GPRMB,A,,,,,,,,,,,,V,A*1C
$GPGGA,050254,0114.3692,N,1[2024/10/02, 13:02:54.673]0339.0128,E,1,18,0.92,14.11,M,9.60,M,,*75
$GPGSA,A,3,10,12,18,23,2[2024/10/02, 13:02:54.814]5,28,29,32,,,,,1.88,0.92,1.64*06
$GPGSV,5,1,18,10,26,350,25,12,20,[2024/10/02, 13:02:54.955]077,18,18,58,175,23,23,46,034,22*7A
$GPGSV,5,2,18,25,44,114,19,28,[2024/10/02, 13:02:55.095]54,244,30,29,13,155,16,32,24,322,24*7B
$GPGSV,5,3,18,,33,106,13,,4[2024/10/02, 13:02:55.236]5,146,14,,67,336,25,,53,034,19*7D
$GPGSV,5,4,18,,48,010,25,,61,355[2024/10/02, 13:02:55.376],24,,68,175,22,,47,052,24*76
$GPGSV,5,5,18,,28,276,31,,43,222,29*7[2024/10/02, 13:02:55.517]5
$GPGLL,0114.3692,N,10339.0128,E,050254,A,A*48
$GPBOD,,T,,M,,*47[2024/10/02, 13:02:55.658]
$GPBWC,050254,,,,,,T,,M,,N,,A*7D
$GPVTG,6.77,T,6.61,M,4.20,N,7.[2024/10/02, 13:02:55.798]78,K,A*2A
$PGRME,13.42,M,17.03,M,21.68,M*22
$PGRMZ,46,f,3*29
$PG[2024/10/02, 13:02:55.939]RMM,WGS 84*06
$HCHDM,,M*07
$WIMWV,,R,,,A*6D
$GPAPB,V,V,,,N,V,V,[2024/10/02, 13:02:56.064],,,,,,,N*68
$GPZDA,050254,02,10,2024,-08,00*6C
[2024/10/02, 13:02:56.267]$GPRMC,050255,A,0114.3713,N,10339.0123,E,4.19,6.16,021024,0[2024/10/02, 13:02:56.532].16,E,A*29
$GPRMB,A,,,,,,,,,,,,V,A*1C
$GPGGA,050255,0114.3713,N,1[2024/10/02, 13:02:56.673]0339.0123,E,1,10,0.67,14.46,M,9.60,M,,*77
$GPGSA,A,3,10,12,18,23,2[2024/10/02, 13:02:56.814]5,28,29,32,,,,,1.34,0.67,1.16*0E
$GPGSV,5,1,18,10,26,350,26,12,20,[2024/10/02, 13:02:56.954]077,20,18,58,175,21,23,46,034,25*77
$GPGSV,5,2,18,25,44,114,18,28,[2024/10/02, 13:02:57.095]54,244,30,29,13,155,19,32,24,322,25*74
$GPGSV,5,3,18,,33,106,13,,4[2024/10/02, 13:02:57.235]5,146,14,,67,336,26,,53,034,18*7F
$GPGSV,5,4,18,,48,010,25,,61,355[2024/10/02, 13:02:57.376],25,,68,175,24,,47,052,26*73
$GPGSV,5,5,18,,28,276,32,,43,222,29*7[2024/10/02, 13:02:57.517]6
$GPGLL,0114.3713,N,10339.0123,E,050255,A,A*4A
$GPBOD,,T,,M,,*47[2024/10/02, 13:02:57.657]
$GPBWC,050255,,,,,,T,,M,,N,,A*7C
$GPVTG,6.16,T,6.00,M,4.19,N,7.[2024/10/02, 13:02:57.798]75,K,A*2D
$PGRME,13.43,M,16.59,M,21.35,M*25
$PGRMZ,47,f,3*28
$P[2024/10/02, 13:02:57.938]GRMM,WGS 84*06
$HCHDM,,M*07
$WIMWV,,R,,,A*6D
$GPAPB,V,V,,,N,V,V[2024/10/02, 13:02:58.063],,,,,,,,N*68
$GPZDA,050255,02,10,2024,-08,00*6D
[2024/10/02, 13:02:58.266]$GPRMC,050257,A,0114.3738,N,10339.0102,E,4.21,353.15,021024[2024/10/02, 13:02:58.532],0.16,E,A*2A
$GPRMB,A,,,,,,,,,,,,V,A*1C
$GPGGA,050257,0114.3738,N[2024/10/02, 13:02:58.673],10339.0102,E,1,18,0.67,15.23,M,9.60,M,,*75
$GPGSA,A,3,10,12,18,23[2024/10/02, 13:02:58.813],25,28,29,32,,,,,1.34,0.67,1.16*0E
$GPGSV,5,1,18,10,26,350,26,12,2[2024/10/02, 13:02:58.954]0,077,20,18,58,175,23,23,46,034,25*75
$GPGSV,5,2,18,25,44,114,17,2[2024/10/02, 13:02:59.094]8,54,244,30,29,13,155,23,32,24,322,26*71
$GPGSV,5,3,18,,33,106,14,[2024/10/02, 13:02:59.235],45,146,20,,67,336,24,,53,034,18*7D
$GPGSV,5,4,18,,48,010,23,,61,3[2024/10/02, 13:02:59.376]55,25,,68,175,22,,47,052,26*73
$GPGSV,5,5,18,,28,276,31,,43,222,30[2024/10/02, 13:02:59.516]*7D
$GPGLL,0114.3738,N,10339.0102,E,050257,A,A*42
$GPBOD,,T,,M,,[2024/10/02, 13:02:59.657]*47
$GPBWC,050257,,,,,,T,,M,,N,,A*7E
$GPVTG,353.15,T,352.99,M,4.2[2024/10/02, 13:02:59.797]1,N,7.79,K,A*28
$PGRME,13.45,M,16.11,M,20.99,M*28
$PGRMZ,50,f,3*2[2024/10/02, 13:02:59.938]E
$PGRMM,WGS 84*06
$HCHDM,,M*07
$WIMWV,,R,,,A*6D
$GPAPB,V,V,,,[2024/10/02, 13:03:00.078]N,V,V,,,,,,,,N*68
$GPZDA,050257,02,10,2024,-08,00*6F
[2024/10/02, 13:03:00.266]$GPRMC,050259,A,0114.3764,N,10339.0090,E,4.29,354.96,021024[2024/10/02, 13:03:00.532],0.16,E,A*23
$GPRMB,A,,,,,,,,,,,,V,A*1C
$GPGGA,050259,0114.3764,N[2024/10/02, 13:03:00.672],10339.0090,E,1,18,0.67,14.96,M,9.60,M,,*77
$GPGSA,A,3,10,12,18,23[2024/10/02, 13:03:00.813],25,28,29,32,,,,,1.34,0.67,1.16*0E
$GPGSV,5,1,18,10,26,350,26,12,2[2024/10/02, 13:03:00.953]0,077,13,18,58,175,22,23,46,034,25*74
$GPGSV,5,2,18,25,44,114,19,2[2024/10/02, 13:03:01.094]8,54,244,31,29,13,155,21,32,24,322,25*7F
$GPGSV,5,3,18,,33,106,18,[2024/10/02, 13:03:01.234],45,146,22,,67,336,26,,53,034,19*70
$GPGSV,5,4,18,,48,010,23,,61,3[2024/10/02, 13:03:01.375]55,25,,68,175,23,,47,052,26*72
$GPGSV,5,5,18,,28,276,31,,43,222,30[2024/10/02, 13:03:01.516]*7D
$GPGLL,0114.3764,N,10339.0090,E,050259,A,A*4F
$GPBOD,,T,,M,,[2024/10/02, 13:03:01.656]*47
$GPBWC,050259,,,,,,T,,M,,N,,A*70
$GPVTG,354.96,T,354.80,M,4.2[2024/10/02, 13:03:01.797]9,N,7.94,K,A*21
$PGRME,13.46,M,15.93,M,20.86,M*2C
$PGRMZ,49,f,3*[2024/10/02, 13:03:01.937]26
$PGRMM,WGS 84*06
$HCHDM,,M*07
$WIMWV,,R,,,A*6D
$GPAPB,V,V,,,[2024/10/02, 13:03:02.078]N,V,V,,,,,,,,N*68
$GPZDA,050259,02,10,2024,-08,00*61
[2024/10/02, 13:03:02.266]$GPRMC,050301,A,0114.3790,N,10339.0076,E,4.27,348.02,021024[2024/10/02, 13:03:02.531],0.16,E,A*22
$GPRMB,A,,,,,,,,,,,,V,A*1C
$GPGGA,050301,0114.3790,[2024/10/02, 13:03:02.672]N,10339.0076,E,1,18,0.67,15.11,M,9.60,M,,*76
$GPGSA,A,3,10,12,18,2[2024/10/02, 13:03:02.812]3,25,28,29,32,,,,,1.34,0.67,1.16*0E
$GPGSV,5,1,18,10,26,350,26,12,[2024/10/02, 13:03:02.953]20,077,16,18,58,175,22,23,46,034,24*70
$GPGSV,5,2,18,25,44,114,21,[2024/10/02, 13:03:03.093]28,54,244,31,29,13,155,21,32,24,322,26*77
$GPGSV,5,3,18,,33,106,18[2024/10/02, 13:03:03.234],,45,146,24,,67,336,25,,53,034,21*7E
$GPGSV,5,4,18,,48,010,25,,61,[2024/10/02, 13:03:03.375]354,23,,68,175,23,,47,052,26*73
$GPGSV,5,5,18,,28,276,31,,43,222,3[2024/10/02, 13:03:03.515]0*7D
$GPGLL,0114.3790,N,10339.0076,E,050301,A,A*40
$GPBOD,,T,,M,,[2024/10/02, 13:03:03.656]*47
$GPBWC,050301,,,,,,T,,M,,N,,A*7C
$GPVTG,348.02,T,347.86,M,4.[2024/10/02, 13:03:03.796]27,N,7.91,K,A*2E
$PGRME,13.46,M,15.97,M,20.89,M*27
$PGRMZ,50,f,3[2024/10/02, 13:03:03.937]*2E
$PGRMM,WGS 84*06
$HCHDM,,M*07
$WIMWV,,R,,,A*6D
$GPAPB,V,V,,[2024/10/02, 13:03:04.078],N,V,V,,,,,,,,N*68
$GPZDA,050301,02,10,2024,-08,00*6D
[2024/10/02, 13:03:04.265]$GPRMC,050303,A,0114.3814,N,10339.0067,E,4.27,343.84,021024[2024/10/02, 13:03:04.531],0.16,E,A*26
$GPRMB,A,,,,,,,,,,,,V,A*1C
$GPGGA,050303,0114.3814,[2024/10/02, 13:03:04.671]N,10339.0067,E,1,18,0.67,14.94,M,9.60,M,,*7B
$GPGSA,A,3,10,12,18,2[2024/10/02, 13:03:04.812]3,25,28,29,32,,,,,1.34,0.67,1.16*0E
$GPGSV,5,1,18,10,26,350,26,12,[2024/10/02, 13:03:04.952]20,077,16,18,58,175,22,23,46,034,21*75
$GPGSV,5,2,18,25,44,114,20,[2024/10/02, 13:03:05.093]28,54,244,32,29,13,155,15,32,24,322,27*73
$GPGSV,5,3,18,,33,106,21[2024/10/02, 13:03:05.234],,45,146,23,,67,336,25,,53,034,23*71
$GPGSV,5,4,18,,48,010,22,,61,[2024/10/02, 13:03:05.374]354,23,,68,175,23,,47,052,27*75
$GPGSV,5,5,18,,28,276,31,,43,222,3[2024/10/02, 13:03:05.515]0*7D
$GPGLL,0114.3814,N,10339.0067,E,050303,A,A*41
$GPBOD,,T,,M,,[2024/10/02, 13:03:05.655]*47
$GPBWC,050303,,,,,,T,,M,,N,,A*7E
$GPVTG,343.84,T,343.68,M,4.[2024/10/02, 13:03:05.796]27,N,7.92,K,A*2C
$PGRME,13.26,M,16.06,M,20.82,M*21
$PGRMZ,49,f,3*[2024/10/02, 13:03:05.937]26
$PGRMM,WGS 84*06
$HCHDM,,M*07
$WIMWV,,R,,,A*6D
$GPAPB,V,V,,[2024/10/02, 13:03:06.077],N,V,V,,,,,,,,N*68
$GPZDA,050303,02,10,2024,-08,00*6F
[2024/10/02, 13:03:06.265]$GPRMC,050305,A,0114.3839,N,10339.0056,E,4.29,341.52,02102[2024/10/02, 13:03:06.530]4,0.16,E,A*2A
$GPRMB,A,,,,,,,,,,,,V,A*1C
$GPGGA,050305,0114.3839,[2024/10/02, 13:03:06.671]N,10339.0056,E,1,18,0.67,14.16,M,9.60,M,,*7A
$GPGSA,A,3,10,12,18,2[2024/10/02, 13:03:06.811]3,25,28,29,32,,,,,1.34,0.67,1.16*0E
$GPGSV,5,1,18,10,26,350,27,12,[2024/10/02, 13:03:06.952]20,077,15,18,58,175,23,23,46,034,19*7D
$GPGSV,5,2,18,25,44,114,19,[2024/10/02, 13:03:07.092]28,54,244,32,29,13,155,18,32,24,322,28*7B
$GPGSV,5,3,18,,33,106,23[2024/10/02, 13:03:07.233],,45,146,20,,67,336,24,,53,034,24*76
$GPGSV,5,4,18,,48,010,18,,61,[2024/10/02, 13:03:07.374]354,22,,68,175,22,,47,052,27*7C
$GPGSV,5,5,18,,28,276,30,,43,222,2[2024/10/02, 13:03:07.514]9*74
$GPGLL,0114.3839,N,10339.0056,E,050305,A,A*4A
$GPBOD,,T,,M,,[2024/10/02, 13:03:07.655]*47
$GPBWC,050305,,,,,,T,,M,,N,,A*78
$GPVTG,341.52,T,341.36,M,4.[2024/10/02, 13:03:07.795]29,N,7.95,K,A*25
$PGRME,13.10,M,16.11,M,20.77,M*28
$PGRMZ,46,f,3*[2024/10/02, 13:03:07.936]29
$PGRMM,WGS 84*06
$HCHDM,,M*07
$WIMWV,,R,,,A*6D
$GPAPB,V,V,,[2024/10/02, 13:03:08.077],N,V,V,,,,,,,,N*68
$GPZDA,050305,02,10,2024,-08,00*69
[2024/10/02, 13:03:08.264]$GPRMC,050307,A,0114.3862,N,10339.0046,E,4.27,345.59,02102[2024/10/02, 13:03:08.530]4,0.16,E,A*26
$GPRMB,A,,,,,,,,,,,,V,A*1C
$GPGGA,050307,0114.3862,[2024/10/02, 13:03:08.670]N,10339.0046,E,1,18,0.67,13.75,M,9.60,M,,*75
$GPGSA,A,3,10,12,18,2[2024/10/02, 13:03:08.811]3,25,28,29,32,,,,,1.34,0.67,1.16*0E
$GPGSV,5,1,18,10,26,350,27,12,[2024/10/02, 13:03:08.951]20,077,15,18,58,175,24,23,46,034,23*73
$GPGSV,5,2,18,25,44,114,21,[2024/10/02, 13:03:09.092]28,54,244,32,29,13,155,15,32,24,322,27*72
$GPGSV,5,3,18,,33,106,19[2024/10/02, 13:03:09.233],,45,146,21,,67,336,25,,53,034,22*79
$GPGSV,5,4,18,,48,010,18,,61,[2024/10/02, 13:03:09.373]354,22,,69,175,24,,47,052,25*79
$GPGSV,5,5,18,,28,276,30,,43,222,2[2024/10/02, 13:03:09.514]9*74
$GPGLL,0114.3862,N,10339.0046,E,050307,A,A*47
$GPBOD,,T,,M,[2024/10/02, 13:03:09.654],*47
$GPBWC,050307,,,,,,T,,M,,N,,A*7A
$GPVTG,345.59,T,345.43,M,4.[2024/10/02, 13:03:09.795]27,N,7.90,K,A*27
$PGRME,12.94,M,16.20,M,20.73,M*23
$PGRMZ,45,f,3[2024/10/02, 13:03:09.936]*2A
$PGRMM,WGS 84*06
$HCHDM,,M*07
$WIMWV,,R,,,A*6D
$GPAPB,V,V,,[2024/10/02, 13:03:10.076],N,V,V,,,,,,,,N*68
$GPZDA,050307,02,10,2024,-08,00*6B
[2024/10/02, 13:03:10.264]$GPRMC,050309,A,0114.3885,N,10339.0044,E,4.25,345.08,02102[2024/10/02, 13:03:10.529]4,0.16,E,A*25
$GPRMB,A,,,,,,,,,,,,V,A*1C
$GPGGA,050309,0114.3885,[2024/10/02, 13:03:10.670]N,10339.0044,E,1,18,0.67,13.12,M,9.60,M,,*71
$GPGSA,A,3,10,12,18,2[2024/10/02, 13:03:10.810]3,25,28,29,32,,,,,1.34,0.67,1.16*0E
$GPGSV,5,1,18,10,26,350,27,12[2024/10/02, 13:03:10.951],20,077,18,18,58,175,23,23,46,034,21*7B
$GPGSV,5,2,18,25,44,114,17,[2024/10/02, 13:03:11.091]28,54,244,32,29,13,155,15,32,24,322,27*77
$GPGSV,5,3,18,,33,106,16[2024/10/02, 13:03:11.232],,45,146,18,,67,336,25,,53,034,22*7C
$GPGSV,5,4,18,,48,010,16,,61,[2024/10/02, 13:03:11.373]354,23,,69,175,21,,47,051,25*70
$GPGSV,5,5,18,,28,276,30,,43,222,2[2024/10/02, 13:03:11.513]8*75
$GPGLL,0114.3885,N,10339.0044,E,050309,A,A*42
$GPBOD,,T,,M,[2024/10/02, 13:03:11.654],*47
$GPBWC,050309,,,,,,T,,M,,N,,A*74
$GPVTG,345.08,T,344.92,M,4.[2024/10/02, 13:03:11.794]25,N,7.88,K,A*25
$PGRME,12.94,M,16.34,M,20.85,M*2F
$PGRMZ,43,f,3[2024/10/02, 13:03:11.935]*2C
$PGRMM,WGS 84*06
$HCHDM,,M*07
$WIMWV,,R,,,A*6D
$GPAPB,V,V,,[2024/10/02, 13:03:12.076],N,V,V,,,,,,,,N*68
$GPZDA,050309,02,10,2024,-08,00*65
[2024/10/02, 13:03:12.263]$GPRMC,050311,A,0114.3906,N,10339.0036,E,4.16,343.48,02102[2024/10/02, 13:03:12.529]4,0.16,E,A*21
$GPRMB,A,,,,,,,,,,,,V,A*1C
$GPGGA,050311,0114.3906[2024/10/02, 13:03:12.669],N,10339.0036,E,1,18,0.67,12.02,M,9.60,M,,*77
$GPGSA,A,3,10,12,18,[2024/10/02, 13:03:12.810]23,25,28,29,32,,,,,1.34,0.67,1.16*0E
$GPGSV,5,1,18,10,26,350,25,12[2024/10/02, 13:03:12.950],20,077,16,18,58,175,23,23,46,034,20*76
$GPGSV,5,2,18,25,44,114,22[2024/10/02, 13:03:13.091],28,54,244,32,29,13,155,15,32,24,322,28*7E
$GPGSV,5,3,18,,33,106,2[2024/10/02, 13:03:13.232]0,,45,146,22,,67,336,25,,53,034,23*71
$GPGSV,5,4,18,,48,010,21,,61[2024/10/02, 13:03:13.372],354,23,,69,175,19,,47,051,26*7C
$GPGSV,5,5,18,,28,276,30,,43,222,2[2024/10/02, 13:03:13.513]8*75
$GPGLL,0114.3906,N,10339.0036,E,050311,A,A*44
$GPBOD,,T,,M,[2024/10/02, 13:03:13.653],*47
$GPBWC,050311,,,,,,T,,M,,N,,A*7D
$GPVTG,343.48,T,343.32,M,4.[2024/10/02, 13:03:13.794]16,N,7.71,K,A*2C
$PGRME,12.85,M,16.53,M,20.94,M*2E
$PGRMZ,39,f,3[2024/10/02, 13:03:13.935]*21
$PGRMM,WGS 84*06
$HCHDM,,M*07
$WIMWV,,R,,,A*6D
$GPAPB,V,V,[2024/10/02, 13:03:14.075],,N,V,V,,,,,,,,N*68
$GPZDA,050311,02,10,2024,-08,00*6C
[2024/10/02, 13:03:14.263]$GPRMC,050313,A,0114.3925,N,10339.0032,E,4.04,352.92,0210[2024/10/02, 13:03:14.528]24,0.16,E,A*22
$GPRMB,A,,,,,,,,,,,,V,A*1C
$GPGGA,050313,0114.3925[2024/10/02, 13:03:14.669],N,10339.0032,E,1,18,0.67,10.83,M,9.60,M,,*7B
$GPGSA,A,3,10,12,18,[2024/10/02, 13:03:14.809]23,25,28,29,32,,,,,1.34,0.67,1.16*0E
$GPGSV,5,1,18,10,26,350,26,12[2024/10/02, 13:03:14.950],20,077,17,18,58,175,20,23,46,034,21*76
$GPGSV,5,2,18,25,44,114,19[2024/10/02, 13:03:15.091],28,54,244,32,29,13,155,17,32,24,322,27*7B
$GPGSV,5,3,18,,33,106,1[2024/10/02, 13:03:15.231]9,,45,146,24,,67,336,23,,53,034,21*79
$GPGSV,5,4,18,,48,010,22,,61[2024/10/02, 13:03:15.372],354,21,,69,175,24,,47,051,26*73
$GPGSV,5,5,18,,28,276,31,,43,221,[2024/10/02, 13:03:15.512]29*76
$GPGLL,0114.3925,N,10339.0032,E,050313,A,A*43
$GPBOD,,T,,M,[2024/10/02, 13:03:15.653],*47
$GPBWC,050313,,,,,,T,,M,,N,,A*7F
$GPVTG,352.92,T,352.76,M,4[2024/10/02, 13:03:15.793].04,N,7.48,K,A*22
$PGRME,12.71,M,16.65,M,20.95,M*21
$PGRMZ,36,f,3[2024/10/02, 13:03:15.934]*2E
$PGRMM,WGS 84*06
$HCHDM,,M*07
$WIMWV,,R,,,A*6D
$GPAPB,V,V,[2024/10/02, 13:03:16.075],,N,V,V,,,,,,,,N*68
$GPZDA,050313,02,10,2024,-08,00*6E
[2024/10/02, 13:03:16.262]$GPRMC,050315,A,0114.3946,N,10339.0027,E,4.02,351.57,0210[2024/10/02, 13:03:16.528]24,0.16,E,A*29
$GPRMB,A,,,,,,,,,,,,V,A*1C
$GPGGA,050315,0114.3946[2024/10/02, 13:03:16.668],N,10339.0027,E,1,18,0.67,9.06,M,9.60,M,,*49
$GPGSA,A,3,10,12,18,2[2024/10/02, 13:03:16.809]3,25,28,29,32,,,,,1.34,0.67,1.16*0E
$GPGSV,5,1,18,10,26,350,26,12,[2024/10/02, 13:03:16.950]20,077,15,18,58,175,21,23,46,034,22*76
$GPGSV,5,2,18,25,44,114,20,[2024/10/02, 13:03:17.090]28,54,244,32,29,13,155,17,32,24,322,25*73
$GPGSV,5,3,18,,33,106,18[2024/10/02, 13:03:17.231],,45,146,22,,67,336,26,,53,034,22*78
$GPGSV,5,4,18,,48,010,24,,61,[2024/10/02, 13:03:17.371]354,23,,69,175,25,,47,051,27*77
$GPGSV,5,5,18,,28,276,31,,43,221,2[2024/10/02, 13:03:17.512]9*76
$GPGLL,0114.3946,N,10339.0027,E,050315,A,A*44
$GPBOD,,T,,M,,[2024/10/02, 13:03:17.653]*47
$GPBWC,050315,,,,,,T,,M,,N,,A*79
$GPVTG,351.57,T,351.41,M,4.[2024/10/02, 13:03:17.793]02,N,7.45,K,A*24
$PGRME,12.63,M,16.88,M,21.08,M*24
$PGRMZ,30,f,3*[2024/10/02, 13:03:17.934]28
$PGRMM,WGS 84*06
$HCHDM,,M*07
$WIMWV,,R,,,A*6D
$GPAPB,V,V,,[2024/10/02, 13:03:18.074],N,V,V,,,,,,,,N*68
$GPZDA,050315,02,10,2024,-08,00*68
[2024/10/02, 13:03:18.262]$GPRMC,050317,A,0114.3970,N,10339.0024,E,4.05,355.29,0210[2024/10/02, 13:03:18.527]24,0.16,E,A*27
$GPRMB,A,,,,,,,,,,,,V,A*1C
$GPGGA,050317,0114.3970[2024/10/02, 13:03:18.668],N,10339.0024,E,1,18,0.67,7.82,M,9.60,M,,*4F
$GPGSA,A,3,10,12,18,2[2024/10/02, 13:03:18.808]3,25,28,29,32,,,,,1.34,0.67,1.16*0E
$GPGSV,5,1,18,10,26,350,27,12,[2024/10/02, 13:03:18.949]20,077,17,18,58,175,22,23,46,034,23*77
$GPGSV,5,2,18,25,44,114,19,[2024/10/02, 13:03:19.090]28,54,244,32,29,13,155,14,32,24,322,26*79
$GPGSV,5,3,18,,33,106,20[2024/10/02, 13:03:19.230],,45,146,21,,67,336,25,,53,034,20*71
$GPGSV,5,4,18,,48,010,23,,61,[2024/10/02, 13:03:19.371]354,24,,69,175,23,,47,051,26*70
$GPGSV,5,5,18,,28,276,32,,43,221,3[2024/10/02, 13:03:19.511]0*7D
$GPGLL,0114.3970,N,10339.0024,E,050317,A,A*40
$GPBOD,,T,,M,[2024/10/02, 13:03:19.652],*47
$GPBWC,050317,,,,,,T,,M,,N,,A*7B
$GPVTG,355.29,T,355.13,M,4.[2024/10/02, 13:03:19.793]05,N,7.49,K,A*21
$PGRME,12.63,M,17.26,M,21.38,M*22
$PGRMZ,26,f,3[2024/10/02, 13:03:19.933]*2F
$PGRMM,WGS 84*06
$HCHDM,,M*07
$WIMWV,,R,,,A*6D
$GPAPB,V,V,,[2024/10/02, 13:03:20.074],N,V,V,,,,,,,,N*68
$GPZDA,050317,02,10,2024,-08,00*6A
[2024/10/02, 13:03:20.261]$GPRMC,050319,A,0114.3993,N,10339.0019,E,4.05,353.87,0210[2024/10/02, 13:03:20.527]24,0.16,E,A*28
$GPRMB,A,,,,,,,,,,,,V,A*1C
$GPGGA,050319,0114.3993[2024/10/02, 13:03:20.667],N,10339.0019,E,1,18,0.67,6.56,M,9.60,M,,*4A
$GPGSA,A,3,10,12,18,2[2024/10/02, 13:03:20.808]3,25,28,29,32,,,,,1.34,0.67,1.16*0E
$GPGSV,5,1,18,10,26,350,27,12[2024/10/02, 13:03:20.949],20,077,16,18,58,175,21,23,46,034,23*75
$GPGSV,5,2,18,25,44,114,16[2024/10/02, 13:03:21.089],28,54,244,32,29,13,155,14,32,24,322,23*73
$GPGSV,5,3,18,,33,106,17[2024/10/02, 13:03:21.230],,45,146,20,,67,336,24,,53,034,22*77
$GPGSV,5,4,18,,48,010,25,,61,[2024/10/02, 13:03:21.370]354,24,,69,175,23,,47,051,26*76
$GPGSV,5,5,18,,28,276,32,,43,221,3[2024/10/02, 13:03:21.511]0*7D
$GPGLL,0114.3993,N,10339.0019,E,050319,A,A*4D
$GPBOD,,T,,M,[2024/10/02, 13:03:21.652],*47
$GPBWC,050319,,,,,,T,,M,,N,,A*75
$GPVTG,353.87,T,353.71,M,4.[2024/10/02, 13:03:21.792]05,N,7.49,K,A*21
$PGRME,12.63,M,17.60,M,21.66,M*2B
$PGRMZ,22,f,3[2024/10/02, 13:03:21.933]*2B
$PGRMM,WGS 84*06
$HCHDM,,M*07
$WIMWV,,R,,,A*6D
$GPAPB,V,V,[2024/10/02, 13:03:22.073],,N,V,V,,,,,,,,N*68
$GPZDA,050319,02,10,2024,-08,00*64
[2024/10/02, 13:03:22.261]$GPRMC,050321,A,0114.4014,N,10339.0017,E,4.01,356.62,0210[2024/10/02, 13:03:22.526]24,0.16,E,A*26
$GPRMB,A,,,,,,,,,,,,V,A*1C
$GPGGA,050321,0114.401[2024/10/02, 13:03:22.667]4,N,10339.0017,E,1,18,0.67,5.09,M,9.60,M,,*47
$GPGSA,A,3,10,12,18,[2024/10/02, 13:03:22.807]23,25,28,29,32,,,,,1.34,0.67,1.16*0E
$GPGSV,5,1,18,10,26,350,27,12[2024/10/02, 13:03:22.948],20,077,16,18,58,175,22,23,46,034,22*77
$GPGSV,5,2,18,25,44,114,21[2024/10/02, 13:03:23.089],28,54,244,32,29,13,155,14,32,24,322,27*73
$GPGSV,5,3,18,,33,106,2[2024/10/02, 13:03:23.229]0,,45,146,22,,67,336,25,,53,034,24*76
$GPGSV,5,4,18,,48,010,22,,61[2024/10/02, 13:03:23.370],354,24,,69,175,23,,47,051,26*71
$GPGSV,5,5,18,,28,276,32,,43,221,[2024/10/02, 13:03:23.511]30*7D
$GPGLL,0114.4014,N,10339.0017,E,050321,A,A*49
$GPBOD,,T,,M,[2024/10/02, 13:03:23.651],*47
$GPBWC,050321,,,,,,T,,M,,N,,A*7E
$GPVTG,356.62,T,356.46,M,4.[2024/10/02, 13:03:23.792]01,N,7.43,K,A*20
$PGRME,12.63,M,17.89,M,21.90,M*25
$PGRMZ,17,f,3[2024/10/02, 13:03:23.932]*2D
$PGRMM,WGS 84*06
$HCHDM,,M*07
$WIMWV,,R,,,A*6D
$GPAPB,V,V,[2024/10/02, 13:03:24.073],,N,V,V,,,,,,,,N*68
$GPZDA,050321,02,10,2024,-08,00*6F
[2024/10/02, 13:03:24.260]$GPRMC,050323,A,0114.4036,N,10339.0015,E,4.01,0.02,021024[2024/10/02, 13:03:24.526],0.16,E,A*20
$GPRMB,A,,,,,,,,,,,,V,A*1C
$GPGGA,050323,0114.4036,[2024/10/02, 13:03:24.666]N,10339.0015,E,1,18,0.67,3.82,M,9.60,M,,*42
$GPGSA,A,3,10,12,18,23[2024/10/02, 13:03:24.807],25,28,29,32,,,,,1.34,0.67,1.16*0E
$GPGSV,5,1,18,10,26,350,27,12,2[2024/10/02, 13:03:24.948]0,077,15,18,58,175,23,23,46,034,20*77
$GPGSV,5,2,18,25,44,114,22,2[2024/10/02, 13:03:25.088]8,54,244,32,29,13,155,14,32,24,322,26*71
$GPGSV,5,3,18,,33,106,19,[2024/10/02, 13:03:25.229],45,146,24,,67,336,26,,53,034,23*7E
$GPGSV,5,4,18,,48,010,19,,61,3[2024/10/02, 13:03:25.369]54,24,,69,175,24,,47,051,26*7E
$GPGSV,5,5,18,,28,276,32,,43,221,30[2024/10/02, 13:03:25.510]*7D
$GPGLL,0114.4036,N,10339.0015,E,050323,A,A*49
$GPBOD,,T,,M,,*[2024/10/02, 13:03:25.651]47
$GPBWC,050323,,,,,,T,,M,,N,,A*7C
$GPVTG,0.02,T,359.86,M,4.01,[2024/10/02, 13:03:25.791]N,7.43,K,A*25
$PGRME,12.63,M,18.13,M,22.10,M*22
$PGRMZ,13,f,3*29[2024/10/02, 13:03:25.932]
$PGRMM,WGS 84*06
$HCHDM,,M*07
$WIMWV,,R,,,A*6D
$GPAPB,V,V,,,N,[2024/10/02, 13:03:26.072]V,V,,,,,,,,N*68
$GPZDA,050323,02,10,2024,-08,00*6D
[2024/10/02, 13:03:26.260]$GPRMC,050325,A,0114.4055,N,10339.0008,E,3.91,340.42,021[2024/10/02, 13:03:26.525]024,0.16,E,A*22
$GPRMB,A,,,,,,,,,,,,V,A*1C
$GPGGA,050325,0114.405[2024/10/02, 13:03:26.666]5,N,10339.0008,E,1,18,0.67,2.01,M,9.60,M,,*47
$GPGSA,A,3,10,12,18,[2024/10/02, 13:03:26.807]23,25,28,29,32,,,,,1.34,0.67,1.16*0E
$GPGSV,5,1,18,10,26,350,25,12[2024/10/02, 13:03:26.947],20,077,16,18,58,175,22,23,46,034,20*77
$GPGSV,5,2,18,25,44,114,20[2024/10/02, 13:03:27.088],28,54,244,32,29,13,155,16,32,24,322,28*7F
$GPGSV,5,3,18,,33,106,1[2024/10/02, 13:03:27.228]9,,45,146,20,,67,336,25,,53,034,23*79
$GPGSV,5,4,18,,48,010,21,,61[2024/10/02, 13:03:27.369],354,22,,69,175,23,,47,051,26*74
$GPGSV,5,5,18,,28,276,32,,43,221,[2024/10/02, 13:03:27.509]30*7D
$GPGLL,0114.4055,N,10339.0008,E,050325,A,A*46
$GPBOD,,T,,M[2024/10/02, 13:03:27.650],,*47
$GPBWC,050325,,,,,,T,,M,,N,,A*7A
$GPVTG,340.42,T,340.26,M,3[2024/10/02, 13:03:27.791].91,N,7.24,K,A*2B
$PGRME,12.64,M,18.22,M,22.18,M*2F
$PGRMZ,7,f,3*[2024/10/02, 13:03:27.931]1C
$PGRMM,WGS 84*06
$HCHDM,,M*07
$WIMWV,,R,,,A*6D
$GPAPB,V,V,,[2024/10/02, 13:03:28.072],N,V,V,,,,,,,,N*68
$GPZDA,050325,02,10,2024,-08,00*6B
[2024/10/02, 13:03:28.259]$GPRMC,050327,A,0114.4076,N,10339.0005,E,3.86,341.71,021[2024/10/02, 13:03:28.525]024,0.16,E,A*2B
$GPRMB,A,,,,,,,,,,,,V,A*1C
$GPGGA,050327,0114.407[2024/10/02, 13:03:28.665]6,N,10339.0005,E,1,18,0.67,0.68,M,9.60,M,,*44
$GPGSA,A,3,10,12,18,[2024/10/02, 13:03:28.806]23,25,28,29,32,,,,,1.34,0.67,1.16*0E
$GPGSV,5,1,18,10,26,350,27,1[2024/10/02, 13:03:28.947]2,20,077,16,18,58,175,22,23,46,034,21*74
$GPGSV,5,2,18,25,44,114,21[2024/10/02, 13:03:29.087],28,54,244,32,29,13,155,15,32,24,322,28*7D
$GPGSV,5,3,18,,33,106,2[2024/10/02, 13:03:29.228]0,,45,146,23,,67,336,25,,53,034,23*70
$GPGSV,5,4,18,,48,010,18,,61[2024/10/02, 13:03:29.368],354,22,,69,175,23,,47,051,27*7F
$GPGSV,5,5,18,,28,276,31,,43,221,[2024/10/02, 13:03:29.509]29*76
$GPGLL,0114.4076,N,10339.0005,E,050327,A,A*48
$GPBOD,,T,,M[2024/10/02, 13:03:29.650],,*47
$GPBWC,050327,,,,,,T,,M,,N,,A*78
$GPVTG,341.71,T,341.55,M,3[2024/10/02, 13:03:29.790].86,N,7.15,K,A*2B
$PGRME,12.64,M,18.21,M,22.17,M*23
$PGRMZ,2,f,3[2024/10/02, 13:03:29.931]*19
$PGRMM,WGS 84*06
$HCHDM,,M*07
$WIMWV,,R,,,A*6D
$GPAPB,V,V,,[2024/10/02, 13:03:30.071],N,V,V,,,,,,,,N*68
$GPZDA,050327,02,10,2024,-08,00*69
[2024/10/02, 13:03:30.259]$GPRMC,050329,A,0114.4102,N,10339.0003,E,3.97,357.35,021[2024/10/02, 13:03:30.524]024,0.16,E,A*26
$GPRMB,A,,,,,,,,,,,,V,A*1C
$GPGGA,050329,0114.410[2024/10/02, 13:03:30.665]2,N,10339.0003,E,1,18,0.67,-0.58,M,9.60,M,,*60
$GPGSA,A,3,10,12,1[2024/10/02, 13:03:30.806]8,23,25,28,29,32,,,,,1.34,0.67,1.16*0E
$GPGSV,5,1,18,10,26,350,27,[2024/10/02, 13:03:30.946]12,20,077,18,18,58,175,22,23,46,034,21*7A
$GPGSV,5,2,18,25,44,114,[2024/10/02, 13:03:31.087]22,28,54,244,32,29,13,155,15,32,24,322,27*71
$GPGSV,5,3,18,,33,106[2024/10/02, 13:03:31.227],20,,45,146,23,,67,336,26,,53,034,23*73
$GPGSV,5,4,18,,48,010,19,,6[2024/10/02, 13:03:31.368]1,354,22,,69,175,22,,47,051,26*7E
$GPGSV,5,5,18,,28,276,30,,43,221[2024/10/02, 13:03:31.508],29*77
$GPGLL,0114.4102,N,10339.0003,E,050329,A,A*42
$GPBOD,,T,,[2024/10/02, 13:03:31.649]M,,*47
$GPBWC,050329,,,,,,T,,M,,N,,A*76
$GPVTG,357.35,T,357.19,M,[2024/10/02, 13:03:31.790]3.97,N,7.36,K,A*22
$PGRME,12.64,M,18.29,M,22.23,M*2C
$PGRMZ,-2,f[2024/10/02, 13:03:31.930],3*34
$PGRMM,WGS 84*06
$HCHDM,,M*07
$WIMWV,,R,,,A*6D
$GPAPB,V,V[2024/10/02, 13:03:32.071],,,N,V,V,,,,,,,,N*68
$GPZDA,050329,02,10,2024,-08,00*67
[2024/10/02, 13:03:32.258]$GPRMC,050331,A,0114.4127,N,10338.9996,E,4.15,355.72,021[2024/10/02, 13:03:32.524]024,0.16,E,A*29
$GPRMB,A,,,,,,,,,,,,V,A*1C
$GPGGA,050331,0114.41[2024/10/02, 13:03:32.665]27,N,10338.9996,E,1,18,0.67,-1.61,M,9.60,M,,*68
$GPGSA,A,3,10,12,1[2024/10/02, 13:03:32.805]8,23,25,28,29,32,,,,,1.34,0.67,1.16*0E
$GPGSV,5,1,18,10,26,350,27,[2024/10/02, 13:03:32.946]12,20,077,15,18,58,175,21,23,46,034,20*75
$GPGSV,5,2,18,25,44,114,[2024/10/02, 13:03:33.086]19,28,54,244,32,29,13,155,15,32,24,322,27*79
$GPGSV,5,3,18,,33,106[2024/10/02, 13:03:33.227],19,,45,146,22,,67,336,23,,53,034,23*7D
$GPGSV,5,4,18,,48,010,24,,[2024/10/02, 13:03:33.368]61,354,22,,69,175,22,,47,051,26*70
$GPGSV,5,5,18,,28,276,31,,43,22[2024/10/02, 13:03:33.508]1,30*7E
$GPGLL,0114.4127,N,10338.9996,E,050331,A,A*41
$GPBOD,,T,,[2024/10/02, 13:03:33.649]M,,*47
$GPBWC,050331,,,,,,T,,M,,N,,A*7F
$GPVTG,355.72,T,355.56,M,[2024/10/02, 13:03:33.789]4.15,N,7.68,K,A*2C
$PGRME,12.64,M,18.29,M,22.23,M*2C
$PGRMZ,-5,f[2024/10/02, 13:03:33.930],3*33
$PGRMM,WGS 84*06
$HCHDM,,M*07
$WIMWV,,R,,,A*6D
$GPAPB,V,[2024/10/02, 13:03:34.070]V,,,N,V,V,,,,,,,,N*68
$GPZDA,050331,02,10,2024,-08,00*6E
[2024/10/02, 13:03:34.258]$GPRMC,050333,A,0114.4149,N,10338.9990,E,4.22,355.09,02[2024/10/02, 13:03:34.523]1024,0.16,E,A*2D
$GPRMB,A,,,,,,,,,,,,V,A*1C
$GPGGA,050333,0114.41[2024/10/02, 13:03:34.664]49,N,10338.9990,E,1,18,0.67,-2.97,M,9.60,M,,*6E
$GPGSA,A,3,10,12,1[2024/10/02, 13:03:34.805]8,23,25,28,29,32,,,,,1.34,0.67,1.16*0E
$GPGSV,5,1,18,10,26,350,26,[2024/10/02, 13:03:34.945]12,20,077,14,18,58,175,24,23,46,034,24*74
$GPGSV,5,2,18,25,44,114,[2024/10/02, 13:03:35.086]19,28,54,244,32,29,13,155,14,32,24,322,27*78
$GPGSV,5,3,18,,33,106[2024/10/02, 13:03:35.226],19,,45,146,22,,67,336,26,,53,034,23*78
$GPGSV,5,4,18,,48,010,25,,[2024/10/02, 13:03:35.367]61,354,25,,69,175,23,,47,051,29*78
$GPGSV,5,5,18,,28,276,31,,43,22[2024/10/02, 13:03:35.508]1,29*76
$GPGLL,0114.4149,N,10338.9990,E,050333,A,A*4D
$GPBOD,,T,,[2024/10/02, 13:03:35.648]M,,*47
$GPBWC,050333,,,,,,T,,M,,N,,A*7D
$GPVTG,355.09,T,354.93,M[2024/10/02, 13:03:35.789],4.22,N,7.81,K,A*2B
$PGRME,12.64,M,18.54,M,22.44,M*27
$PGRMZ,-10,[2024/10/02, 13:03:35.929]f,3*07
$PGRMM,WGS 84*06
$HCHDM,,M*07
$WIMWV,,R,,,A*6D
$GPAPB,V[2024/10/02, 13:03:36.070],V,,,N,V,V,,,,,,,,N*68
$GPZDA,050333,02,10,2024,-08,00*6C
[2024/10/02, 13:03:36.257]$GPRMC,050335,A,0114.4172,N,10338.9987,E,4.33,358.00,02[2024/10/02, 13:03:36.523]1024,0.16,E,A*21
$GPRMB,A,,,,,,,,,,,,V,A*1C
$GPGGA,050335,0114.41[2024/10/02, 13:03:36.664]72,N,10338.9987,E,1,18,0.67,-4.54,M,9.60,M,,*6F
$GPGSA,A,3,10,12,1[2024/10/02, 13:03:36.804]8,23,25,28,29,32,,,,,1.34,0.67,1.16*0E
$GPGSV,5,1,18,10,26,350,26,[2024/10/02, 13:03:36.945]12,20,077,14,18,58,175,23,23,46,034,22*75
$GPGSV,5,2,18,25,44,114,[2024/10/02, 13:03:37.085]19,28,54,244,32,29,13,155,13,32,24,322,27*7F
$GPGSV,5,3,18,,33,106[2024/10/02, 13:03:37.226],18,,45,146,21,,67,336,26,,53,034,22*7B
$GPGSV,5,4,18,,48,010,25,,[2024/10/02, 13:03:37.366]61,354,24,,69,175,23,,47,051,26*76
$GPGSV,5,5,18,,28,276,32,,43,22[2024/10/02, 13:03:37.507]1,29*75
$GPGLL,0114.4172,N,10338.9987,E,050335,A,A*45
$GPBOD,,T,,[2024/10/02, 13:03:37.648]M,,*47
$GPBWC,050335,,,,,,T,,M,,N,,A*7B
$GPVTG,358.00,T,357.84,M[2024/10/02, 13:03:37.788],4.33,N,8.03,K,A*2F
$PGRME,12.64,M,18.77,M,22.63,M*23
$PGRMZ,-15,[2024/10/02, 13:03:37.929]f,3*02
$PGRMM,WGS 84*06
$HCHDM,,M*07
$WIMWV,,R,,,A*6D
$GPAPB,V[2024/10/02, 13:03:38.070],V,,,N,V,V,,,,,,,,N*68
$GPZDA,050335,02,10,2024,-08,00*6A
[2024/10/02, 13:03:38.257]$GPRMC,050337,A,0114.4195,N,10338.9978,E,4.31,343.49,02[2024/10/02, 13:03:38.522]1024,0.16,E,A*2F
$GPRMB,A,,,,,,,,,,,,V,A*1C
$GPGGA,050337,0114.41[2024/10/02, 13:03:38.663]95,N,10338.9978,E,1,18,0.67,-6.11,M,9.60,M,,*67
$GPGSA,A,3,10,12,1[2024/10/02, 13:03:38.804]8,23,25,28,29,32,,,,,1.34,0.67,1.16*0E
$GPGSV,5,1,18,10,26,350,26,[2024/10/02, 13:03:38.944]12,20,077,15,18,58,175,23,23,46,034,22*74
$GPGSV,5,2,18,25,44,114,[2024/10/02, 13:03:39.085]21,28,54,244,32,29,13,155,13,32,24,322,25*76
$GPGSV,5,3,18,,33,106[2024/10/02, 13:03:39.226],19,,45,146,21,,67,336,24,,53,034,23*79
$GPGSV,5,4,18,,48,010,25,,[2024/10/02, 13:03:39.366]61,354,25,,69,175,23,,47,051,27*76
$GPGSV,5,5,18,,28,276,32,,43,22[2024/10/02, 13:03:39.507]1,29*75
$GPGLL,0114.4195,N,10338.9978,E,050337,A,A*4E
$GPBOD,,T,[2024/10/02, 13:03:39.647],M,,*47
$GPBWC,050337,,,,,,T,,M,,N,,A*79
$GPVTG,343.49,T,343.33,M[2024/10/02, 13:03:39.788],4.31,N,7.98,K,A*2E
$PGRME,12.65,M,18.98,M,22.80,M*2E
$PGRMZ,-20[2024/10/02, 13:03:39.928],f,3*04
$PGRMM,WGS 84*06
$HCHDM,,M*07
$WIMWV,,R,,,A*6D
$GPAPB,V[2024/10/02, 13:03:40.069],V,,,N,V,V,,,,,,,,N*68
$GPZDA,050337,02,10,2024,-08,00*68
[2024/10/02, 13:03:40.257]$GPRMC,050339,A,0114.4215,N,10338.9975,E,4.11,344.74,02[2024/10/02, 13:03:40.522]1024,0.16,E,A*2C
$GPRMB,A,,,,,,,,,,,,V,A*1C
$GPGGA,050339,0114.4[2024/10/02, 13:03:40.663]215,N,10338.9975,E,1,18,0.67,-7.91,M,9.60,M,,*66
$GPGSA,A,3,10,12,[2024/10/02, 13:03:40.803]18,23,25,28,29,32,,,,,1.34,0.67,1.16*0E
$GPGSV,5,1,18,10,26,350,26[2024/10/02, 13:03:40.944],12,20,077,15,18,58,175,22,23,46,034,22*75
$GPGSV,5,2,18,25,44,114[2024/10/02, 13:03:41.084],19,28,54,244,32,29,13,155,13,32,24,322,27*7F
$GPGSV,5,3,18,,33,10[2024/10/02, 13:03:41.225]6,19,,45,146,23,,67,336,23,,53,034,22*7D
$GPGSV,5,4,18,,48,010,24,[2024/10/02, 13:03:41.366],61,354,23,,69,175,23,,47,051,27*71
$GPGSV,5,5,18,,28,276,32,,43,22[2024/10/02, 13:03:41.506]1,29*75
$GPGLL,0114.4215,N,10338.9975,E,050339,A,A*46
$GPBOD,,T,[2024/10/02, 13:03:41.647],M,,*47
$GPBWC,050339,,,,,,T,,M,,N,,A*77
$GPVTG,344.74,T,344.58,M[2024/10/02, 13:03:41.787],4.11,N,7.61,K,A*29
$PGRME,12.65,M,19.10,M,22.91,M*2F
$PGRMZ,-26[2024/10/02, 13:03:41.928],f,3*02
$PGRMM,WGS 84*06
$HCHDM,,M*07
$WIMWV,,R,,,A*6D
$GPAPB,V[2024/10/02, 13:03:42.069],V,,,N,V,V,,,,,,,,N*68
$GPZDA,050339,02,10,2024,-08,00*66
[2024/10/02, 13:03:42.256]$GPRMC,050341,A,0114.4237,N,10338.9973,E,4.09,357.68,02[2024/10/02, 13:03:42.522]1024,0.16,E,A*23
$GPRMB,A,,,,,,,,,,,,V,A*1C
$GPGGA,050341,0114.4[2024/10/02, 13:03:42.662]237,N,10338.9973,E,1,18,0.67,-9.89,M,9.60,M,,*68
$GPGSA,A,3,10,12,[2024/10/02, 13:03:42.803]18,23,25,28,29,32,,,,,1.34,0.67,1.16*0E
$GPGSV,5,1,18,10,26,350,26[2024/10/02, 13:03:42.943],12,20,077,14,18,58,175,24,23,46,034,20*70
$GPGSV,5,2,18,25,44,114[2024/10/02, 13:03:43.084],19,28,54,244,32,29,13,155,13,32,24,322,28*70
$GPGSV,5,3,18,,33,10[2024/10/02, 13:03:43.225]6,19,,45,146,24,,67,336,26,,53,034,23*7E
$GPGSV,5,4,18,,48,010,19,[2024/10/02, 13:03:43.365],61,354,23,,69,175,23,,47,051,25*7D
$GPGSV,5,5,18,,28,276,31,,43,2[2024/10/02, 13:03:43.506]21,29*76
$GPGLL,0114.4237,N,10338.9973,E,050341,A,A*4F
$GPBOD,,T,[2024/10/02, 13:03:43.646],M,,*47
$GPBWC,050341,,,,,,T,,M,,N,,A*78
$GPVTG,357.68,T,357.52,M[2024/10/02, 13:03:43.787],4.09,N,7.57,K,A*22
$PGRME,12.65,M,19.25,M,23.04,M*24
$PGRMZ,-32[2024/10/02, 13:03:43.927],f,3*07
$PGRMM,WGS 84*06
$HCHDM,,M*07
$WIMWV,,R,,,A*6D
$GPAPB,[2024/10/02, 13:03:44.068]V,V,,,N,V,V,,,,,,,,N*68
$GPZDA,050341,02,10,2024,-08,00*69
[2024/10/02, 13:03:44.256]$GPRMC,050343,A,0114.4261,N,10338.9967,E,4.12,355.65,0[2024/10/02, 13:03:44.521]21024,0.16,E,A*22
$GPRMB,A,,,,,,,,,,,,V,A*1C
$GPGGA,050343,0114.4[2024/10/02, 13:03:44.662]261,N,10338.9967,E,1,18,0.67,-11.72,M,9.60,M,,*51
$GPGSA,A,3,10,1[2024/10/02, 13:03:44.802]2,18,23,25,28,29,32,,,,,1.34,0.67,1.16*0E
$GPGSV,5,1,18,10,26,350,[2024/10/02, 13:03:44.943]26,12,20,077,14,18,58,175,24,23,46,034,20*70
$GPGSV,5,2,18,25,44,1[2024/10/02, 13:03:45.084]14,20,28,54,244,32,29,13,155,14,32,24,322,26*73
$GPGSV,5,3,18,,33,[2024/10/02, 13:03:45.224]106,20,,45,146,23,,67,336,25,,53,034,23*70
$GPGSV,5,4,18,,48,010,2[2024/10/02, 13:03:45.365]2,,61,354,25,,69,175,23,,47,051,26*70
$GPGSV,5,5,18,,28,276,31,,43[2024/10/02, 13:03:45.505],221,29*76
$GPGLL,0114.4261,N,10338.9967,E,050343,A,A*4B
$GPBOD,,[2024/10/02, 13:03:45.646]T,,M,,*47
$GPBWC,050343,,,,,,T,,M,,N,,A*7A
$GPVTG,355.65,T,355.4[2024/10/02, 13:03:45.786]9,M,4.12,N,7.64,K,A*2F
$PGRME,12.66,M,19.38,M,23.15,M*2B
$PGRMZ,-[2024/10/02, 13:03:45.927]38,f,3*0D
$PGRMM,WGS 84*06
$HCHDM,,M*07
$WIMWV,,R,,,A*6D
$GPAP[2024/10/02, 13:03:46.068]B,V,V,,,N,V,V,,,,,,,,N*68
$GPZDA,050343,02,10,2024,-08,00*6B
[2024/10/02, 13:03:46.255]$GPRMC,050345,A,0114.4285,N,10338.9963,E,4.13,355.12,0[2024/10/02, 13:03:46.521]21024,0.16,E,D*2E
$GPRMB,A,,,,,,,,,,,,V,D*19
$GPGGA,050345,0114.4[2024/10/02, 13:03:46.661]285,N,10338.9963,E,2,18,0.67,-12.92,M,9.60,M,,*57
$GPGSA,A,3,10,1[2024/10/02, 13:03:46.802]2,18,23,25,28,29,32,,,,,1.34,0.67,1.16*0E
$GPGSV,5,1,19,10,26,350,[2024/10/02, 13:03:46.942]27,12,20,077,15,18,57,175,24,23,46,034,23*7D
$GPGSV,5,2,19,25,44,1[2024/10/02, 13:03:47.083]14,19,28,54,244,32,29,13,155,15,32,24,322,27*78
$GPGSV,5,3,19,45,0[2024/10/02, 13:03:47.224]0,000,28,,33,106,20,,45,146,23,,67,336,25*7A
$GPGSV,5,4,19,,53,034[2024/10/02, 13:03:47.364],22,,48,010,25,,61,354,24,,69,175,23*75
$GPGSV,5,5,19,,47,051,26,,2[2024/10/02, 13:03:47.505]8,276,31,,43,221,29*44
$GPGLL,0114.4285,N,10338.9963,E,050345,A,D[2024/10/02, 13:03:47.645]*46
$GPBOD,,T,,M,,*47
$GPBWC,050345,,,,,,T,,M,,N,,D*79
$GPVTG,35[2024/10/02, 13:03:47.786]5.12,T,354.96,M,4.13,N,7.65,K,D*29
$PGRME,12.66,M,19.35,M,23.13,M*[2024/10/02, 13:03:47.927]20
$PGRMZ,-42,f,3*00
$PGRMM,WGS 84*06
$HCHDM,,M*07
$WIMWV,,R,,[2024/10/02, 13:03:48.067],A*6D
$GPAPB,V,V,,,N,V,V,,,,,,,,N*68
$GPZDA,050345,02,10,2024,-0[2024/10/02, 13:03:48.177]8,00*6D
[2024/10/02, 13:03:48.255]$GPRMC,050347,A,0114.4310,N,10338.9957,E,4.28,349.45,0[2024/10/02, 13:03:48.520]21024,0.16,E,D*21
$GPRMB,A,,,,,,,,,,,,V,D*19
$GPGGA,050347,0114.4[2024/10/02, 13:03:48.661]310,N,10338.9957,E,2,18,0.67,-13.93,M,9.60,M,,*5F
$GPGSA,A,3,10,1[2024/10/02, 13:03:48.801]2,18,23,25,28,29,32,,,,,1.34,0.67,1.16*0E
$GPGSV,5,1,19,10,26,350,[2024/10/02, 13:03:48.942]28,12,20,077,14,18,57,175,23,23,46,034,24*73
$GPGSV,5,2,19,25,44,1[2024/10/02, 13:03:49.082]14,19,28,54,244,32,29,13,155,15,32,24,322,25*7A
$GPGSV,5,3,19,45,0[2024/10/02, 13:03:49.223]0,000,28,,33,106,20,,45,146,23,,67,336,25*7A
$GPGSV,5,4,19,,53,034[2024/10/02, 13:03:49.364],23,,48,010,25,,61,354,24,,69,175,24*73
$GPGSV,5,5,19,,47,051,26,,[2024/10/02, 13:03:49.504]28,276,32,,43,221,29*47
$GPGLL,0114.4310,N,10338.9957,E,050347,A,D[2024/10/02, 13:03:49.645]*4E
$GPBOD,,T,,M,,*47
$GPBWC,050347,,,,,,T,,M,,N,,D*7B
$GPVTG,34[2024/10/02, 13:03:49.785]9.45,T,349.29,M,4.28,N,7.93,K,D*2F
$PGRME,12.66,M,19.53,M,23.28,M[2024/10/02, 13:03:49.926]*28
$PGRMZ,-46,f,3*04
$PGRMM,WGS 84*06
$HCHDM,,M*07
$WIMWV,,R,,[2024/10/02, 13:03:50.067],A*6D
$GPAPB,V,V,,,N,V,V,,,,,,,,N*68
$GPZDA,050347,02,10,2024,-0[2024/10/02, 13:03:50.176]8,00*6F
[2024/10/02, 13:03:50.254]$GPRMC,050349,A,0114.4336,N,10338.9955,E,4.39,357.79,0[2024/10/02, 13:03:50.520]21024,0.16,E,D*29
$GPRMB,A,,,,,,,,,,,,V,D*19
$GPGGA,050349,0114.[2024/10/02, 13:03:50.660]4336,N,10338.9955,E,2,18,0.67,-14.83,M,9.60,M,,*51
$GPGSA,A,3,10,1[2024/10/02, 13:03:50.801]2,18,23,25,28,29,32,,,,,1.34,0.67,1.16*0E
$GPGSV,5,1,19,10,26,350,[2024/10/02, 13:03:50.941]28,12,20,077,17,18,57,175,23,23,47,034,24*71
$GPGSV,5,2,19,25,44,1[2024/10/02, 13:03:51.082]14,20,28,54,244,32,29,13,155,13,32,24,322,23*70
$GPGSV,5,3,19,45,0[2024/10/02, 13:03:51.223]0,000,28,,33,106,20,,45,146,21,,67,336,26*7B
$GPGSV,5,4,19,,53,034[2024/10/02, 13:03:51.363],21,,48,010,25,,61,354,24,,69,175,23*76
$GPGSV,5,5,19,,47,051,26,,[2024/10/02, 13:03:51.504]28,276,32,,43,221,29*47
$GPGLL,0114.4336,N,10338.9955,E,050349,A,D[2024/10/02, 13:03:51.644]*46
$GPBOD,,T,,M,,*47
$GPBWC,050349,,,,,,T,,M,,N,,D*75
$GPVTG,3[2024/10/02, 13:03:51.785]57.79,T,357.63,M,4.39,N,8.12,K,D*28
$PGRME,12.67,M,19.68,M,23.40,M[2024/10/02, 13:03:51.926]*2F
$PGRMZ,-49,f,3*0B
$PGRMM,WGS 84*06
$HCHDM,,M*07
$WIMWV,,R,[2024/10/02, 13:03:52.066],,A*6D
$GPAPB,V,V,,,N,V,V,,,,,,,,N*68
$GPZDA,050349,02,10,2024,-0[2024/10/02, 13:03:52.176]8,00*61
[2024/10/02, 13:03:52.254]$GPRMC,050351,A,0114.4359,N,10338.9953,E,4.39,358.64,[2024/10/02, 13:03:52.519]021024,0.16,E,D*2C
$GPRMB,A,,,,,,,,,,,,V,D*19
$GPGGA,050351,0114.[2024/10/02, 13:03:52.660]4359,N,10338.9953,E,2,18,0.67,-15.63,M,9.60,M,,*58
$GPGSA,A,3,10,1[2024/10/02, 13:03:52.800]2,18,23,25,28,29,32,,,,,1.34,0.67,1.16*0E
$GPGSV,5,1,19,10,26,350,[2024/10/02, 13:03:52.941]27,12,20,077,13,18,57,175,20,23,47,034,24*79
$GPGSV,5,2,19,25,44,1[2024/10/02, 13:03:53.082]13,20,28,54,244,32,29,13,155,22,32,24,322,26*70
$GPGSV,5,3,19,45,0[2024/10/02, 13:03:53.222]0,000,28,,33,106,20,,45,146,20,,67,336,26*7A
$GPGSV,5,4,19,,53,034[2024/10/02, 13:03:53.363],23,,48,010,24,,61,354,25,,69,175,21*76
$GPGSV,5,5,19,,47,051,27,,[2024/10/02, 13:03:53.503]28,276,32,,43,221,30*4E
$GPGLL,0114.4359,N,10338.9953,E,050351,A,D[2024/10/02, 13:03:53.644]*40
$GPBOD,,T,,M,,*47
$GPBWC,050351,,,,,,T,,M,,N,,D*7C
$GPVTG,3[2024/10/02, 13:03:53.785]58.64,T,358.48,M,4.39,N,8.13,K,D*2C
$PGRME,12.67,M,19.72,M,23.44,M[2024/10/02, 13:03:53.925]*20
$PGRMZ,-51,f,3*02
$PGRMM,WGS 84*06
$HCHDM,,M*07
$WIMWV,,R,[2024/10/02, 13:03:54.066],,A*6D
$GPAPB,V,V,,,N,V,V,,,,,,,,N*68
$GPZDA,050351,02,10,2024,-0[2024/10/02, 13:03:54.175]8,00*68
[2024/10/02, 13:03:54.253]$GPRMC,050353,A,0114.4383,N,10338.9952,E,4.36,2.73,02[2024/10/02, 13:03:54.519]1024,0.16,E,D*2D
$GPRMB,A,,,,,,,,,,,,V,D*19
$GPGGA,050353,0114.43[2024/10/02, 13:03:54.659]83,N,10338.9952,E,2,18,0.67,-16.58,M,9.60,M,,*57
$GPGSA,A,3,10,12[2024/10/02, 13:03:54.800],18,23,25,28,29,32,,,,,1.34,0.67,1.16*0E
$GPGSV,5,1,19,10,26,350,2[2024/10/02, 13:03:54.940]7,12,20,077,18,18,57,175,22,23,47,034,24*70
$GPGSV,5,2,19,25,44,11[2024/10/02, 13:03:55.081]3,19,28,54,244,32,29,13,155,19,32,24,322,26*72
$GPGSV,5,3,19,45,00[2024/10/02, 13:03:55.222],000,28,,33,106,16,,45,146,22,,67,336,24*7F
$GPGSV,5,4,19,,53,034,1