[2024/10/02, 12:54:17.939]A*6D
$GPAPB,V,V,,,N,V,V,,,,,,,,N*68
$GPZDA,045415,02,10,2024,-08[2024/10/02, 12:54:18.033],00*6B
[2024/10/02, 12:54:18.268]$GPRMC,045417,A,0114.3067,N,10338.9127,E,1.73,323.73,021[2024/10/02, 12:54:18.533]024,0.16,E,A*2B
$GPRMB,A,,,,,,,,,,,,V,A*1C
$GPGGA,045417,0114.306[2024/10/02, 12:54:18.674]7,N,10338.9127,E,1,15,0.73,-0.20,M,9.60,M,,*63
$GPGSA,A,3,10,12,1[2024/10/02, 12:54:18.814]8,23,25,28,29,32,,,,,1.41,0.73,1.20*0C
$GPGSV,4,1,15,10,23,347,20,[2024/10/02, 12:54:18.955]12,21,082,18,18,62,176,21,23,44,029,23*7C
$GPGSV,4,2,15,25,43,120,[2024/10/02, 12:54:19.095]21,28,52,238,28,29,14,159,17,32,24,317,26*76
$GPGSV,4,3,15,,32,108,[2024/10/02, 12:54:19.236]18,,46,145,19,,70,336,23,,63,356,25*73
$GPGSV,4,4,15,,65,177,23,,2[2024/10/02, 12:54:19.377]7,280,26,,45,226,33*42
$GPGLL,0114.3067,N,10338.9127,E,045417,A,A[2024/10/02, 12:54:19.517]*46
$GPBOD,,T,,M,,*47
$GPBWC,045417,,,,,,T,,M,,N,,A*78
$GPVTG,32[2024/10/02, 12:54:19.658]3.73,T,323.57,M,1.73,N,3.21,K,A*20
$PGRME,15.73,M,17.88,M,23.82,M*[2024/10/02, 12:54:19.798]23
$PGRMZ,-1,f,3*37
$PGRMM,WGS 84*06
$HCHDM,,M*07
$WIMWV,,R,,,[2024/10/02, 12:54:19.939]A*6D
$GPAPB,V,V,,,N,V,V,,,,,,,,N*68
$GPZDA,045417,02,10,2024,-08[2024/10/02, 12:54:20.033],00*69
[2024/10/02, 12:54:20.267]$GPRMC,045419,A,0114.3070,N,10338.9138,E,1.63,46.54,0210[2024/10/02, 12:54:20.533]24,0.16,E,A*19
$GPRMB,A,,,,,,,,,,,,V,A*1C
$GPGGA,045419,0114.307[2024/10/02, 12:54:20.673]0,N,10338.9138,E,1,15,0.73,-0.30,M,9.60,M,,*64
$GPGSA,A,3,10,12,18[2024/10/02, 12:54:20.814],23,25,28,29,32,,,,,1.41,0.73,1.20*0C
$GPGSV,4,1,15,10,23,347,22,1[2024/10/02, 12:54:20.954]2,21,082,18,18,62,176,25,23,44,029,26*7F
$GPGSV,4,2,15,25,43,120,2[2024/10/02, 12:54:21.095]0,28,52,238,29,29,14,159,19,32,24,317,26*78
$GPGSV,4,3,15,,32,108,[2024/10/02, 12:54:21.236]18,,46,145,22,,70,336,23,,63,356,26*78
$GPGSV,4,4,15,,65,177,23,,2[2024/10/02, 12:54:21.380]7,280,24,,45,226,31*42
$GPGLL,0114.3070,N,10338.9138,E,045419,A,A*40[2024/10/02, 12:54:21.521]
$GPBOD,,T,,M,,*47
$GPBWC,045419,,,,,,T,,M,,N,,A*76
$GPVTG,46.5[2024/10/02, 12:54:21.661]4,T,46.38,M,1.63,N,3.02,K,A*2C
$PGRME,15.66,M,18.03,M,23.88,M*21
[2024/10/02, 12:54:21.802]$PGRMZ,-1,f,3*37
$PGRMM,WGS 84*06
$HCHDM,,M*07
$WIMWV,,R,,,A*6D[2024/10/02, 12:54:21.943]
$GPAPB,V,V,,,N,V,V,,,,,,,,N*68
$GPZDA,045419,02,10,2024,-08,00*[2024/10/02, 12:54:22.036]67
[2024/10/02, 12:54:22.271]$GPRMC,045421,A,0114.3075,N,10338.9140,E,1.34,25.19,02102[2024/10/02, 12:54:22.536]4,0.16,E,A*16
$GPRMB,A,,,,,,,,,,,,V,A*1C
$GPGGA,045421,0114.3075,[2024/10/02, 12:54:22.677]N,10338.9140,E,1,15,0.73,-0.43,M,9.60,M,,*61
$GPGSA,A,3,10,12,18,2[2024/10/02, 12:54:22.817]3,25,28,29,32,,,,,1.41,0.73,1.20*0C
$GPGSV,4,1,15,10,23,347,22,12[2024/10/02, 12:54:22.958],21,082,17,18,62,176,23,23,44,029,26*76
$GPGSV,4,2,15,25,43,120,19[2024/10/02, 12:54:23.099],28,52,238,31,29,14,159,16,32,24,317,25*77
$GPGSV,4,3,15,,32,108,17[2024/10/02, 12:54:23.239],,46,145,17,,70,336,25,,63,356,26*77
$GPGSV,4,4,15,,65,177,23,,27,[2024/10/02, 12:54:23.380]280,27,,45,226,30*40
$GPGLL,0114.3075,N,10338.9140,E,045421,A,A*4[2024/10/02, 12:54:23.520]1
$GPBOD,,T,,M,,*47
$GPBWC,045421,,,,,,T,,M,,N,,A*7D
$GPVTG,25.1[2024/10/02, 12:54:23.661]9,T,25.03,M,1.34,N,2.48,K,A*20
$PGRME,15.66,M,18.55,M,24.28,M*2F[2024/10/02, 12:54:23.802]
$PGRMZ,-1,f,3*37
$PGRMM,WGS 84*06
$HCHDM,,M*07
$WIMWV,,R,,,A*6[2024/10/02, 12:54:23.942]D
$GPAPB,V,V,,,N,V,V,,,,,,,,N*68
$GPZDA,045421,02,10,2024,-08,00*[2024/10/02, 12:54:24.036]6C
[2024/10/02, 12:54:24.270]$GPRMC,045423,A,0114.3086,N,10338.9138,E,1.52,10.67,02102[2024/10/02, 12:54:24.536]4,0.16,E,A*18
$GPRMB,A,,,,,,,,,,,,V,A*1C
$GPGGA,045423,0114.3086,[2024/10/02, 12:54:24.676]N,10338.9138,E,1,15,0.73,0.37,M,9.60,M,,*4E
$GPGSA,A,3,10,12,18,23[2024/10/02, 12:54:24.817],25,28,29,32,,,,,1.41,0.73,1.20*0C
$GPGSV,4,1,15,10,23,347,21,12,2[2024/10/02, 12:54:24.958]1,082,14,18,62,176,20,23,44,029,26*75
$GPGSV,4,2,15,25,43,120,21,2[2024/10/02, 12:54:25.098]8,52,238,31,29,14,159,14,32,24,317,26*7D
$GPGSV,4,3,15,,32,108,17,[2024/10/02, 12:54:25.239],46,145,21,,70,336,25,,63,356,23*77
$GPGSV,4,4,15,,65,177,20,,27,2[2024/10/02, 12:54:25.379]80,24,,45,226,31*41
$GPGLL,0114.3086,N,10338.9138,E,045423,A,A*40[2024/10/02, 12:54:25.520]
$GPBOD,,T,,M,,*47
$GPBWC,045423,,,,,,T,,M,,N,,A*7F
$GPVTG,10.67[2024/10/02, 12:54:25.660],T,10.51,M,1.52,N,2.81,K,A*2B
$PGRME,15.67,M,18.59,M,24.31,M*2A
[2024/10/02, 12:54:25.801]$PGRMZ,1,f,3*1A
$PGRMM,WGS 84*06
$HCHDM,,M*07
$WIMWV,,R,,,A*6D
[2024/10/02, 12:54:25.942]$GPAPB,V,V,,,N,V,V,,,,,,,,N*68
$GPZDA,045423,02,10,2024,-08,00*6E[2024/10/02, 12:54:26.035]
[2024/10/02, 12:54:26.270]$GPRMC,045425,A,0114.3092,N,10338.9125,E,1.52,316.43,0210[2024/10/02, 12:54:26.535]24,0.16,E,A*24
$GPRMB,A,,,,,,,,,,,,V,A*1C
$GPGGA,045425,0114.3092[2024/10/02, 12:54:26.676],N,10338.9125,E,1,15,0.73,1.36,M,9.60,M,,*41
$GPGSA,A,3,10,12,18,2[2024/10/02, 12:54:26.816]3,25,28,29,32,,,,,1.41,0.73,1.20*0C
$GPGSV,4,1,15,10,23,347,19,12[2024/10/02, 12:54:26.957],21,082,15,18,62,176,21,23,44,029,23*7B
$GPGSV,4,2,15,25,43,120,17[2024/10/02, 12:54:27.098],28,52,238,30,29,14,159,13,32,24,317,26*7E
$GPGSV,4,3,15,,32,108,17[2024/10/02, 12:54:27.238],,46,145,21,,70,336,25,,63,356,23*77
$GPGSV,4,4,15,,65,177,21,,27,[2024/10/02, 12:54:27.379]280,24,,45,226,30*41
$GPGLL,0114.3092,N,10338.9125,E,045425,A,A*4[2024/10/02, 12:54:27.519]F
$GPBOD,,T,,M,,*47
$GPBWC,045425,,,,,,T,,M,,N,,A*79
$GPVTG,316.[2024/10/02, 12:54:27.660]43,T,316.27,M,1.52,N,2.82,K,A*2F
$PGRME,15.68,M,18.86,M,24.53,M*23[2024/10/02, 12:54:27.801]
$PGRMZ,4,f,3*1F
$PGRMM,WGS 84*06
$HCHDM,,M*07
$WIMWV,,R,,,A*6[2024/10/02, 12:54:27.941]D
$GPAPB,V,V,,,N,V,V,,,,,,,,N*68
$GPZDA,045425,02,10,2024,-08,00[2024/10/02, 12:54:28.035]*68
[2024/10/02, 12:54:28.269]$GPRMC,045427,A,0114.3101,N,10338.9125,E,1.30,318.95,0210[2024/10/02, 12:54:28.535]24,0.16,E,A*2C
$GPRMB,A,,,,,,,,,,,,V,A*1C
$GPGGA,045427,0114.310[2024/10/02, 12:54:28.675]1,N,10338.9125,E,1,15,0.73,1.55,M,9.60,M,,*4D
$GPGSA,A,3,10,12,18,[2024/10/02, 12:54:28.816]23,25,28,29,32,,,,,1.41,0.73,1.20*0C
$GPGSV,4,1,15,10,23,347,23,12[2024/10/02, 12:54:28.957],21,082,19,18,62,176,22,23,44,029,20*7E
$GPGSV,4,2,15,25,43,120,15[2024/10/02, 12:54:29.097],28,52,238,30,29,14,159,13,32,24,317,25*7F
$GPGSV,4,3,15,,32,108,1[2024/10/02, 12:54:29.238]4,,46,145,21,,70,336,25,,63,356,22*75
$GPGSV,4,4,15,,65,177,24,,27[2024/10/02, 12:54:29.378],280,27,,45,226,29*4F
$GPGLL,0114.3101,N,10338.9125,E,045427,A,A*4[2024/10/02, 12:54:29.519]6
$GPBOD,,T,,M,,*47
$GPBWC,045427,,,,,,T,,M,,N,,A*7B
$GPVTG,318.[2024/10/02, 12:54:29.660]95,T,318.79,M,1.30,N,2.41,K,A*24
$PGRME,15.69,M,19.16,M,24.77,M*2[2024/10/02, 12:54:29.800]C
$PGRMZ,5,f,3*1E
$PGRMM,WGS 84*06
$HCHDM,,M*07
$WIMWV,,R,,,A*[2024/10/02, 12:54:29.941]6D
$GPAPB,V,V,,,N,V,V,,,,,,,,N*68
$GPZDA,045427,02,10,2024,-08,00[2024/10/02, 12:54:30.034]*6A
[2024/10/02, 12:54:30.269]$GPRMC,045429,A,0114.3110,N,10338.9118,E,1.27,313.7[2024/10/02, 12:54:30.523]4,021024,0.16,E,A*2E
$GPRMB,A,,,,,,,,,,,,V,A*1C
$GPGGA,045429,011[2024/10/02, 12:54:30.664]4.3110,N,10338.9118,E,1,15,0.73,2.11,M,9.60,M,,*4E
$GPGSA,A,3,10,1[2024/10/02, 12:54:30.804]2,18,23,25,28,29,32,,,,,1.41,0.73,1.20*0C
$GPGSV,4,1,15,10,23,347,[2024/10/02, 12:54:30.945]22,12,21,082,19,18,62,176,22,23,44,029,21*7E
$GPGSV,4,2,15,25,43,1[2024/10/02, 12:54:31.086]20,15,28,52,238,31,29,14,159,13,32,24,317,28*73
$GPGSV,4,3,15,,32,[2024/10/02, 12:54:31.226]108,15,,46,145,23,,70,336,25,,63,356,26*72
$GPGSV,4,4,15,,65,177,2[2024/10/02, 12:54:31.367]1,,27,280,27,,45,226,27*44
$GPGLL,0114.3110,N,10338.9118,E,045429,[2024/10/02, 12:54:31.507]A,A*46
$GPBOD,,T,,M,,*47
$GPBWC,045429,,,,,,T,,M,,N,,A*75
$GPVT[2024/10/02, 12:54:31.648]G,313.74,T,313.58,M,1.27,N,2.35,K,A*2D
$PGRME,15.71,M,19.31,M,24.8[2024/10/02, 12:54:31.788]9,M*21
$PGRMZ,7,f,3*1C
$PGRMM,WGS 84*06
$HCHDM,,M*07
$WIMWV,,R[2024/10/02, 12:54:31.929],,,A*6D
$GPAPB,V,V,,,N,V,V,,,,,,,,N*68
$GPZDA,045429,02,10,2024,[2024/10/02, 12:54:32.038]-08,00*64
[2024/10/02, 12:54:32.273]$GPRMC,045431,A,0114.3118,N,10338.9115,E,1.20,316.75,02102[2024/10/02, 12:54:32.538]4,0.16,E,A*21
$GPRMB,A,,,,,,,,,,,,V,A*1C
$GPGGA,045431,0114.3118,[2024/10/02, 12:54:32.679]N,10338.9115,E,1,15,0.73,3.45,M,9.60,M,,*42
$GPGSA,A,3,10,12,18,23[2024/10/02, 12:54:32.819],25,28,29,32,,,,,1.41,0.73,1.20*0C
$GPGSV,4,1,15,10,23,347,24,12,2[2024/10/02, 12:54:32.960]1,082,16,18,62,176,23,23,44,029,22*75
$GPGSV,4,2,15,25,43,120,17,2[2024/10/02, 12:54:33.101]8,52,238,30,29,14,159,16,32,24,317,25*78
$GPGSV,4,3,15,,32,108,16,[2024/10/02, 12:54:33.241],46,145,19,,70,336,25,,63,356,23*7D
$GPGSV,4,4,15,,65,177,20,,27,2[2024/10/02, 12:54:33.382]80,29,,45,226,27*4B
$GPGLL,0114.3118,N,10338.9115,E,045431,A,A*4A[2024/10/02, 12:54:33.522]
$GPBOD,,T,,M,,*47
$GPBWC,045431,,,,,,T,,M,,N,,A*7C
$GPVTG,316.7[2024/10/02, 12:54:33.663]5,T,316.58,M,1.20,N,2.23,K,A*2C
$PGRME,15.72,M,18.87,M,24.56,M*2C[2024/10/02, 12:54:33.804]
$PGRMZ,11,f,3*2B
$PGRMM,WGS 84*06
$HCHDM,,M*07
$WIMWV,,R,,,A*6[2024/10/02, 12:54:33.944]D
$GPAPB,V,V,,,N,V,V,,,,,,,,N*68
$GPZDA,045431,02,10,2024,-08,00*[2024/10/02, 12:54:34.038]6D
[2024/10/02, 12:54:34.272]$GPRMC,045433,A,0114.3127,N,10338.9116,E,1.16,12.23,021024[2024/10/02, 12:54:34.538],0.16,E,A*1D
$GPRMB,A,,,,,,,,,,,,V,A*1C
$GPGGA,045433,0114.3127,N[2024/10/02, 12:54:34.678],10338.9116,E,1,15,0.73,4.24,M,9.60,M,,*4F
$GPGSA,A,3,10,12,18,23,[2024/10/02, 12:54:34.819]25,28,29,32,,,,,1.41,0.73,1.20*0C
$GPGSV,4,1,15,10,23,347,24,12,21[2024/10/02, 12:54:34.960],082,16,18,62,176,20,23,44,029,21*75
$GPGSV,4,2,15,25,43,120,16,28[2024/10/02, 12:54:35.100],52,238,27,29,14,159,18,32,24,317,25*71
$GPGSV,4,3,15,,32,108,16,,[2024/10/02, 12:54:35.241]46,145,21,,70,336,25,,63,356,24*71
$GPGSV,4,4,15,,65,177,20,,27,28[2024/10/02, 12:54:35.381]0,29,,45,226,27*4B
$GPGLL,0114.3127,N,10338.9116,E,045433,A,A*47
[2024/10/02, 12:54:35.522]$GPBOD,,T,,M,,*47
$GPBWC,045433,,,,,,T,,M,,N,,A*7E
$GPVTG,12.23,[2024/10/02, 12:54:35.662]T,12.07,M,1.16,N,2.15,K,A*25
$PGRME,15.73,M,18.50,M,24.28,M*2E
$[2024/10/02, 12:54:35.803]PGRMZ,14,f,3*2E
$PGRMM,WGS 84*06
$HCHDM,,M*07
$WIMWV,,R,,,A*6D
[2024/10/02, 12:54:35.944]$GPAPB,V,V,,,N,V,V,,,,,,,,N*68
$GPZDA,045433,02,10,2024,-08,00*6F[2024/10/02, 12:54:36.037]
[2024/10/02, 12:54:36.272]$GPRMC,045435,A,0114.3132,N,10338.9120,E,1.18,64.29,021024[2024/10/02, 12:54:36.537],0.16,E,A*1F
$GPRMB,A,,,,,,,,,,,,V,A*1C
$GPGGA,045435,0114.3132,N[2024/10/02, 12:54:36.678],10338.9120,E,1,15,0.73,4.79,M,9.60,M,,*40
$GPGSA,A,3,10,12,18,23,[2024/10/02, 12:54:36.818]25,28,29,32,,,,,1.41,0.73,1.20*0C
$GPGSV,4,1,15,10,23,347,26,12,2[2024/10/02, 12:54:36.959]1,082,18,18,62,176,25,23,44,029,20*7D
$GPGSV,4,2,15,25,43,120,17,28[2024/10/02, 12:54:37.100],52,238,29,29,14,159,17,32,24,317,25*71
$GPGSV,4,3,15,,32,108,15,,[2024/10/02, 12:54:37.240]46,145,18,,70,336,25,,63,356,26*7A
$GPGSV,4,4,15,,65,177,24,,27,28[2024/10/02, 12:54:37.381]0,29,,45,226,27*4F
$GPGLL,0114.3132,N,10338.9120,E,045435,A,A*40[2024/10/02, 12:54:37.521]
$GPBOD,,T,,M,,*47
$GPBWC,045435,,,,,,T,,M,,N,,A*78
$GPVTG,64.29,[2024/10/02, 12:54:37.662]T,64.13,M,1.18,N,2.19,K,A*28
$PGRME,15.73,M,18.24,M,24.09,M*2E
$[2024/10/02, 12:54:37.803]PGRMZ,16,f,3*2C
$PGRMM,WGS 84*06
$HCHDM,,M*07
$WIMWV,,R,,,A*6D
[2024/10/02, 12:54:37.943]$GPAPB,V,V,,,N,V,V,,,,,,,,N*68
$GPZDA,045435,02,10,2024,-08,00*69[2024/10/02, 12:54:38.037]
[2024/10/02, 12:54:38.271]$GPRMC,045437,A,0114.3132,N,10338.9124,E,0.91,64.29,021024[2024/10/02, 12:54:38.537],0.16,E,A*19
$GPRMB,A,,,,,,,,,,,,V,A*1C
$GPGGA,045437,0114.3132,[2024/10/02, 12:54:38.678]N,10338.9124,E,1,15,0.73,5.12,M,9.60,M,,*4A
$GPGSA,A,3,10,12,18,23[2024/10/02, 12:54:38.818],25,28,29,32,,,,,1.41,0.73,1.20*0C
$GPGSV,4,1,15,10,23,347,24,12,2[2024/10/02, 12:54:38.959]1,082,19,18,62,176,25,23,44,029,23*7D
$GPGSV,4,2,15,25,43,120,20,2[2024/10/02, 12:54:39.099]8,52,238,27,29,14,159,17,32,24,317,25*7B
$GPGSV,4,3,15,,32,108,18,[2024/10/02, 12:54:39.240],46,145,17,,70,336,24,,63,356,23*7C
$GPGSV,4,4,15,,65,177,18,,27,2[2024/10/02, 12:54:39.380]80,31,,45,226,27*49
$GPGLL,0114.3132,N,10338.9124,E,045437,A,A*46[2024/10/02, 12:54:39.521]
$GPBOD,,T,,M,,*47
$GPBWC,045437,,,,,,T,,M,,N,,A*7A
$GPVTG,64.29,[2024/10/02, 12:54:39.662]T,64.13,M,0.91,N,1.68,K,A*2D
$PGRME,15.46,M,18.06,M,23.77,M*26
$[2024/10/02, 12:54:39.802]PGRMZ,17,f,3*2D
$PGRMM,WGS 84*06
$HCHDM,,M*07
$WIMWV,,R,,,A*6D
[2024/10/02, 12:54:39.943]$GPAPB,V,V,,,N,V,V,,,,,,,,N*68
$GPZDA,045437,02,10,2024,-08,00*6B[2024/10/02, 12:54:40.037]
[2024/10/02, 12:54:40.271]$GPRMC,045439,A,0114.3132,N,10338.9122,E,0.79,55.93,021024[2024/10/02, 12:54:40.536],0.16,E,A*14
$GPRMB,A,,,,,,,,,,,,V,A*1C
$GPGGA,045439,0114.3132,[2024/10/02, 12:54:40.677]N,10338.9122,E,1,15,0.73,5.52,M,9.60,M,,*46
$GPGSA,A,3,10,12,18,23[2024/10/02, 12:54:40.818],25,28,29,32,,,,,1.41,0.73,1.20*0C
$GPGSV,4,1,15,10,23,347,25,12,2[2024/10/02, 12:54:40.958]1,081,18,18,62,176,26,23,44,029,23*7D
$GPGSV,4,2,15,25,43,120,20,2[2024/10/02, 12:54:41.099]8,52,238,28,29,14,159,15,32,24,317,27*74
$GPGSV,4,3,15,,32,108,16,[2024/10/02, 12:54:41.239],46,145,18,,70,336,24,,63,356,23*7D
$GPGSV,4,4,15,,65,177,22,,27,2[2024/10/02, 12:54:41.380]80,30,,45,226,27*41
$GPGLL,0114.3132,N,10338.9122,E,045439,A,A*4E[2024/10/02, 12:54:41.520]
$GPBOD,,T,,M,,*47
$GPBWC,045439,,,,,,T,,M,,N,,A*74
$GPVTG,55.93[2024/10/02, 12:54:41.661],T,55.77,M,0.79,N,1.47,K,A*25
$PGRME,15.40,M,18.00,M,23.69,M*29
[2024/10/02, 12:54:41.802]$PGRMZ,18,f,3*22
$PGRMM,WGS 84*06
$HCHDM,,M*07
$WIMWV,,R,,,A*6D[2024/10/02, 12:54:41.942]
$GPAPB,V,V,,,N,V,V,,,,,,,,N*68
$GPZDA,045439,02,10,2024,-08,00*6[2024/10/02, 12:54:42.036]5
[2024/10/02, 12:54:42.270]$GPRMC,045441,A,0114.3129,N,10338.9108,E,1.53,271.18,0210[2024/10/02, 12:54:42.536]24,0.16,E,A*27
$GPRMB,A,,,,,,,,,,,,V,A*1C
$GPGGA,045441,0114.3129[2024/10/02, 12:54:42.677],N,10338.9108,E,1,15,0.73,6.87,M,9.60,M,,*40
$GPGSA,A,3,10,12,18,2[2024/10/02, 12:54:42.817]3,25,28,29,32,,,,,1.41,0.73,1.20*0C
$GPGSV,4,1,15,10,23,347,26,12,[2024/10/02, 12:54:42.958]21,081,15,18,62,176,23,23,44,029,22*77
$GPGSV,4,2,15,25,43,120,19,[2024/10/02, 12:54:43.098]28,52,238,29,29,14,159,16,32,24,317,25*7E
$GPGSV,4,3,15,,32,108,16[2024/10/02, 12:54:43.239],,46,145,16,,70,336,26,,63,356,25*77
$GPGSV,4,4,15,,65,177,23,,27,[2024/10/02, 12:54:43.379]280,31,,45,226,26*40
$GPGLL,0114.3129,N,10338.9108,E,045441,A,A*43[2024/10/02, 12:54:43.520]
$GPBOD,,T,,M,,*47
$GPBWC,045441,,,,,,T,,M,,N,,A*7B
$GPVTG,271.[2024/10/02, 12:54:43.661]18,T,271.02,M,1.53,N,2.84,K,A*21
$PGRME,15.28,M,17.98,M,23.60,M*20[2024/10/02, 12:54:43.801]
$PGRMZ,23,f,3*2A
$PGRMM,WGS 84*06
$HCHDM,,M*07
$WIMWV,,R,,,A*[2024/10/02, 12:54:43.942]6D
$GPAPB,V,V,,,N,V,V,,,,,,,,N*68
$GPZDA,045441,02,10,2024,-08,00[2024/10/02, 12:54:44.036]*6A
[2024/10/02, 12:54:44.270]$GPRMC,045443,A,0114.3130,N,10338.9113,E,1.38,85.72,02102[2024/10/02, 12:54:44.535]4,0.16,E,A*1F
$GPRMB,A,,,,,,,,,,,,V,A*1C
$GPGGA,045443,0114.3130,[2024/10/02, 12:54:44.676]N,10338.9113,E,1,15,0.73,6.81,M,9.60,M,,*46
$GPGSA,A,3,10,12,18,23[2024/10/02, 12:54:44.817],25,28,29,32,,,,,1.41,0.73,1.20*0C
$GPGSV,4,1,15,10,23,347,27,12,2[2024/10/02, 12:54:44.957]1,081,15,18,62,176,26,23,44,029,22*73
$GPGSV,4,2,15,25,43,120,18,2[2024/10/02, 12:54:45.098]8,52,238,26,29,14,159,16,32,24,317,25*70
$GPGSV,4,3,15,,32,108,18,[2024/10/02, 12:54:45.238],46,145,20,,70,336,26,,63,356,23*7A
$GPGSV,4,4,15,,65,177,26,,27,2[2024/10/02, 12:54:45.379]80,32,,45,226,29*49
$GPGLL,0114.3130,N,10338.9113,E,045443,A,A*43[2024/10/02, 12:54:45.520]
$GPBOD,,T,,M,,*47
$GPBWC,045443,,,,,,T,,M,,N,,A*79
$GPVTG,85.72[2024/10/02, 12:54:45.660],T,85.56,M,1.38,N,2.56,K,A*2E
$PGRME,14.97,M,17.73,M,23.20,M*24
[2024/10/02, 12:54:45.801]$PGRMZ,22,f,3*2B
$PGRMM,WGS 84*06
$HCHDM,,M*07
$WIMWV,,R,,,A*6D[2024/10/02, 12:54:45.941]
$GPAPB,V,V,,,N,V,V,,,,,,,,N*68
$GPZDA,045443,02,10,2024,-08,00*6[2024/10/02, 12:54:46.035]8
[2024/10/02, 12:54:46.269]$GPRMC,045445,A,0114.3127,N,10338.9117,E,1.37,92.66,02102[2024/10/02, 12:54:46.535]4,0.16,E,A*17
$GPRMB,A,,,,,,,,,,,,V,A*1C
$GPGGA,045445,0114.3127[2024/10/02, 12:54:46.676],N,10338.9117,E,1,15,0.73,6.13,M,9.60,M,,*49
$GPGSA,A,3,10,12,18,2[2024/10/02, 12:54:46.816]3,25,28,29,32,,,,,1.41,0.73,1.20*0C
$GPGSV,4,1,15,10,23,347,27,12,[2024/10/02, 12:54:46.957]21,081,17,18,62,175,25,23,44,029,22*71
$GPGSV,4,2,15,25,43,120,18,[2024/10/02, 12:54:47.097]28,52,238,27,29,14,159,19,32,24,317,24*7F
$GPGSV,4,3,15,,32,108,14[2024/10/02, 12:54:47.238],,46,145,15,,70,336,28,,63,356,24*79
$GPGSV,4,4,15,,65,177,23,,27,[2024/10/02, 12:54:47.378]280,32,,45,226,29*4C
$GPGLL,0114.3127,N,10338.9117,E,045445,A,A*47[2024/10/02, 12:54:47.519]
$GPBOD,,T,,M,,*47
$GPBWC,045445,,,,,,T,,M,,N,,A*7F
$GPVTG,92.6[2024/10/02, 12:54:47.660]6,T,92.50,M,1.37,N,2.54,K,A*20
$PGRME,14.83,M,17.66,M,23.06,M*21
[2024/10/02, 12:54:47.800]$PGRMZ,20,f,3*29
$PGRMM,WGS 84*06
$HCHDM,,M*07
$WIMWV,,R,,,A*6D[2024/10/02, 12:54:47.941]
$GPAPB,V,V,,,N,V,V,,,,,,,,N*68
$GPZDA,045445,02,10,2024,-08,00*6[2024/10/02, 12:54:48.035]E
[2024/10/02, 12:54:48.269]$GPRMC,045447,A,0114.3127,N,10338.9107,E,1.34,276.95,0210[2024/10/02, 12:54:48.535]24,0.16,E,A*23
$GPRMB,A,,,,,,,,,,,,V,A*1C
$GPGGA,045447,0114.312[2024/10/02, 12:54:48.675]7,N,10338.9107,E,1,15,0.73,6.87,M,9.59,M,,*4D
$GPGSA,A,3,10,12,18,[2024/10/02, 12:54:48.816]23,25,28,29,32,,,,,1.41,0.73,1.20*0C
$GPGSV,4,1,15,10,23,347,26,12[2024/10/02, 12:54:48.956],21,081,19,18,62,175,21,23,44,029,21*79
$GPGSV,4,2,15,25,43,120,17[2024/10/02, 12:54:49.097],28,52,238,27,29,14,159,19,32,24,317,26*72
$GPGSV,4,3,15,,32,108,1[2024/10/02, 12:54:49.237]4,,46,145,18,,70,336,28,,63,356,23*73
$GPGSV,4,4,15,,65,177,24,,27[2024/10/02, 12:54:49.378],280,32,,45,226,29*4B
$GPGLL,0114.3127,N,10338.9107,E,045447,A,A*4[2024/10/02, 12:54:49.519]4
$GPBOD,,T,,M,,*47
$GPBWC,045447,,,,,,T,,M,,N,,A*7D
$GPVTG,276.[2024/10/02, 12:54:49.659]95,T,276.79,M,1.34,N,2.48,K,A*29
$PGRME,14.77,M,17.64,M,23.01,M*2[2024/10/02, 12:54:49.800]F
$PGRMZ,23,f,3*2A
$PGRMM,WGS 84*06
$HCHDM,,M*07
$WIMWV,,R,,,A*[2024/10/02, 12:54:49.940]6D
$GPAPB,V,V,,,N,V,V,,,,,,,,N*68
$GPZDA,045447,02,10,2024,-08,0[2024/10/02, 12:54:50.034]0*6C
[2024/10/02, 12:54:50.269]$GPRMC,045449,A,0114.3129,N,10338.9125,E,1.32,82.51,02102[2024/10/02, 12:54:50.534]4,0.16,E,A*14
$GPRMB,A,,,,,,,,,,,,V,A*1C
$GPGGA,045449,0114.3129[2024/10/02, 12:54:50.675],N,10338.9125,E,1,15,0.73,6.19,M,9.59,M,,*4A
$GPGSA,A,3,10,12,18,2[2024/10/02, 12:54:50.815]3,25,28,29,32,,,,,1.41,0.73,1.20*0C
$GPGSV,4,1,15,10,23,347,26,12,[2024/10/02, 12:54:50.956]21,081,20,18,62,175,24,23,44,029,26*71
$GPGSV,4,2,15,25,43,120,19,[2024/10/02, 12:54:51.096]28,52,238,25,29,14,159,16,32,24,317,27*70
$GPGSV,4,3,15,,32,108,16[2024/10/02, 12:54:51.237],,46,145,17,,70,336,27,,63,356,23*71
$GPGSV,4,4,15,,65,177,22,,27,[2024/10/02, 12:54:51.378]280,32,,45,226,29*4D
$GPGLL,0114.3129,N,10338.9125,E,045449,A,A*44[2024/10/02, 12:54:51.518]
$GPBOD,,T,,M,,*47
$GPBWC,045449,,,,,,T,,M,,N,,A*73
$GPVTG,82.5[2024/10/02, 12:54:51.668]1,T,82.35,M,1.32,N,2.44,K,A*23
$PGRME,14.73,M,17.64,M,22.98,M*2A
$PGR[2024/10/02, 12:54:51.809]MZ,20,f,3*29
$PGRMM,WGS 84*06
$HCHDM,,M*07
$WIMWV,,R,,,A*6D
$G[2024/10/02, 12:54:51.949]PAPB,V,V,,,N,V,V,,,,,,,,N*68
$GPZDA,045449,02,10,2024,-08,00*62
[2024/10/02, 12:54:52.262]$GPRMC,045451,A,0114.3126,N,103[2024/10/02, 12:54:52.480]38.9127,E,1.28,107.23,021024,0.16,E,A*22
$GPRMB,A,,,,,,,,,,,,V,A*1[2024/10/02, 12:54:52.621]C
$GPGGA,045451,0114.3126,N,10338.9127,E,1,15,0.73,5.95,M,9.59,M,,[2024/10/02, 12:54:52.762]*49
$GPGSA,A,3,10,12,18,23,25,28,29,32,,,,,1.41,0.73,1.20*0C
$GP[2024/10/02, 12:54:52.902]GSV,4,1,15,10,23,347,25,12,21,081,18,18,62,175,22,23,44,029,25*7C
[2024/10/02, 12:54:53.043]$GPGSV,4,2,15,25,43,120,19,28,52,238,27,29,14,159,18,32,24,317,25*7E[2024/10/02, 12:54:53.183]
$GPGSV,4,3,15,,32,108,15,,46,145,15,,70,336,26,,63,356,23*71
$GP[2024/10/02, 12:54:53.324]GSV,4,4,15,,65,177,22,,27,280,31,,45,226,28*4F
$GPGLL,0114.3126,N[2024/10/02, 12:54:53.464],10338.9127,E,045451,A,A*40
$GPBOD,,T,,M,,*47
$GPBWC,045451,,,,,,[2024/10/02, 12:54:53.605]T,,M,,N,,A*7A
$GPVTG,107.23,T,107.07,M,1.28,N,2.38,K,A*27
$PGRME[2024/10/02, 12:54:53.745],14.60,M,17.78,M,23.01,M*24
$PGRMZ,20,f,3*29
$PGRMM,WGS 84*06
$H[2024/10/02, 12:54:53.886]CHDM,,M*07
$WIMWV,,R,,,A*6D
$GPAPB,V,V,,,N,V,V,,,,,,,,N*68
$GPZ[2024/10/02, 12:54:54.027]DA,045451,02,10,2024,-08,00*6B
[2024/10/02, 12:54:54.261]$GPRMC,045453,A,0114.3126,N,103[2024/10/02, 12:54:54.480]38.9124,E,1.01,107.23,021024,0.16,E,A*28
$GPRMB,A,,,,,,,,,,,,V,A*1[2024/10/02, 12:54:54.620]C
$GPGGA,045453,0114.3126,N,10338.9124,E,1,15,0.73,6.39,M,9.59,M,[2024/10/02, 12:54:54.761],*4D
$GPGSA,A,3,10,12,18,23,25,28,29,32,,,,,1.41,0.73,1.20*0C
$GP[2024/10/02, 12:54:54.901]GSV,4,1,15,10,23,347,27,12,21,081,20,18,62,175,24,23,44,029,26*70
[2024/10/02, 12:54:55.042]$GPGSV,4,2,15,25,43,119,17,28,52,238,26,29,14,159,18,32,24,317,26*7[2024/10/02, 12:54:55.182]8
$GPGSV,4,3,15,,32,108,16,,46,145,15,,70,336,25,,63,356,24*76
$G[2024/10/02, 12:54:55.323]PGSV,4,4,15,,65,177,23,,27,280,31,,45,226,26*40
$GPGLL,0114.3126,N[2024/10/02, 12:54:55.464],10338.9124,E,045453,A,A*41
$GPBOD,,T,,M,,*47
$GPBWC,045453,,,,,,[2024/10/02, 12:54:55.604]T,,M,,N,,A*78
$GPVTG,107.23,T,107.07,M,1.01,N,1.88,K,A*24
$PGRME[2024/10/02, 12:54:55.745],14.60,M,17.36,M,22.69,M*21
$PGRMZ,21,f,3*28
$PGRMM,WGS 84*06
$H[2024/10/02, 12:54:55.886]CHDM,,M*07
$WIMWV,,R,,,A*6D
$GPAPB,V,V,,,N,V,V,,,,,,,,N*68
$GPZ[2024/10/02, 12:54:56.026]DA,045453,02,10,2024,-08,00*69
[2024/10/02, 12:54:56.260]$GPRMC,045455,A,0114.3127,N,10[2024/10/02, 12:54:56.479]338.9126,E,0.75,102.43,021024,0.16,E,A*2C
$GPRMB,A,,,,,,,,,,,,V,A*[2024/10/02, 12:54:56.620]1C
$GPGGA,045455,0114.3127,N,10338.9126,E,1,15,0.73,6.37,M,9.59,M,[2024/10/02, 12:54:56.760],*46
$GPGSA,A,3,10,12,18,23,25,28,29,32,,,,,1.41,0.73,1.20*0C
$GP[2024/10/02, 12:54:56.901]GSV,4,1,15,10,23,347,26,12,21,081,22,18,62,175,24,23,44,029,26*73
[2024/10/02, 12:54:57.042]$GPGSV,4,2,15,25,43,119,20,28,52,239,26,29,14,159,19,32,24,317,27*7[2024/10/02, 12:54:57.182]D
$GPGSV,4,3,15,,32,108,18,,46,145,15,,70,336,27,,63,356,24*7A
$G[2024/10/02, 12:54:57.323]PGSV,4,4,15,,65,177,24,,27,280,31,,45,226,27*46
$GPGLL,0114.3127,N[2024/10/02, 12:54:57.463],10338.9126,E,045455,A,A*44
$GPBOD,,T,,M,,*47
$GPBWC,045455,,,,,,[2024/10/02, 12:54:57.604]T,,M,,N,,A*7E
$GPVTG,102.43,T,102.27,M,0.75,N,1.40,K,A*26
$PGRME[2024/10/02, 12:54:57.744],14.48,M,17.20,M,22.49,M*2E
$PGRMZ,21,f,3*28
$PGRMM,WGS 84*06
$H[2024/10/02, 12:54:57.885]CHDM,,M*07
$WIMWV,,R,,,A*6D
$GPAPB,V,V,,,N,V,V,,,,,,,,N*68
$GPZ[2024/10/02, 12:54:58.026]DA,045455,02,10,2024,-08,00*6F
[2024/10/02, 12:54:58.276]$GPRMC,045457,A,0114.3127,N,10338.9121,E,0.45,134.95,021024,[2024/10/02, 12:54:58.541]0.16,E,A*24
$GPRMB,A,,,,,,,,,,,,V,A*1C
$GPGGA,045457,0114.3127,N,[2024/10/02, 12:54:58.682]10338.9121,E,1,15,0.73,6.72,M,9.59,M,,*42
$GPGSA,A,3,10,12,18,23,2[2024/10/02, 12:54:58.822]5,28,29,32,,,,,1.41,0.73,1.20*0C
$GPGSV,4,1,15,10,23,347,26,12,21,[2024/10/02, 12:54:58.963]081,18,18,62,175,22,23,44,029,26*7C
$GPGSV,4,2,15,25,43,119,20,28,[2024/10/02, 12:54:59.104]52,239,27,29,14,158,17,32,24,317,28*7C
$GPGSV,4,3,15,,32,108,16,,4[2024/10/02, 12:54:59.244]6,145,16,,70,336,28,,63,356,25*79
$GPGSV,4,4,15,,65,177,24,,27,280[2024/10/02, 12:54:59.385],31,,45,226,22*43
$GPGLL,0114.3127,N,10338.9121,E,045457,A,A*41
[2024/10/02, 12:54:59.525]$GPBOD,,T,,M,,*47
$GPBWC,045457,,,,,,T,,M,,N,,A*7C
$GPVTG,134.95,[2024/10/02, 12:54:59.666]T,134.79,M,0.45,N,0.83,K,A*2B
$PGRME,14.43,M,17.11,M,22.38,M*21
[2024/10/02, 12:54:59.807]$PGRMZ,22,f,3*2B
$PGRMM,WGS 84*06
$HCHDM,,M*07
$WIMWV,,R,,,A*6D[2024/10/02, 12:54:59.947]
$GPAPB,V,V,,,N,V,V,,,,,,,,N*68
$GPZDA,045457,02,10,2024,-08,00*6[2024/10/02, 12:55:00.041]D
[2024/10/02, 12:55:00.275]$GPRMC,045459,A,0114.3129,N,10338.9122,E,0.00,144.86,021024,[2024/10/02, 12:55:00.541]0.16,E,A*23
$GPRMB,A,,,,,,,,,,,,V,A*1C
$GPGGA,045459,0114.3129,N[2024/10/02, 12:55:00.681],10338.9122,E,1,15,0.73,6.73,M,9.59,M,,*40
$GPGSA,A,3,10,12,18,23,[2024/10/02, 12:55:00.822]25,28,29,32,,,,,1.41,0.73,1.20*0C
$GPGSV,4,1,15,10,23,347,26,12,2[2024/10/02, 12:55:00.962]1,081,22,18,62,175,20,23,44,029,26*77
$GPGSV,4,2,15,25,43,119,19,2[2024/10/02, 12:55:01.103]8,52,239,26,29,14,158,18,32,24,318,26*79
$GPGSV,4,3,15,,32,108,16,[2024/10/02, 12:55:01.244],46,145,15,,70,336,28,,63,356,24*7B
$GPGSV,4,4,15,,65,177,25,,27,2[2024/10/02, 12:55:01.384]80,32,,45,226,25*46
$GPGLL,0114.3129,N,10338.9122,E,045459,A,A*42[2024/10/02, 12:55:01.525]
$GPBOD,,T,,M,,*47
$GPBWC,045459,,,,,,T,,M,,N,,A*72
$GPVTG,144.8[2024/10/02, 12:55:01.665]6,T,144.70,M,0.00,N,0.00,K,A*2A
$PGRME,14.37,M,17.10,M,22.34,M*2F[2024/10/02, 12:55:01.806]
$PGRMZ,22,f,3*2B
$PGRMM,WGS 84*06
$HCHDM,,M*07
$WIMWV,,R,,,A*6[2024/10/02, 12:55:01.947]D
$GPAPB,V,V,,,N,V,V,,,,,,,,N*68
$GPZDA,045459,02,10,2024,-08,00*[2024/10/02, 12:55:02.040]63
[2024/10/02, 12:55:02.275]$GPRMC,045501,A,0114.3131,N,10338.9119,E,0.00,156.71,021024,[2024/10/02, 12:55:02.540]0.16,E,A*25
$GPRMB,A,,,,,,,,,,,,V,A*1C
$GPGGA,045501,0114.3131,N[2024/10/02, 12:55:02.681],10338.9119,E,1,15,0.73,6.35,M,9.59,M,,*4F
$GPGSA,A,3,10,12,18,23,[2024/10/02, 12:55:02.821]25,28,29,32,,,,,1.41,0.73,1.20*0C
$GPGSV,4,1,15,10,23,347,26,12,21[2024/10/02, 12:55:02.962],081,20,18,62,175,23,23,44,029,26*76
$GPGSV,4,2,15,25,43,119,18,28[2024/10/02, 12:55:03.103],52,239,25,29,14,158,17,32,24,318,23*71
$GPGSV,4,3,15,,32,107,15,,[2024/10/02, 12:55:03.243]46,145,16,,70,336,27,,63,356,25*7A
$GPGSV,4,4,15,,65,177,25,,27,28[2024/10/02, 12:55:03.384]0,32,,45,226,26*45
$GPGLL,0114.3131,N,10338.9119,E,045501,A,A*4F
[2024/10/02, 12:55:03.524]$GPBOD,,T,,M,,*47
$GPBWC,045501,,,,,,T,,M,,N,,A*7E
$GPVTG,156.71[2024/10/02, 12:55:03.665],T,156.55,M,0.00,N,0.00,K,A*25
$PGRME,14.37,M,17.05,M,22.30,M*2F
[2024/10/02, 12:55:03.805]$PGRMZ,21,f,3*28
$PGRMM,WGS 84*06
$HCHDM,,M*07
$WIMWV,,R,,,A*6D[2024/10/02, 12:55:03.946]
$GPAPB,V,V,,,N,V,V,,,,,,,,N*68
$GPZDA,045501,02,10,2024,-08,00*6[2024/10/02, 12:55:04.040]F
[2024/10/02, 12:55:04.274]$GPRMC,045503,A,0114.3128,N,10338.9115,E,0.00,164.33,021024[2024/10/02, 12:55:04.540],0.16,E,A*24
$GPRMB,A,,,,,,,,,,,,V,A*1C
$GPGGA,045503,0114.3128,N[2024/10/02, 12:55:04.680],10338.9115,E,1,15,0.73,5.64,M,9.59,M,,*4E
$GPGSA,A,3,10,12,18,23[2024/10/02, 12:55:04.821],25,28,29,32,,,,,1.41,0.73,1.20*0C
$GPGSV,4,1,15,10,23,347,24,12,2[2024/10/02, 12:55:04.961]1,081,18,18,62,175,23,23,44,029,25*7C
$GPGSV,4,2,15,25,43,119,18,2[2024/10/02, 12:55:05.102]8,52,239,27,29,14,158,19,32,24,318,25*7B
$GPGSV,4,3,15,,32,107,16,[2024/10/02, 12:55:05.243],46,146,16,,70,336,27,,63,356,24*7B
$GPGSV,4,4,15,,65,177,24,,27,2[2024/10/02, 12:55:05.383]80,32,,45,226,28*4A
$GPGLL,0114.3128,N,10338.9115,E,045503,A,A*49[2024/10/02, 12:55:05.524]
$GPBOD,,T,,M,,*47
$GPBWC,045503,,,,,,T,,M,,N,,A*7C
$GPVTG,164.3[2024/10/02, 12:55:05.664]3,T,164.17,M,0.00,N,0.00,K,A*25
$PGRME,14.37,M,16.94,M,22.22,M*25[2024/10/02, 12:55:05.805]
$PGRMZ,18,f,3*22
$PGRMM,WGS 84*06
$HCHDM,,M*07
$WIMWV,,R,,,A*6[2024/10/02, 12:55:05.946]D
$GPAPB,V,V,,,N,V,V,,,,,,,,N*68
$GPZDA,045503,02,10,2024,-08,00[2024/10/02, 12:55:06.039]*6D
[2024/10/02, 12:55:06.274]$GPRMC,045505,A,0114.3130,N,10338.9115,E,0.00,151.50,021024[2024/10/02, 12:55:06.539],0.16,E,A*28
$GPRMB,A,,,,,,,,,,,,V,A*1C
$GPGGA,045505,0114.3130,N[2024/10/02, 12:55:06.680],10338.9115,E,1,15,0.73,5.66,M,9.59,M,,*43
$GPGSA,A,3,10,12,18,23,[2024/10/02, 12:55:06.820]25,28,29,32,,,,,1.41,0.73,1.21*0D
$GPGSV,4,1,15,10,23,347,25,12,21[2024/10/02, 12:55:06.961],081,19,18,62,175,25,23,44,029,26*79
$GPGSV,4,2,15,25,43,119,18,28[2024/10/02, 12:55:07.102],52,239,28,29,14,158,19,32,24,318,25*74
$GPGSV,4,3,15,,32,107,16,,[2024/10/02, 12:55:07.242]46,146,14,,70,336,27,,63,356,24*79
$GPGSV,4,4,15,,65,177,24,,27,28[2024/10/02, 12:55:07.383]0,32,,45,226,28*4A
$GPGLL,0114.3130,N,10338.9115,E,045505,A,A*46
[2024/10/02, 12:55:07.523]$GPBOD,,T,,M,,*47
$GPBWC,045505,,,,,,T,,M,,N,,A*7A
$GPVTG,151.50[2024/10/02, 12:55:07.664],T,151.34,M,0.00,N,0.00,K,A*21
$PGRME,14.37,M,16.92,M,22.20,M*21
[2024/10/02, 12:55:07.805]$PGRMZ,19,f,3*23
$PGRMM,WGS 84*06
$HCHDM,,M*07
$WIMWV,,R,,,A*6D[2024/10/02, 12:55:07.945]
$GPAPB,V,V,,,N,V,V,,,,,,,,N*68
$GPZDA,045505,02,10,2024,-08,00*[2024/10/02, 12:55:08.039]6B
[2024/10/02, 12:55:08.273]$GPRMC,045507,A,0114.3129,N,10338.9111,E,0.00,153.56,021024[2024/10/02, 12:55:08.539],0.16,E,A*22
$GPRMB,A,,,,,,,,,,,,V,A*1C
$GPGGA,045507,0114.3129,N[2024/10/02, 12:55:08.679],10338.9111,E,1,15,0.73,5.03,M,9.59,M,,*4E
$GPGSA,A,3,10,12,18,23,[2024/10/02, 12:55:08.820]25,28,29,32,,,,,1.41,0.73,1.20*0C
$GPGSV,4,1,15,10,23,347,26,12,2[2024/10/02, 12:55:08.961]1,081,18,18,62,175,24,23,44,029,25*79
$GPGSV,4,2,15,25,43,119,17,2[2024/10/02, 12:55:09.101]8,52,239,28,29,14,158,19,32,24,318,23*7D
$GPGSV,4,3,15,,32,107,15,,[2024/10/02, 12:55:09.242]46,146,15,,70,336,27,,63,356,25*7A
$GPGSV,4,4,15,,65,177,23,,27,28[2024/10/02, 12:55:09.382]0,32,,45,226,28*4D
$GPGLL,0114.3129,N,10338.9111,E,045507,A,A*48[2024/10/02, 12:55:09.523]
$GPBOD,,T,,M,,*47
$GPBWC,045507,,,,,,T,,M,,N,,A*78
$GPVTG,153.56[2024/10/02, 12:55:09.664],T,153.40,M,0.00,N,0.00,K,A*24
$PGRME,14.38,M,16.89,M,22.18,M*2F[2024/10/02, 12:55:09.804]
$PGRMZ,17,f,3*2D
$PGRMM,WGS 84*06
$HCHDM,,M*07
$WIMWV,,R,,,A*6D[2024/10/02, 12:55:09.945]
$GPAPB,V,V,,,N,V,V,,,,,,,,N*68
$GPZDA,045507,02,10,2024,-08,00*[2024/10/02, 12:55:10.038]69
[2024/10/02, 12:55:10.273]$GPRMC,045509,A,0114.3128,N,10338.9106,E,0.00,157.10,021024[2024/10/02, 12:55:10.538],0.16,E,A*2D
$GPRMB,A,,,,,,,,,,,,V,A*1C
$GPGGA,045509,0114.3128,[2024/10/02, 12:55:10.679]N,10338.9106,E,1,15,0.73,5.02,M,9.59,M,,*46
$GPGSA,A,3,10,12,18,23[2024/10/02, 12:55:10.820],25,28,29,32,,,,,1.41,0.73,1.20*0C
$GPGSV,4,1,15,10,23,347,26,12,2[2024/10/02, 12:55:10.960]1,081,15,18,62,175,25,23,44,029,22*72
$GPGSV,4,2,15,25,43,119,18,2[2024/10/02, 12:55:11.101]8,52,239,28,29,14,158,20,32,24,318,26*7D
$GPGSV,4,3,15,,32,107,15,[2024/10/02, 12:55:11.241],46,146,16,,69,336,27,,63,356,25*71
$GPGSV,4,4,15,,65,177,24,,27,2[2024/10/02, 12:55:11.382]80,32,,45,226,29*4B
$GPGLL,0114.3128,N,10338.9106,E,045509,A,A*41[2024/10/02, 12:55:11.522]
$GPBOD,,T,,M,,*47
$GPBWC,045509,,,,,,T,,M,,N,,A*76
$GPVTG,157.10[2024/10/02, 12:55:11.663],T,156.94,M,0.00,N,0.00,K,A*2E
$PGRME,14.38,M,16.94,M,22.23,M*2B[2024/10/02, 12:55:11.804]
$PGRMZ,16,f,3*2C
$PGRMM,WGS 84*06
$HCHDM,,M*07
$WIMWV,,R,,,A*6D[2024/10/02, 12:55:11.944]
$GPAPB,V,V,,,N,V,V,,,,,,,,N*68
$GPZDA,045509,02,10,2024,-08,00*[2024/10/02, 12:55:12.038]67
[2024/10/02, 12:55:12.272]$GPRMC,045512,A,0114.3129,N,10338.9113,E,0.00,157.15,02102[2024/10/02, 12:55:12.538]4,0.16,E,A*27
$GPRMB,A,,,,,,,,,,,,V,A*1C
$GPGGA,045512,0114.3129,[2024/10/02, 12:55:12.678]N,10338.9113,E,1,10,0.91,5.56,M,9.59,M,,*41
$GPGSA,A,3,10,12,18,23[2024/10/02, 12:55:12.819],25,28,29,32,,,,,1.88,0.91,1.65*04
$GPGSV,4,1,15,10,23,347,27,12,2[2024/10/02, 12:55:12.960]1,081,17,18,62,175,25,23,44,029,23*70
$GPGSV,4,2,15,25,43,119,17,2[2024/10/02, 12:55:13.100]8,52,239,28,29,14,158,17,32,24,318,25*75
$GPGSV,4,3,15,,32,107,14,[2024/10/02, 12:55:13.241],46,146,17,,69,336,28,,63,356,25*7E
$GPGSV,4,4,15,,65,177,23,,27,2[2024/10/02, 12:55:13.381]80,33,,45,226,30*45
$GPGLL,0114.3129,N,10338.9113,E,045512,A,A*4E[2024/10/02, 12:55:13.522]
$GPBOD,,T,,M,,*47
$GPBWC,045512,,,,,,T,,M,,N,,A*7C
$GPVTG,157.1[2024/10/02, 12:55:13.663]5,T,156.99,M,0.00,N,0.00,K,A*26
$PGRME,14.41,M,17.91,M,22.98,M*21[2024/10/02, 12:55:13.803]
$PGRMZ,18,f,3*22
$PGRMM,WGS 84*06
$HCHDM,,M*07
$WIMWV,,R,,,A*6[2024/10/02, 12:55:13.944]D
$GPAPB,V,V,,,N,V,V,,,,,,,,N*68
$GPZDA,045512,02,10,2024,-08,00[2024/10/02, 12:55:14.038]*6D
[2024/10/02, 12:55:14.272]$GPRMC,045513,A,0114.3128,N,10338.9112,E,0.00,155.44,02102[2024/10/02, 12:55:14.537]4,0.16,E,A*20
$GPRMB,A,,,,,,,,,,,,V,A*1C
$GPGGA,045513,0114.3128,[2024/10/02, 12:55:14.678]N,10338.9112,E,1,10,0.73,5.72,M,9.59,M,,*4A
$GPGSA,A,3,10,12,18,23[2024/10/02, 12:55:14.818],25,28,29,32,,,,,1.41,0.73,1.20*0C
$GPGSV,4,1,15,10,23,347,26,12,2[2024/10/02, 12:55:14.959]1,081,19,18,62,175,22,23,44,029,23*78
$GPGSV,4,2,15,25,43,119,17,2[2024/10/02, 12:55:15.100]8,52,239,28,29,14,158,17,32,24,318,22*72
$GPGSV,4,3,15,,32,107,14,[2024/10/02, 12:55:15.240],46,146,17,,69,336,28,,63,356,23*78
$GPGSV,4,4,15,,65,177,24,,27,2[2024/10/02, 12:55:15.381]80,33,,45,226,30*42
$GPGLL,0114.3128,N,10338.9112,E,045513,A,A*4F[2024/10/02, 12:55:15.521]
$GPBOD,,T,,M,,*47
$GPBWC,045513,,,,,,T,,M,,N,,A*7D
$GPVTG,155.4[2024/10/02, 12:55:15.662]4,T,155.28,M,0.00,N,0.00,K,A*29
$PGRME,14.42,M,17.82,M,22.92,M*2A[2024/10/02, 12:55:15.803]
$PGRMZ,19,f,3*23
$PGRMM,WGS 84*06
$HCHDM,,M*07
$WIMWV,,R,,,A*6[2024/10/02, 12:55:15.943]D
$GPAPB,V,V,,,N,V,V,,,,,,,,N*68
$GPZDA,045513,02,10,2024,-08,00*[2024/10/02, 12:55:16.037]6C
[2024/10/02, 12:55:16.271]$GPRMC,045515,A,0114.3124,N,10338.9109,E,0.00,155.44,02102[2024/10/02, 12:55:16.537]4,0.16,E,A*20
$GPRMB,A,,,,,,,,,,,,V,A*1C
$GPGGA,045515,0114.3124,[2024/10/02, 12:55:16.678]N,10338.9109,E,1,15,0.73,5.05,M,9.59,M,,*4F
$GPGSA,A,3,10,12,18,23[2024/10/02, 12:55:16.818],25,28,29,32,,,,,1.41,0.73,1.20*0C
$GPGSV,4,1,15,10,23,347,25,12,2[2024/10/02, 12:55:16.959]1,081,19,18,62,175,25,23,44,029,22*7D
$GPGSV,4,2,15,25,43,119,18,2[2024/10/02, 12:55:17.099]8,52,239,28,29,14,158,17,32,24,318,19*75
$GPGSV,4,3,15,,32,107,14,[2024/10/02, 12:55:17.240],46,146,19,,69,336,27,,63,356,24*7E
$GPGSV,4,4,15,,65,177,23,,27,2[2024/10/02, 12:55:17.380]80,33,,45,226,30*45
$GPGLL,0114.3124,N,10338.9109,E,045515,A,A*4F[2024/10/02, 12:55:17.521]
$GPBOD,,T,,M,,*47
$GPBWC,045515,,,,,,T,,M,,N,,A*7B
$GPVTG,155.4[2024/10/02, 12:55:17.662]4,T,155.28,M,0.00,N,0.00,K,A*29
$PGRME,14.44,M,17.73,M,22.86,M*27[2024/10/02, 12:55:17.802]
$PGRMZ,17,f,3*2D
$PGRMM,WGS 84*06
$HCHDM,,M*07
$WIMWV,,R,,,A*6[2024/10/02, 12:55:17.943]D
$GPAPB,V,V,,,N,V,V,,,,,,,,N*68
$GPZDA,045515,02,10,2024,-08,00[2024/10/02, 12:55:18.036]*6A
[2024/10/02, 12:55:18.271]$GPRMC,045517,A,0114.3121,N,10338.9103,E,0.00,156.41,02102[2024/10/02, 12:55:18.536]4,0.16,E,A*2B
$GPRMB,A,,,,,,,,,,,,V,A*1C
$GPGGA,045517,0114.3121,[2024/10/02, 12:55:18.677]N,10338.9103,E,1,15,0.73,4.68,M,9.59,M,,*48
$GPGSA,A,3,10,12,18,23[2024/10/02, 12:55:18.818],25,28,29,32,,,,,1.41,0.73,1.20*0C
$GPGSV,4,1,15,10,23,347,25,12,[2024/10/02, 12:55:18.958]21,081,16,18,62,175,24,23,44,029,23*72
$GPGSV,4,2,15,25,43,119,20,2[2024/10/02, 12:55:19.099]8,52,239,28,29,14,158,18,32,24,318,24*7F
$GPGSV,4,3,15,,32,107,15[2024/10/02, 12:55:19.239],,46,146,16,,69,336,28,,63,356,24*7F
$GPGSV,4,4,15,,65,177,23,,27,2[2024/10/02, 12:55:19.380]80,32,,45,226,30*44
$GPGLL,0114.3121,N,10338.9103,E,045517,A,A*42[2024/10/02, 12:55:19.520]
$GPBOD,,T,,M,,*47
$GPBWC,045517,,,,,,T,,M,,N,,A*79
$GPVTG,156.4[2024/10/02, 12:55:19.661]1,T,156.25,M,0.00,N,0.00,K,A*21
$PGRME,14.46,M,17.64,M,22.81,M*24[2024/10/02, 12:55:19.802]
$PGRMZ,15,f,3*2F
$PGRMM,WGS 84*06
$HCHDM,,M*07
$WIMWV,,R,,,A*6[2024/10/02, 12:55:19.942]D
$GPAPB,V,V,,,N,V,V,,,,,,,,N*68
$GPZDA,045517,02,10,2024,-08,00[2024/10/02, 12:55:20.036]*68
[2024/10/02, 12:55:20.270]$GPRMC,045519,A,0114.3119,N,10338.9101,E,0.00,156.41,02102[2024/10/02, 12:55:20.536]4,0.16,E,A*2C
$GPRMB,A,,,,,,,,,,,,V,A*1C
$GPGGA,045519,0114.3119[2024/10/02, 12:55:20.677],N,10338.9101,E,1,15,0.73,3.60,M,9.59,M,,*40
$GPGSA,A,3,10,12,18,2[2024/10/02, 12:55:20.817]3,25,28,29,32,,,,,1.41,0.73,1.20*0C
$GPGSV,4,1,15,10,23,347,24,12,[2024/10/02, 12:55:20.958]21,081,15,18,62,175,26,23,44,029,22*73
$GPGSV,4,2,15,25,43,119,21,[2024/10/02, 12:55:21.098]28,52,239,28,29,14,158,21,32,24,318,23*73
$GPGSV,4,3,15,,32,107,15[2024/10/02, 12:55:21.239],,46,146,19,,69,336,28,,63,355,23*74
$GPGSV,4,4,15,,65,177,24,,27,[2024/10/02, 12:55:21.380]280,32,,45,226,30*43
$GPGLL,0114.3119,N,10338.9101,E,045519,A,A*45[2024/10/02, 12:55:21.520]
$GPBOD,,T,,M,,*47
$GPBWC,045519,,,,,,T,,M,,N,,A*77
$GPVTG,156.4[2024/10/02, 12:55:21.661]1,T,156.25,M,0.00,N,0.00,K,A*21
$PGRME,14.47,M,17.36,M,22.60,M*2D[2024/10/02, 12:55:21.801]
$PGRMZ,12,f,3*28
$PGRMM,WGS 84*06
$HCHDM,,M*07
$WIMWV,,R,,,A*6[2024/10/02, 12:55:21.942]D
$GPAPB,V,V,,,N,V,V,,,,,,,,N*68
$GPZDA,045519,02,10,2024,-08,00[2024/10/02, 12:55:22.036]*66
[2024/10/02, 12:55:22.270]$GPRMC,045521,A,0114.3116,N,10338.9099,E,0.00,156.01,02102[2024/10/02, 12:55:22.535]4,0.16,E,A*2C
$GPRMB,A,,,,,,,,,,,,V,A*1C
$GPGGA,045521,0114.3116[2024/10/02, 12:55:22.676],N,10338.9099,E,1,15,0.73,3.10,M,9.59,M,,*43
$GPGSA,A,3,10,12,18,2[2024/10/02, 12:55:22.817]3,25,28,29,32,,,,,1.41,0.73,1.20*0C
$GPGSV,4,1,15,10,23,347,25,12,[2024/10/02, 12:55:22.957]21,081,15,18,62,175,24,23,44,029,23*71
$GPGSV,4,2,15,25,43,119,17,[2024/10/02, 12:55:23.098]28,52,239,28,29,14,158,21,32,24,318,25*70
$GPGSV,4,3,15,,32,107,16[2024/10/02, 12:55:23.238],,46,146,19,,69,336,28,,63,355,25*71
$GPGSV,4,4,15,,65,177,24,,27,[2024/10/02, 12:55:23.379]280,32,,45,226,30*43
$GPGLL,0114.3116,N,10338.9099,E,045521,A,A*41[2024/10/02, 12:55:23.520]
$GPBOD,,T,,M,,*47
$GPBWC,045521,,,,,,T,,M,,N,,A*7C
$GPVTG,156.[2024/10/02, 12:55:23.660]01,T,155.85,M,0.00,N,0.00,K,A*2C
$PGRME,14.49,M,17.27,M,22.54,M*24[2024/10/02, 12:55:23.801]
$PGRMZ,10,f,3*2A
$PGRMM,WGS 84*06
$HCHDM,,M*07
$WIMWV,,R,,,A*[2024/10/02, 12:55:23.941]6D
$GPAPB,V,V,,,N,V,V,,,,,,,,N*68
$GPZDA,045521,02,10,2024,-08,0[2024/10/02, 12:55:24.035]0*6D
[2024/10/02, 12:55:24.269]$GPRMC,045523,A,0114.3115,N,10338.9092,E,0.00,156.01,0210[2024/10/02, 12:55:24.535]24,0.16,E,A*26
$GPRMB,A,,,,,,,,,,,,V,A*1C
$GPGGA,045523,0114.3115[2024/10/02, 12:55:24.676],N,10338.9092,E,1,15,0.73,3.32,M,9.59,M,,*49
$GPGSA,A,3,10,12,18,2[2024/10/02, 12:55:24.816]3,25,28,29,32,,,,,1.41,0.73,1.20*0C
$GPGSV,4,1,15,10,23,347,26,12,[2024/10/02, 12:55:24.957]21,081,15,18,62,175,26,23,44,029,22*71
$GPGSV,4,2,15,25,43,119,17,[2024/10/02, 12:55:25.097]28,52,239,28,29,14,158,18,32,24,318,26*79
$GPGSV,4,3,15,,32,107,15[2024/10/02, 12:55:25.238],,46,146,17,,69,336,27,,63,355,23*75
$GPGSV,4,4,15,,65,177,23,,27,[2024/10/02, 12:55:25.379]280,32,,45,226,30*44
$GPGLL,0114.3115,N,10338.9092,E,045523,A,A*4B[2024/10/02, 12:55:25.519]
$GPBOD,,T,,M,,*47
$GPBWC,045523,,,,,,T,,M,,N,,A*7E
$GPVTG,156.[2024/10/02, 12:55:25.660]01,T,155.85,M,0.00,N,0.00,K,A*2C
$PGRME,14.50,M,17.30,M,22.58,M*2[2024/10/02, 12:55:25.800]6
$PGRMZ,11,f,3*2B
$PGRMM,WGS 84*06
$HCHDM,,M*07
$WIMWV,,R,,,A[2024/10/02, 12:55:25.941]*6D
$GPAPB,V,V,,,N,V,V,,,,,,,,N*68
$GPZDA,045523,02,10,2024,-08,0[2024/10/02, 12:55:26.035]0*6F
[2024/10/02, 12:55:26.269]$GPRMC,045525,A,0114.3116,N,10338.9094,E,0.00,156.23,0210[2024/10/02, 12:55:26.535]24,0.16,E,A*25
$GPRMB,A,,,,,,,,,,,,V,A*1C
$GPGGA,045525,0114.3116[2024/10/02, 12:55:26.675],N,10338.9094,E,1,15,0.73,3.50,M,9.59,M,,*4E
$GPGSA,A,3,10,12,18,2[2024/10/02, 12:55:26.816]3,25,28,29,32,,,,,1.41,0.73,1.20*0C
$GPGSV,4,1,15,10,23,347,27,12,[2024/10/02, 12:55:26.956]21,081,16,18,62,175,23,23,44,029,24*70
$GPGSV,4,2,15,25,43,119,18,[2024/10/02, 12:55:27.097]28,52,239,28,29,14,158,16,32,24,318,25*7B
$GPGSV,4,3,15,,32,107,15[2024/10/02, 12:55:27.237],,46,146,19,,69,336,27,,63,355,23*7B
$GPGSV,4,4,15,,65,177,23,,27,[2024/10/02, 12:55:27.378]280,33,,45,226,29*4D
$GPGLL,0114.3116,N,10338.9094,E,045525,A,A*4[2024/10/02, 12:55:27.519]8
$GPBOD,,T,,M,,*47
$GPBWC,045525,,,,,,T,,M,,N,,A*78
$GPVTG,156[2024/10/02, 12:55:27.659].23,T,156.07,M,0.00,N,0.00,K,A*25
$PGRME,14.52,M,17.22,M,22.52,M*2[2024/10/02, 12:55:27.800]D
$PGRMZ,11,f,3*2B
$PGRMM,WGS 84*06
$HCHDM,,M*07
$WIMWV,,R,,,A[2024/10/02, 12:55:27.940]*6D
$GPAPB,V,V,,,N,V,V,,,,,,,,N*68
$GPZDA,045525,02,10,2024,-08,0[2024/10/02, 12:55:28.034]0*69
[2024/10/02, 12:55:28.268]$GPRMC,045527,A,0114.3117,N,10338.9091,E,0.00,156.16,0210[2024/10/02, 12:55:28.534]24,0.16,E,A*25
$GPRMB,A,,,,,,,,,,,,V,A*1C
$GPGGA,045527,0114.311[2024/10/02, 12:55:28.675]7,N,10338.9091,E,1,15,0.73,3.55,M,9.59,M,,*4D
$GPGSA,A,3,10,12,18,[2024/10/02, 12:55:28.815]23,25,28,29,32,,,,,1.41,0.73,1.20*0C
$GPGSV,4,1,15,10,23,347,25,12[2024/10/02, 12:55:28.956],21,081,16,18,62,175,25,23,44,029,21*71
$GPGSV,4,2,15,25,43,119,17[2024/10/02, 12:55:29.096],28,52,239,27,29,14,158,19,32,24,318,25*74
$GPGSV,4,3,15,,32,107,1[2024/10/02, 12:55:29.237]5,,46,146,16,,69,336,26,,63,355,24*72
$GPGSV,4,4,15,,65,177,22,,27[2024/10/02, 12:55:29.378],280,32,,45,226,30*45
$GPGLL,0114.3117,N,10338.9091,E,045527,A,A*4[2024/10/02, 12:55:29.518]E
$GPBOD,,T,,M,,*47
$GPBWC,045527,,,,,,T,,M,,N,,A*7A
$GPVTG,156[2024/10/02, 12:55:29.659].16,T,156.00,M,0.00,N,0.00,K,A*24
$PGRME,14.53,M,17.07,M,22.42,M*2[2024/10/02, 12:55:29.799]A
$PGRMZ,12,f,3*28
$PGRMM,WGS 84*06
$HCHDM,,M*07
$WIMWV,,R,,,A[2024/10/02, 12:55:29.940]*6D
$GPAPB,V,V,,,N,V,V,,,,,,,,N*68
$GPZDA,045527,02,10,2024,-08,0[2024/10/02, 12:55:30.034]0*6B
[2024/10/02, 12:55:30.268]$GPRMC,045529,A,0114.3118,N,10338.9092,E,0.00,156.13,0210[2024/10/02, 12:55:30.533]24,0.16,E,A*22
$GPRMB,A,,,,,,,,,,,,V,A*1C
$GPGGA,045529,0114.311[2024/10/02, 12:55:30.674]8,N,10338.9092,E,1,15,0.73,3.93,M,9.59,M,,*45
$GPGSA,A,3,10,12,18,[2024/10/02, 12:55:30.815]23,25,28,29,32,,,,,1.41,0.73,1.20*0C
$GPGSV,4,1,15,10,23,347,26,12[2024/10/02, 12:55:30.955],21,081,20,18,62,175,22,23,44,029,22*73
$GPGSV,4,2,15,25,43,119,18[2024/10/02, 12:55:31.096],28,52,239,28,29,14,158,17,32,24,318,25*7A
$GPGSV,4,3,15,,32,107,1[2024/10/02, 12:55:31.237]4,,46,146,16,,69,336,27,,63,355,25*73
$GPGSV,4,4,15,,65,177,25,,27[2024/10/02, 12:55:31.377],279,33,,45,226,30*45
$GPGLL,0114.3118,N,10338.9092,E,045529,A,A*4[2024/10/02, 12:55:31.518]C
$GPBOD,,T,,M,,*47
$GPBWC,045529,,,,,,T,,M,,N,,A*74
$GPVTG,156[2024/10/02, 12:55:31.658].13,T,155.97,M,0.00,N,0.00,K,A*2C
$PGRME,14.55,M,17.16,M,22.50,M*2[2024/10/02, 12:55:31.799]F
$PGRMZ,13,f,3*29
$PGRMM,WGS 84*06
$HCHDM,,M*07
$WIMWV,,R,,,A[2024/10/02, 12:55:31.939]*6D
$GPAPB,V,V,,,N,V,V,,,,,,,,N*68
$GPZDA,045529,02,10,2024,-08,0[2024/10/02, 12:55:32.033]0*65
[2024/10/02, 12:55:32.267]$GPRMC,045531,A,0114.3116,N,10338.9095,E,0.00,156.13,021[2024/10/02, 12:55:32.533]024,0.16,E,A*22
$GPRMB,A,,,,,,,,,,,,V,A*1C
$GPGGA,045531,0114.311[2024/10/02, 12:55:32.674]6,N,10338.9095,E,1,15,0.73,3.46,M,9.59,M,,*4D
$GPGSA,A,3,10,12,18,[2024/10/02, 12:55:32.814]23,25,28,29,32,,,,,1.41,0.73,1.20*0C
$GPGSV,4,1,15,10,23,347,26,1[2024/10/02, 12:55:32.955]2,21,081,20,18,62,175,20,23,44,029,21*72
$GPGSV,4,2,15,25,43,119,1[2024/10/02, 12:55:33.095]8,28,52,239,28,29,14,158,21,32,24,318,25*7F
$GPGSV,4,3,15,,32,107,[2024/10/02, 12:55:33.236]15,,46,146,20,,69,336,27,,63,355,24*76
$GPGSV,4,4,15,,65,177,23,,27[2024/10/02, 12:55:33.377],279,33,,44,225,30*41
$GPGLL,0114.3116,N,10338.9095,E,045531,A,A*[2024/10/02, 12:55:33.517]4C
$GPBOD,,T,,M,,*47
$GPBWC,045531,,,,,,T,,M,,N,,A*7D
$GPVTG,156[2024/10/02, 12:55:33.658].13,T,155.97,M,0.00,N,0.00,K,A*2C
$PGRME,14.56,M,17.00,M,22.38,M*2[2024/10/02, 12:55:33.798]5
$PGRMZ,11,f,3*2B
$PGRMM,WGS 84*06
$HCHDM,,M*07
$WIMWV,,R,,,A[2024/10/02, 12:55:33.939]*6D
$GPAPB,V,V,,,N,V,V,,,,,,,,N*68
$GPZDA,045531,02,10,2024,-08,[2024/10/02, 12:55:34.033]00*6C
[2024/10/02, 12:55:34.267]$GPRMC,045533,A,0114.3113,N,10338.9091,E,0.00,156.17,021[2024/10/02, 12:55:34.533]024,0.16,E,A*25
$GPRMB,A,,,,,,,,,,,,V,A*1C
$GPGGA,045533,0114.311[2024/10/02, 12:55:34.673]3,N,10338.9091,E,1,15,0.73,3.35,M,9.59,M,,*4A
$GPGSA,A,3,10,12,18,[2024/10/02, 12:55:34.814]23,25,28,29,32,,,,,1.41,0.73,1.20*0C
$GPGSV,4,1,15,10,23,347,26,12[2024/10/02, 12:55:34.954],21,081,17,18,62,175,25,23,44,029,22*70
$GPGSV,4,2,15,25,43,119,18[2024/10/02, 12:55:35.095],28,52,239,27,29,14,158,19,32,24,318,24*7A
$GPGSV,4,3,15,,32,107,1[2024/10/02, 12:55:35.236]4,,46,146,16,,69,336,27,,63,355,24*72
$GPGSV,4,4,15,,65,177,23,,27[2024/10/02, 12:55:35.376],279,33,,44,225,30*41
$GPGLL,0114.3113,N,10338.9091,E,045533,A,A*4[2024/10/02, 12:55:35.517]F
$GPBOD,,T,,M,,*47
$GPBWC,045533,,,,,,T,,M,,N,,A*7F
$GPVTG,156[2024/10/02, 12:55:35.657].17,T,156.01,M,0.00,N,0.00,K,A*24
$PGRME,14.58,M,16.99,M,22.39,M*2[2024/10/02, 12:55:35.798]B
$PGRMZ,11,f,3*2B
$PGRMM,WGS 84*06
$HCHDM,,M*07
$WIMWV,,R,,,A[2024/10/02, 12:55:35.939]*6D
$GPAPB,V,V,,,N,V,V,,,,,,,,N*68
$GPZDA,045533,02,10,2024,-08,0[2024/10/02, 12:55:36.032]0*6E
[2024/10/02, 12:55:36.267]$GPRMC,045535,A,0114.3111,N,10338.9092,E,0.00,156.15,021[2024/10/02, 12:55:36.532]024,0.16,E,A*20
$GPRMB,A,,,,,,,,,,,,V,A*1C
$GPGGA,045535,0114.311[2024/10/02, 12:55:36.673]1,N,10338.9092,E,1,15,0.73,3.17,M,9.59,M,,*4D
$GPGSA,A,3,10,12,18,[2024/10/02, 12:55:36.813]23,25,28,29,32,,,,,1.41,0.73,1.20*0C
$GPGSV,4,1,15,10,23,347,25,12[2024/10/02, 12:55:36.954],21,081,21,18,62,175,22,23,44,029,22*71
$GPGSV,4,2,15,25,43,119,19[2024/10/02, 12:55:37.094],28,52,239,28,29,14,158,17,32,24,318,25*7B
$GPGSV,4,3,15,,32,107,1[2024/10/02, 12:55:37.235]5,,46,146,16,,69,336,28,,63,355,23*7B
$GPGSV,4,4,15,,65,177,26,,27[2024/10/02, 12:55:37.376],279,32,,44,225,29*4D
$GPGLL,0114.3111,N,10338.9092,E,045535,A,A*[2024/10/02, 12:55:37.516]48
$GPBOD,,T,,M,,*47
$GPBWC,045535,,,,,,T,,M,,N,,A*79
$GPVTG,156[2024/10/02, 12:55:37.657].15,T,155.99,M,0.00,N,0.00,K,A*24
$PGRME,14.59,M,17.00,M,22.40,M*2[2024/10/02, 12:55:37.798]5
$PGRMZ,10,f,3*2A
$PGRMM,WGS 84*06
$HCHDM,,M*07
$WIMWV,,R,,,A[2024/10/02, 12:55:37.938]*6D
$GPAPB,V,V,,,N,V,V,,,,,,,,N*68
$GPZDA,045535,02,10,2024,-08,[2024/10/02, 12:55:38.032]00*68
[2024/10/02, 12:55:38.266]$GPRMC,045537,A,0114.3109,N,10338.9093,E,0.00,156.15,021[2024/10/02, 12:55:38.532]024,0.16,E,A*2A
$GPRMB,A,,,,,,,,,,,,V,A*1C
$GPGGA,045537,0114.310[2024/10/02, 12:55:38.672]9,N,10338.9093,E,1,15,0.73,2.59,M,9.59,M,,*4C
$GPGSA,A,3,10,12,18[2024/10/02, 12:55:38.813],23,25,28,29,32,,,,,1.41,0.73,1.20*0C
$GPGSV,4,1,15,10,23,347,26,1[2024/10/02, 12:55:38.953]2,21,081,21,18,62,175,24,23,44,029,20*76
$GPGSV,4,2,15,25,43,119,1[2024/10/02, 12:55:39.094]7,28,52,239,27,29,14,158,17,32,24,318,26*79
$GPGSV,4,3,15,,32,107,[2024/10/02, 12:55:39.235]15,,46,146,21,,69,336,27,,63,355,24*77
$GPGSV,4,4,15,,65,177,26,,2[2024/10/02, 12:55:39.375]7,279,32,,44,225,30*45
$GPGLL,0114.3109,N,10338.9093,E,045537,A,A*[2024/10/02, 12:55:39.516]42
$GPBOD,,T,,M,,*47
$GPBWC,045537,,,,,,T,,M,,N,,A*7B
$GPVTG,156[2024/10/02, 12:55:39.656].15,T,155.99,M,0.00,N,0.00,K,A*24
$PGRME,14.61,M,16.92,M,22.36,M*[2024/10/02, 12:55:39.797]25
$PGRMZ,8,f,3*13
$PGRMM,WGS 84*06
$HCHDM,,M*07
$WIMWV,,R,,,A*[2024/10/02, 12:55:39.938]6D
$GPAPB,V,V,,,N,V,V,,,,,,,,N*68
$GPZDA,045537,02,10,2024,-08,0[2024/10/02, 12:55:40.031]0*6A
[2024/10/02, 12:55:40.266]$GPRMC,045539,A,0114.3105,N,10338.9093,E,0.00,156.15,021[2024/10/02, 12:55:40.531]024,0.16,E,A*28
$GPRMB,A,,,,,,,,,,,,V,A*1C
$GPGGA,045539,0114.31[2024/10/02, 12:55:40.672]05,N,10338.9093,E,1,15,0.73,2.01,M,9.59,M,,*43
$GPGSA,A,3,10,12,18[2024/10/02, 12:55:40.812],23,25,28,29,32,,,,,1.41,0.73,1.20*0C
$GPGSV,4,1,15,10,23,347,27,1[2024/10/02, 12:55:40.953]2,21,081,17,18,62,175,24,23,44,029,21*73
$GPGSV,4,2,15,25,43,119,1[2024/10/02, 12:55:41.093]8,28,52,239,28,29,14,158,19,32,24,318,23*72
$GPGSV,4,3,15,,32,107,[2024/10/02, 12:55:41.234]15,,46,146,16,,69,336,27,,63,355,23*74
$GPGSV,4,4,15,,65,177,23,,2[2024/10/02, 12:55:41.375]7,279,32,,44,225,30*40
$GPGLL,0114.3105,N,10338.9093,E,045539,A,A*[2024/10/02, 12:55:41.515]40
$GPBOD,,T,,M,,*47
$GPBWC,045539,,,,,,T,,M,,N,,A*75
$GPVTG,15[2024/10/02, 12:55:41.656]6.15,T,155.99,M,0.00,N,0.00,K,A*24
$PGRME,14.62,M,16.83,M,22.30,M*[2024/10/02, 12:55:41.797]20
$PGRMZ,7,f,3*1C
$PGRMM,WGS 84*06
$HCHDM,,M*07
$WIMWV,,R,,,A[2024/10/02, 12:55:41.937]*6D
$GPAPB,V,V,,,N,V,V,,,,,,,,N*68
$GPZDA,045539,02,10,2024,-08,0[2024/10/02, 12:55:42.031]0*64
[2024/10/02, 12:55:42.265]$GPRMC,045541,A,0114.3102,N,10338.9098,E,0.00,156.16,02[2024/10/02, 12:55:42.531]1024,0.16,E,A*28
$GPRMB,A,,,,,,,,,,,,V,A*1C
$GPGGA,045541,0114.31[2024/10/02, 12:55:42.671]02,N,10338.9098,E,1,15,0.73,1.37,M,9.59,M,,*46
$GPGSA,A,3,10,12,18[2024/10/02, 12:55:42.812],23,25,28,29,32,,,,,1.41,0.73,1.20*0C
$GPGSV,4,1,15,10,23,347,27,1[2024/10/02, 12:55:42.952]2,21,081,20,18,62,175,24,23,44,029,22*74
$GPGSV,4,2,15,25,43,119,1[2024/10/02, 12:55:43.093]8,28,52,239,28,29,14,158,18,32,24,318,26*76
$GPGSV,4,3,15,,32,107,[2024/10/02, 12:55:43.234]14,,46,146,16,,69,336,27,,63,355,24*72
$GPGSV,4,4,15,,65,177,23,,2[2024/10/02, 12:55:43.374]7,279,33,,44,225,30*41
$GPGLL,0114.3102,N,10338.9098,E,045541,A,A*[2024/10/02, 12:55:43.515]43
$GPBOD,,T,,M,,*47
$GPBWC,045541,,,,,,T,,M,,N,,A*7A
$GPVTG,15[2024/10/02, 12:55:43.655]6.16,T,156.00,M,0.00,N,0.00,K,A*24
$PGRME,14.64,M,16.85,M,22.32,M*[2024/10/02, 12:55:43.796]22
$PGRMZ,4,f,3*1F
$PGRMM,WGS 84*06
$HCHDM,,M*07
$WIMWV,,R,,,A[2024/10/02, 12:55:43.937]*6D
$GPAPB,V,V,,,N,V,V,,,,,,,,N*68
$GPZDA,045541,02,10,2024,-08,0[2024/10/02, 12:55:44.030]0*6B
[2024/10/02, 12:55:44.265]$GPRMC,045543,A,0114.3101,N,10338.9108,E,0.98,102.73,02[2024/10/02, 12:55:44.530]1024,0.16,E,A*22
$GPRMB,A,,,,,,,,,,,,V,A*1C
$GPGGA,045543,0114.31[2024/10/02, 12:55:44.671]01,N,10338.9108,E,1,15,0.73,0.86,M,9.59,M,,*44
$GPGSA,A,3,10,12,18[2024/10/02, 12:55:44.812],23,25,28,29,32,,,,,1.41,0.73,1.20*0C
$GPGSV,4,1,15,10,23,347,26,1[2024/10/02, 12:55:44.952]2,21,081,16,18,62,175,24,23,44,029,20*72
$GPGSV,4,2,15,25,43,119,1[2024/10/02, 12:55:45.093]8,28,52,239,28,29,14,158,19,32,24,318,26*77
$GPGSV,4,3,15,,32,107,[2024/10/02, 12:55:45.233]14,,46,146,17,,69,336,28,,63,355,23*7B
$GPGSV,4,4,15,,65,177,25,,2[2024/10/02, 12:55:45.374]7,279,32,,44,225,28*4F
$GPGLL,0114.3101,N,10338.9108,E,045543,A,A*[2024/10/02, 12:55:45.514]4A
$GPBOD,,T,,M,,*47
$GPBWC,045543,,,,,,T,,M,,N,,A*78
$GPVTG,10[2024/10/02, 12:55:45.655]2.73,T,102.57,M,0.98,N,1.82,K,A*2F
$PGRME,14.65,M,16.83,M,22.31,M*[2024/10/02, 12:55:45.796]26
$PGRMZ,3,f,3*18
$PGRMM,WGS 84*06
$HCHDM,,M*07
$WIMWV,,R,,,A[2024/10/02, 12:55:45.936]*6D
$GPAPB,V,V,,,N,V,V,,,,,,,,N*68
$GPZDA,045543,02,10,2024,-08,[2024/10/02, 12:55:46.030]00*69
[2024/10/02, 12:55:46.264]$GPRMC,045546,A,0114.3101,N,10338.9119,E,0.70,128.55,02[2024/10/02, 12:55:46.530]1024,0.16,E,A*2D
$GPRMB,A,,,,,,,,,,,,V,A*1C
$GPGGA,045546,0114.3[2024/10/02, 12:55:46.670]101,N,10338.9119,E,1,10,0.91,0.05,M,9.59,M,,*43
$GPGSA,A,3,10,12,1[2024/10/02, 12:55:46.811]8,23,25,28,29,32,,,,,1.88,0.91,1.65*04
$GPGSV,4,1,15,10,23,347,24,[2024/10/02, 12:55:46.952]12,21,081,17,18,62,175,23,23,44,029,22*74
$GPGSV,4,2,15,25,43,119,[2024/10/02, 12:55:47.092]18,28,52,239,28,29,14,158,19,32,24,318,25*74
$GPGSV,4,3,15,,32,107[2024/10/02, 12:55:47.233],14,,46,146,17,,69,336,27,,63,355,23*74
$GPGSV,4,4,15,,65,177,24,,[2024/10/02, 12:55:47.373]27,279,32,,44,225,30*47
$GPGLL,0114.3101,N,10338.9119,E,045546,A,A[2024/10/02, 12:55:47.514]*4F
$GPBOD,,T,,M,,*47
$GPBWC,045546,,,,,,T,,M,,N,,A*7D
$GPVTG,1[2024/10/02, 12:55:47.654]28.55,T,128.39,M,0.70,N,1.30,K,A*2C
$PGRME,14.68,M,17.26,M,22.66,M[2024/10/02, 12:55:47.795]*27
$PGRMZ,0,f,3*1B
$PGRMM,WGS 84*06
$HCHDM,,M*07
$WIMWV,,R,,,[2024/10/02, 12:55:47.936]A*6D
$GPAPB,V,V,,,N,V,V,,,,,,,,N*68
$GPZDA,045546,02,10,2024,-08[2024/10/02, 12:55:48.029],00*6C
[2024/10/02, 12:55:48.264]$GPRMC,045548,A,0114.3103,N,10338.9131,E,0.87,93.07,021[2024/10/02, 12:55:48.529]024,0.16,E,A*15
$GPRMB,A,,,,,,,,,,,,V,A*1C
$GPGGA,045548,0114.31[2024/10/02, 12:55:48.670]03,N,10338.9131,E,1,10,0.91,-0.42,M,9.60,M,,*61
$GPGSA,A,3,10,12,1[2024/10/02, 12:55:48.811]8,23,25,28,29,32,,,,,1.88,0.91,1.65*04
$GPGSV,4,1,15,10,23,347,27,[2024/10/02, 12:55:48.951]12,21,081,17,18,62,175,25,23,44,029,21*72
$GPGSV,4,2,15,25,43,119,[2024/10/02, 12:55:49.092]17,28,52,239,29,29,14,158,17,32,24,318,26*77
$GPGSV,4,3,15,,32,107[2024/10/02, 12:55:49.232],15,,46,146,19,,69,336,27,,63,355,24*7C
$GPGSV,4,4,15,,65,177,22,,[2024/10/02, 12:55:49.373]27,279,32,,44,225,30*41
$GPGLL,0114.3103,N,10338.9131,E,045548,A,[2024/10/02, 12:55:49.513]A*49
$GPBOD,,T,,M,,*47
$GPBWC,045548,,,,,,T,,M,,N,,A*73
$GPVTG,9[2024/10/02, 12:55:49.654]3.07,T,92.91,M,0.87,N,1.62,K,A*27
$PGRME,14.72,M,17.87,M,23.15,M*[2024/10/02, 12:55:49.795]22
$PGRMZ,-1,f,3*37
$PGRMM,WGS 84*06
$HCHDM,,M*07
$WIMWV,,R,,,[2024/10/02, 12:55:49.935]A*6D
$GPAPB,V,V,,,N,V,V,,,,,,,,N*68
$GPZDA,045548,02,10,2024,-08,[2024/10/02, 12:55:50.029]00*62
[2024/10/02, 12:55:50.263]$GPRMC,045550,A,0114.3102,N,10338.9140,E,0.96,95.15,02[2024/10/02, 12:55:50.529]1024,0.16,E,A*1E
$GPRMB,A,,,,,,,,,,,,V,A*1C
$GPGGA,045550,0114.31[2024/10/02, 12:55:50.669]02,N,10338.9140,E,1,10,0.91,-0.72,M,9.60,M,,*6C
$GPGSA,A,3,10,12,1[2024/10/02, 12:55:50.810]8,23,25,28,29,32,,,,,1.88,0.91,1.65*04
$GPGSV,4,1,15,10,23,347,26,[2024/10/02, 12:55:50.951]12,21,081,16,18,62,175,24,23,44,029,21*73
$GPGSV,4,2,15,25,43,119,[2024/10/02, 12:55:51.091]17,28,52,239,28,29,14,158,18,32,24,318,24*7B
$GPGSV,4,3,15,,32,107[2024/10/02, 12:55:51.232],15,,46,146,19,,69,336,27,,63,355,25*7D
$GPGSV,4,4,15,,65,177,22,,[2024/10/02, 12:55:51.372]27,279,32,,44,225,30*41
$GPGLL,0114.3102,N,10338.9140,E,045550,A,[2024/10/02, 12:55:51.513]A*47
$GPBOD,,T,,M,,*47
$GPBWC,045550,,,,,,T,,M,,N,,A*7A
$GPVTG,9[2024/10/02, 12:55:51.653]5.15,T,94.99,M,0.96,N,1.77,K,A*28
$PGRME,14.73,M,18.13,M,23.36,M*2[2024/10/02, 12:55:51.794]0
$PGRMZ,-2,f,3*34
$PGRMM,WGS 84*06
$HCHDM,,M*07
$WIMWV,,R,,,A[2024/10/02, 12:55:51.935]*6D
$GPAPB,V,V,,,N,V,V,,,,,,,,N*68
$GPZDA,045550,02,10,2024,-08,[2024/10/02, 12:55:52.029]00*6B
[2024/10/02, 12:55:52.263]$GPRMC,045551,A,0114.3099,N,10338.9132,E,0.88,97.69,02[2024/10/02, 12:55:52.528]1024,0.16,E,A*1F
$GPRMB,A,,,,,,,,,,,,V,A*1C
$GPGGA,045551,0114.30[2024/10/02, 12:55:52.669]99,N,10338.9132,E,1,15,0.73,-1.16,M,9.60,M,,*61
$GPGSA,A,3,10,12,1[2024/10/02, 12:55:52.810]8,23,25,28,29,32,,,,,1.41,0.73,1.20*0C
$GPGSV,4,1,15,10,23,347,26,[2024/10/02, 12:55:52.950]12,21,081,17,18,62,175,23,23,44,029,22*76
$GPGSV,4,2,15,25,43,119,[2024/10/02, 12:55:53.091]18,28,52,239,28,29,14,158,18,32,24,318,24*74
$GPGSV,4,3,15,,32,107[2024/10/02, 12:55:53.231],15,,46,146,17,,69,336,26,,63,355,23*74
$GPGSV,4,4,15,,65,177,22,,[2024/10/02, 12:55:53.372]27,279,32,,44,225,29*49
$GPGLL,0114.3099,N,10338.9132,E,045551,A,A[2024/10/02, 12:55:53.512]*40
$GPBOD,,T,,M,,*47
$GPBWC,045551,,,,,,T,,M,,N,,A*7B
$GPVTG,9[2024/10/02, 12:55:53.653]7.69,T,97.53,M,0.88,N,1.64,K,A*29
$PGRME,14.77,M,18.06,M,23.33,M*2[2024/10/02, 12:55:53.794]5
$PGRMZ,-4,f,3*32
$PGRMM,WGS 84*06
$HCHDM,,M*07
$WIMWV,,R,,,A[2024/10/02, 12:55:53.934]*6D
$GPAPB,V,V,,,N,V,V,,,,,,,,N*68
$GPZDA,045551,02,10,2024,-08,[2024/10/02, 12:55:54.028]00*6A
[2024/10/02, 12:55:54.262]$GPRMC,045554,A,0114.3100,N,10338.9136,E,0.47,102.99,0[2024/10/02, 12:55:54.528]21024,0.16,E,A*2E
$GPRMB,A,,,,,,,,,,,,V,A*1C
$GPGGA,045554,0114[2024/10/02, 12:55:54.669].3100,N,10338.9136,E,1,15,0.91,-1.20,M,9.60,M,,*68
$GPGSA,A,3,10,1[2024/10/02, 12:55:54.809]2,18,23,25,28,29,32,,,,,1.88,0.91,1.65*04
$GPGSV,4,1,15,10,24,348,[2024/10/02, 12:55:54.950]25,12,21,081,16,18,62,175,25,23,44,029,22*7A
$GPGSV,4,2,15,25,43,1[2024/10/02, 12:55:55.090]19,19,28,52,239,27,29,14,158,17,32,24,318,25*74
$GPGSV,4,3,15,,32,[2024/10/02, 12:55:55.231]107,15,,46,146,16,,69,336,25,,63,355,24*71
$GPGSV,4,4,15,,65,177,2[2024/10/02, 12:55:55.372]2,,27,279,31,,44,225,30*42
$GPGLL,0114.3100,N,10338.9136,E,045554,[2024/10/02, 12:55:55.512]A,A*40
$GPBOD,,T,,M,,*47
$GPBWC,045554,,,,,,T,,M,,N,,A*7E
$GPVTG[2024/10/02, 12:55:55.653],102.99,T,102.83,M,0.47,N,0.88,K,A*2B
$PGRME,14.82,M,18.36,M,23.5[2024/10/02, 12:55:55.793]9,M*20
$PGRMZ,-4,f,3*32
$PGRMM,WGS 84*06
$HCHDM,,M*07
$WIMWV,,R[2024/10/02, 12:55:55.934],,,A*6D
$GPAPB,V,V,,,N,V,V,,,,,,,,N*68
$GPZDA,045554,02,10,2024,[2024/10/02, 12:55:56.043]-08,00*6F
[2024/10/02, 12:55:56.262]$GPRMC,045555,A,0114.3098,N,10338.9134,E,0.36,104.08,0[2024/10/02, 12:55:56.527]21024,0.16,E,A*25
$GPRMB,A,,,,,,,,,,,,V,A*1C
$GPGGA,045555,0114.3[2024/10/02, 12:55:56.668]098,N,10338.9134,E,1,10,0.73,-1.56,M,9.60,M,,*63
$GPGSA,A,3,10,12,[2024/10/02, 12:55:56.809]18,23,25,28,29,32,,,,,1.41,0.73,1.21*0D
$GPGSV,4,1,15,10,24,348,2[2024/10/02, 12:55:56.949]6,12,21,081,16,18,62,175,23,23,44,029,21*7C
$GPGSV,4,2,15,25,43,119[2024/10/02, 12:55:57.090],20,28,52,239,27,29,14,158,19,32,24,318,26*73
$GPGSV,4,3,15,,32,10[2024/10/02, 12:55:57.230]7,15,,46,146,16,,69,336,26,,63,355,24*72
$GPGSV,4,4,15,,65,177,23,[2024/10/02, 12:55:57.371],27,279,32,,44,225,29*48
$GPGLL,0114.3098,N,10338.9134,E,045555,A[2024/10/02, 12:55:57.512],A*43
$GPBOD,,T,,M,,*47
$GPBWC,045555,,,,,,T,,M,,N,,A*7F
$GPVTG,[2024/10/02, 12:55:57.652]104.08,T,103.91,M,0.36,N,0.67,K,A*20
$PGRME,14.84,M,18.27,M,23.54,[2024/10/02, 12:55:57.793]M*2B
$PGRMZ,-5,f,3*33
$PGRMM,WGS 84*06
$HCHDM,,M*07
$WIMWV,,R,[2024/10/02, 12:55:57.933],,A*6D
$GPAPB,V,V,,,N,V,V,,,,,,,,N*68
$GPZDA,045555,02,10,2024,-[2024/10/02, 12:55:58.043]08,00*6E
[2024/10/02, 12:55:58.261]$GPRMC,045557,A,0114.3098,N,103[2024/10/02, 12:55:58.480]38.9134,E,0.00,106.78,021024,0.16,E,A*27
$GPRMB,A,,,,,,,,,,,,V,A*1[2024/10/02, 12:55:58.621]C
$GPGGA,045557,0114.3098,N,10338.9134,E,1,15,0.73,-2.59,M,9.60,M,[2024/10/02, 12:55:58.761],*68
$GPGSA,A,3,10,12,18,23,25,28,29,32,,,,,1.41,0.73,1.20*0C
$G[2024/10/02, 12:55:58.902]PGSV,4,1,15,10,24,348,24,12,21,080,16,18,62,175,24,23,44,029,23*7A[2024/10/02, 12:55:59.042]
$GPGSV,4,2,15,25,43,119,18,28,52,239,26,29,14,158,19,32,24,318,28*[2024/10/02, 12:55:59.183]77
$GPGSV,4,3,15,,32,107,15,,46,146,24,,69,336,27,,63,355,25*73
$[2024/10/02, 12:55:59.324]GPGSV,4,4,15,,65,177,23,,27,279,32,,44,225,29*48
$GPGLL,0114.3098,[2024/10/02, 12:55:59.464]N,10338.9134,E,045557,A,A*41
$GPBOD,,T,,M,,*47
$GPBWC,045557,,,,,[2024/10/02, 12:55:59.605],T,,M,,N,,A*7D
$GPVTG,106.78,T,106.62,M,0.00,N,0.00,K,A*28
$PGRM[2024/10/02, 12:55:59.745]E,14.87,M,17.99,M,23.34,M*24
$PGRMZ,-8,f,3*3E
$PGRMM,WGS 84*06
$[2024/10/02, 12:55:59.886]HCHDM,,M*07
$WIMWV,,R,,,A*6D
$GPAPB,V,V,,,N,V,V,,,,,,,,N*68
$GP[2024/10/02, 12:56:00.027]ZDA,045557,02,10,2024,-08,00*6C
[2024/10/02, 12:56:00.261]$GPRMC,045559,A,0114.3096,N,103[2024/10/02, 12:56:00.480]38.9139,E,0.00,109.57,021024,0.16,E,A*28
$GPRMB,A,,,,,,,,,,,,V,A*1[2024/10/02, 12:56:00.620]C
$GPGGA,045559,0114.3096,N,10338.9139,E,1,15,0.73,-3.96,M,9.60,M,[2024/10/02, 12:56:00.761],*67
$GPGSA,A,3,10,12,18,23,25,28,29,32,,,,,1.41,0.73,1.20*0C
$GP[2024/10/02, 12:56:00.901]GSV,4,1,15,10,24,348,25,12,21,080,19,18,62,175,23,23,44,029,21*71
[2024/10/02, 12:56:01.042]$GPGSV,4,2,15,25,43,119,18,28,52,239,28,29,14,158,20,32,24,318,26*7[2024/10/02, 12:56:01.183]D
$GPGSV,4,3,15,,32,107,14,,46,146,24,,69,336,28,,63,355,24*7C
$G[2024/10/02, 12:56:01.323]PGSV,4,4,15,,65,177,23,,27,279,32,,44,225,29*48
$GPGLL,0114.3096,N[2024/10/02, 12:56:01.464],10338.9139,E,045559,A,A*4C
$GPBOD,,T,,M,,*47
$GPBWC,045559,,,,,[2024/10/02, 12:56:01.604],T,,M,,N,,A*73
$GPVTG,109.57,T,109.41,M,0.00,N,0.00,K,A*24
$PGRME[2024/10/02, 12:56:01.745],14.89,M,17.73,M,23.15,M*2D
$PGRMZ,-13,f,3*04
$PGRMM,WGS 84*06
[2024/10/02, 12:56:01.885]$HCHDM,,M*07
$WIMWV,,R,,,A*6D
$GPAPB,V,V,,,N,V,V,,,,,,,,N*68
$GP[2024/10/02, 12:56:02.026]ZDA,045559,02,10,2024,-08,00*62
[2024/10/02, 12:56:02.260]$GPRMC,045601,A,0114.3095,N,103[2024/10/02, 12:56:02.479]38.9132,E,0.00,106.69,021024,0.16,E,A*2C
$GPRMB,A,,,,,,,,,,,,V,A*1[2024/10/02, 12:56:02.620]C
$GPGGA,045601,0114.3095,N,10338.9132,E,1,15,0.73,-4.21,M,9.60,M,[2024/10/02, 12:56:02.760],*6A
$GPGSA,A,3,10,12,18,23,25,28,29,32,,,,,1.41,0.73,1.20*0C
$G[2024/10/02, 12:56:02.901]PGSV,4,1,15,10,24,348,26,12,21,080,19,18,62,175,22,23,44,029,24*76
[2024/10/02, 12:56:03.041]$GPGSV,4,2,15,25,43,119,18,28,52,239,28,29,14,158,17,32,24,318,26*7[2024/10/02, 12:56:03.182]9
$GPGSV,4,3,15,,32,107,14,,46,146,18,,69,336,28,,63,355,25*72
$G[2024/10/02, 12:56:03.323]PGSV,4,4,15,,65,177,25,,27,279,32,,44,225,29*4E
$GPGLL,0114.3095,[2024/10/02, 12:56:03.463]N,10338.9132,E,045601,A,A*4A
$GPBOD,,T,,M,,*47
$GPBWC,045601,,,,,[2024/10/02, 12:56:03.604],T,,M,,N,,A*7D
$GPVTG,106.69,T,106.53,M,0.00,N,0.00,K,A*2A
