[2024/10/02, 12:30:55.967]M,WGS 84*06
$HCHDM,,M*07
$WIMWV,,R,,,A*6D
$GPAPB,V,V,,,N,V,V,,,[2024/10/02, 12:30:56.092],,,,,N*68
$GPZDA,043053,02,10,2024,-08,00*6B
[2024/10/02, 12:30:56.295]$GPRMC,043055,A,0114.4826,N,10338.6278,E,3.80,178.39,021024[2024/10/02, 12:30:56.561],0.16,E,D*2A
$GPRMB,A,,,,,,,,,,,,V,D*19
$GPGGA,043055,0114.4826,[2024/10/02, 12:30:56.701]N,10338.6278,E,2,16,0.72,16.16,M,9.57,M,,*71
$GPGSA,A,3,10,12,18,2[2024/10/02, 12:30:56.842]3,25,28,29,32,,,,,1.23,0.72,1.00*0B
$GPGSV,5,1,17,10,16,341,19,12,[2024/10/02, 12:30:56.983]22,093,30,18,75,178,30,23,37,017,17*7A
$GPGSV,5,2,17,25,39,134,30,[2024/10/02, 12:30:57.123]28,44,225,19,29,18,167,25,32,26,306,14*77
$GPGSV,5,3,17,41,65,266,[2024/10/02, 12:30:57.264]25,,30,112,27,,49,142,29,,76,336,21*7B
$GPGSV,5,4,17,,06,153,19,,6[2024/10/02, 12:30:57.404]8,000,20,,54,181,28,,25,291,16*72
$GPGSV,5,5,17,,49,241,26*41
$GP[2024/10/02, 12:30:57.545]GLL,0114.4826,N,10338.6278,E,043055,A,D*4B
$GPBOD,,T,,M,,*47
$GPB[2024/10/02, 12:30:57.686]WC,043055,,,,,,T,,M,,N,,D*79
$GPVTG,178.39,T,178.23,M,3.80,N,7.03[2024/10/02, 12:30:57.826],K,D*22
$PGRME,16.46,M,17.22,M,23.82,M*26
$PGRMZ,53,f,3*2D
$PGRM[2024/10/02, 12:30:57.967]M,WGS 84*06
$HCHDM,,M*07
$WIMWV,,R,,,A*6D
$GPAPB,V,V,,,N,V,V,,,[2024/10/02, 12:30:58.092],,,,,N*68
$GPZDA,043055,02,10,2024,-08,00*6D
[2024/10/02, 12:30:58.295]$GPRMC,043057,A,0114.4796,N,10338.6272,E,3.87,179.65,02102[2024/10/02, 12:30:58.560]4,0.16,E,D*29
$GPRMB,A,,,,,,,,,,,,V,D*19
$GPGGA,043057,0114.4796,[2024/10/02, 12:30:58.701]N,10338.6272,E,2,16,0.72,14.29,M,9.57,M,,*73
$GPGSA,A,3,10,12,18,2[2024/10/02, 12:30:58.841]3,25,28,29,32,,,,,1.23,0.72,1.00*0B
$GPGSV,5,1,17,10,16,341,19,12,[2024/10/02, 12:30:58.982]22,093,30,18,75,178,30,23,37,017,19*74
$GPGSV,5,2,17,25,39,134,30,[2024/10/02, 12:30:59.123]28,44,225,21,29,18,167,25,32,26,306,17*7F
$GPGSV,5,3,17,41,65,266,[2024/10/02, 12:30:59.263]26,,30,112,25,,49,142,29,,76,336,21*7A
$GPGSV,5,4,17,,06,153,21,,6[2024/10/02, 12:30:59.404]8,000,20,,54,181,28,,25,291,16*79
$GPGSV,5,5,17,,49,241,27*40
$GP[2024/10/02, 12:30:59.544]GLL,0114.4796,N,10338.6272,E,043057,A,D*47
$GPBOD,,T,,M,,*47
$GPB[2024/10/02, 12:30:59.685]WC,043057,,,,,,T,,M,,N,,D*7B
$GPVTG,179.65,T,179.49,M,3.87,N,7.17[2024/10/02, 12:30:59.826],K,D*25
$PGRME,16.47,M,16.97,M,23.65,M*21
$PGRMZ,47,f,3*28
$PGRM[2024/10/02, 12:30:59.966]M,WGS 84*06
$HCHDM,,M*07
$WIMWV,,R,,,A*6D
$GPAPB,V,V,,,N,V,V,,,[2024/10/02, 12:31:00.091],,,,,N*68
$GPZDA,043057,02,10,2024,-08,00*6F
[2024/10/02, 12:31:00.294]$GPRMC,043059,A,0114.4765,N,10338.6265,E,4.04,180.31,02102[2024/10/02, 12:31:00.560]4,0.16,E,D*26
$GPRMB,A,,,,,,,,,,,,V,D*19
$GPGGA,043059,0114.4765,[2024/10/02, 12:31:00.700]N,10338.6265,E,2,16,0.72,12.85,M,9.57,M,,*77
$GPGSA,A,3,10,12,18,2[2024/10/02, 12:31:00.841]3,25,28,29,32,,,,,1.23,0.72,1.00*0B
$GPGSV,5,1,17,10,16,341,17,12,[2024/10/02, 12:31:00.982]22,093,30,18,75,178,30,23,37,017,18*7B
$GPGSV,5,2,17,25,39,134,30,[2024/10/02, 12:31:01.122]28,44,225,15,29,18,167,26,32,26,306,17*7B
$GPGSV,5,3,17,41,65,266,[2024/10/02, 12:31:01.263]26,,30,112,26,,49,142,29,,76,336,20*78
$GPGSV,5,4,17,,06,153,19,,6[2024/10/02, 12:31:01.403]8,000,20,,54,181,28,,25,291,15*71
$GPGSV,5,5,17,,49,241,27*40
$GP[2024/10/02, 12:31:01.544]GLL,0114.4765,N,10338.6265,E,043059,A,D*43
$GPBOD,,T,,M,,*47
$GP[2024/10/02, 12:31:01.684]BWC,043059,,,,,,T,,M,,N,,D*75
$GPVTG,180.31,T,180.15,M,4.04,N,7.48[2024/10/02, 12:31:01.825],K,D*2B
$PGRME,16.48,M,16.81,M,23.54,M*2B
$PGRMZ,42,f,3*2D
$PGR[2024/10/02, 12:31:01.966]MM,WGS 84*06
$HCHDM,,M*07
$WIMWV,,R,,,A*6D
$GPAPB,V,V,,,N,V,V,,,[2024/10/02, 12:31:02.091],,,,,N*68
$GPZDA,043059,02,10,2024,-08,00*61
[2024/10/02, 12:31:02.294]$GPRMC,043101,A,0114.4736,N,10338.6262,E,4.12,180.20,02102[2024/10/02, 12:31:02.559]4,0.16,E,D*2C
$GPRMB,A,,,,,,,,,,,,V,D*19
$GPGGA,043101,0114.4736,[2024/10/02, 12:31:02.700]N,10338.6262,E,2,16,0.72,10.66,M,9.57,M,,*75
$GPGSA,A,3,10,12,18,2[2024/10/02, 12:31:02.841]3,25,28,29,32,,,,,1.23,0.72,1.00*0B
$GPGSV,5,1,17,10,16,341,16,12[2024/10/02, 12:31:02.981],22,093,30,18,75,178,29,23,37,017,15*7F
$GPGSV,5,2,17,25,39,134,30[2024/10/02, 12:31:03.122],28,44,225,15,29,18,167,24,32,26,306,17*79
$GPGSV,5,3,17,41,65,266,[2024/10/02, 12:31:03.262]26,,30,112,26,,49,142,29,,76,336,20*78
$GPGSV,5,4,17,,06,153,19,,6[2024/10/02, 12:31:03.403]8,000,21,,54,181,26,,25,291,15*7E
$GPGSV,5,5,17,,49,241,26*41
$G[2024/10/02, 12:31:03.544]PGLL,0114.4736,N,10338.6262,E,043101,A,D*4E
$GPBOD,,T,,M,,*47
$GP[2024/10/02, 12:31:03.684]BWC,043101,,,,,,T,,M,,N,,D*79
$GPVTG,180.20,T,180.04,M,4.12,N,7.62[2024/10/02, 12:31:03.825],K,D*24
$PGRME,16.49,M,16.69,M,23.46,M*2F
$PGRMZ,35,f,3*2D
$PGR[2024/10/02, 12:31:03.965]MM,WGS 84*06
$HCHDM,,M*07
$WIMWV,,R,,,A*6D
$GPAPB,V,V,,,N,V,V,,,[2024/10/02, 12:31:04.090],,,,,N*68
$GPZDA,043101,02,10,2024,-08,00*6D
[2024/10/02, 12:31:04.293]$GPRMC,043103,A,0114.4711,N,10338.6261,E,4.29,179.49,02102[2024/10/02, 12:31:04.559]4,0.16,E,D*29
$GPRMB,A,,,,,,,,,,,,V,D*19
$GPGGA,043103,0114.4711[2024/10/02, 12:31:04.699],N,10338.6261,E,2,16,0.72,8.26,M,9.57,M,,*4C
$GPGSA,A,3,10,12,18,2[2024/10/02, 12:31:04.840]3,25,28,29,32,,,,,1.23,0.72,0.99*0A
$GPGSV,5,1,17,10,16,341,17,12,[2024/10/02, 12:31:04.981]22,093,30,18,75,178,30,23,37,017,15*76
$GPGSV,5,2,17,25,39,134,30,[2024/10/02, 12:31:05.121]28,44,225,17,29,18,167,26,32,26,306,16*78
$GPGSV,5,3,17,41,65,266,[2024/10/02, 12:31:05.262]26,,30,112,26,,49,142,29,,76,336,20*78
$GPGSV,5,4,17,,06,153,21,,6[2024/10/02, 12:31:05.402]8,000,22,,55,181,27,,25,291,14*77
$GPGSV,5,5,17,,49,241,27*40
$GP[2024/10/02, 12:31:05.543]GLL,0114.4711,N,10338.6261,E,043103,A,D*4A
$GPBOD,,T,,M,,*47
$GPB[2024/10/02, 12:31:05.684]WC,043103,,,,,,T,,M,,N,,D*7B
$GPVTG,179.49,T,179.33,M,4.29,N,7.94,[2024/10/02, 12:31:05.823]K,D*2E
$PGRME,16.37,M,16.39,M,23.16,M*26
$PGRMZ,27,f,3*2E
$PGR[2024/10/02, 12:31:05.963]MM,WGS 84*06
$HCHDM,,M*07
$WIMWV,,R,,,A*6D
$GPAPB,V,V,,,N,V,V,,,[2024/10/02, 12:31:06.088],,,,,N*68
$GPZDA,043103,02,10,2024,-08,00*6F
[2024/10/02, 12:31:06.291]$GPRMC,043105,A,0114.4688,N,10338.6261,E,4.28,178.48,0210[2024/10/02, 12:31:06.557]24,0.16,E,D*2F
$GPRMB,A,,,,,,,,,,,,V,D*19
$GPGGA,043105,0114.468[2024/10/02, 12:31:06.697]8,N,10338.6261,E,2,16,0.72,6.40,M,9.57,M,,*45
$GPGSA,A,3,10,12,18,[2024/10/02, 12:31:06.838]23,25,28,29,32,,,,,1.23,0.72,1.00*0B
$GPGSV,5,1,17,10,16,341,15,12[2024/10/02, 12:31:06.979],22,093,30,18,75,178,30,23,37,017,19*78
$GPGSV,5,2,17,25,39,134,30[2024/10/02, 12:31:07.119],28,44,225,18,29,18,167,24,32,26,306,15*76
$GPGSV,5,3,17,41,65,266[2024/10/02, 12:31:07.260],26,,30,112,26,,49,142,29,,76,336,19*72
$GPGSV,5,4,17,,06,153,20,,[2024/10/02, 12:31:07.400]68,000,20,,55,181,28,,25,291,13*7C
$GPGSV,5,5,17,,49,241,28*4F
$G[2024/10/02, 12:31:07.541]PGLL,0114.4688,N,10338.6261,E,043105,A,D*4D
$GPBOD,,T,,M,,*47
$GP[2024/10/02, 12:31:07.682]BWC,043105,,,,,,T,,M,,N,,D*7D
$GPVTG,178.48,T,178.32,M,4.28,N,7.93[2024/10/02, 12:31:07.822],K,D*28
$PGRME,16.30,M,16.62,M,23.28,M*22
$PGRMZ,21,f,3*28
$PGR[2024/10/02, 12:31:07.963]MM,WGS 84*06
$HCHDM,,M*07
$WIMWV,,R,,,A*6D
$GPAPB,V,V,,,N,V,V,,[2024/10/02, 12:31:08.088],,,,,,N*68
$GPZDA,043105,02,10,2024,-08,00*69
[2024/10/02, 12:31:08.291]$GPRMC,043107,A,0114.4663,N,10338.6255,E,4.26,185.57,021[2024/10/02, 12:31:08.556]024,0.16,E,D*2D
$GPRMB,A,,,,,,,,,,,,V,D*19
$GPGGA,043107,0114.466[2024/10/02, 12:31:08.697]3,N,10338.6255,E,2,16,0.72,5.20,M,9.57,M,,*40
$GPGSA,A,3,10,12,18,[2024/10/02, 12:31:08.837]23,25,28,29,32,,,,,1.23,0.72,0.99*0A
$GPGSV,5,1,17,10,16,341,17,12[2024/10/02, 12:31:08.978],22,093,30,18,75,178,30,23,37,017,19*7A
$GPGSV,5,2,17,25,39,134,30[2024/10/02, 12:31:09.119],28,44,225,18,29,18,167,22,32,26,306,15*70
$GPGSV,5,3,17,41,65,266[2024/10/02, 12:31:09.259],26,,30,112,25,,49,142,29,,76,336,18*70
$GPGSV,5,4,17,,06,153,19,,[2024/10/02, 12:31:09.400]68,000,20,,55,181,29,,25,291,15*71
$GPGSV,5,5,17,,49,240,27*41
$G[2024/10/02, 12:31:09.541]PGLL,0114.4663,N,10338.6255,E,043107,A,D*4D
$GPBOD,,T,,M,,*47
$GP[2024/10/02, 12:31:09.681]BWC,043107,,,,,,T,,M,,N,,D*7F
$GPVTG,185.57,T,185.41,M,4.26,N,7.8[2024/10/02, 12:31:09.822]9,K,D*27
$PGRME,16.17,M,16.33,M,22.98,M*29
$PGRMZ,17,f,3*2D
$PGR[2024/10/02, 12:31:09.962]MM,WGS 84*06
$HCHDM,,M*07
$WIMWV,,R,,,A*6D
$GPAPB,V,V,,,N,V,V,,[2024/10/02, 12:31:10.087],,,,,,N*68
$GPZDA,043107,02,10,2024,-08,00*6B
[2024/10/02, 12:31:10.290]$GPRMC,043109,A,0114.4638,N,10338.6255,E,4.28,184.81,021[2024/10/02, 12:31:10.556]024,0.16,E,D*29
$GPRMB,A,,,,,,,,,,,,V,D*19
$GPGGA,043109,0114.463[2024/10/02, 12:31:10.696]8,N,10338.6255,E,2,16,0.72,3.68,M,9.57,M,,*4A
$GPGSA,A,3,10,12,18,[2024/10/02, 12:31:10.837]23,25,28,29,32,,,,,1.23,0.72,1.00*0B
$GPGSV,5,1,17,10,16,341,19,12[2024/10/02, 12:31:10.978],22,093,30,18,75,178,30,23,37,017,16*7B
$GPGSV,5,2,17,25,39,134,30[2024/10/02, 12:31:11.118],28,44,225,20,29,18,167,25,32,26,306,15*7C
$GPGSV,5,3,17,41,65,266[2024/10/02, 12:31:11.259],26,,30,112,27,,49,142,29,,76,336,21*78
$GPGSV,5,4,17,,06,153,20,,[2024/10/02, 12:31:11.399]68,000,21,,55,181,29,,25,291,20*7C
$GPGSV,5,5,17,,49,240,28*4E
$G[2024/10/02, 12:31:11.540]PGLL,0114.4638,N,10338.6255,E,043109,A,D*4D
$GPBOD,,T,,M,,*47
$GP[2024/10/02, 12:31:11.681]BWC,043109,,,,,,T,,M,,N,,D*71
$GPVTG,184.81,T,184.65,M,4.28,N,7.9[2024/10/02, 12:31:11.821]3,K,D*2F
$PGRME,16.07,M,16.48,M,23.02,M*26
$PGRMZ,12,f,3*28
$PGR[2024/10/02, 12:31:11.962]MM,WGS 84*06
$HCHDM,,M*07
$WIMWV,,R,,,A*6D
$GPAPB,V,V,,,N,V,V,,[2024/10/02, 12:31:12.087],,,,,,N*68
$GPZDA,043109,02,10,2024,-08,00*65
[2024/10/02, 12:31:12.290]$GPRMC,043111,A,0114.4614,N,10338.6255,E,4.29,179.76,021[2024/10/02, 12:31:12.555]024,0.16,E,D*25
$GPRMB,A,,,,,,,,,,,,V,D*19
$GPGGA,043111,0114.461[2024/10/02, 12:31:12.696]4,N,10338.6255,E,2,16,0.72,1.75,M,9.57,M,,*43
$GPGSA,A,3,10,12,18,[2024/10/02, 12:31:12.837]23,25,28,29,32,,,,,1.23,0.72,1.00*0B
$GPGSV,5,1,17,10,16,341,19,1[2024/10/02, 12:31:12.977]2,22,093,30,18,75,178,30,23,37,017,19*74
$GPGSV,5,2,17,25,39,134,30[2024/10/02, 12:31:13.118],28,44,225,19,29,18,167,26,32,26,306,13*73
$GPGSV,5,3,17,41,65,266[2024/10/02, 12:31:13.258],26,,30,112,28,,49,142,28,,76,336,21*76
$GPGSV,5,4,17,,06,153,19,,[2024/10/02, 12:31:13.399]68,000,20,,55,181,29,,25,291,20*77
$GPGSV,5,5,17,,49,240,28*4E
$G[2024/10/02, 12:31:13.539]PGLL,0114.4614,N,10338.6255,E,043111,A,D*4A
$GPBOD,,T,,M,,*47
$G[2024/10/02, 12:31:13.680]PBWC,043111,,,,,,T,,M,,N,,D*78
$GPVTG,179.76,T,179.60,M,4.29,N,7.9[2024/10/02, 12:31:13.821]4,K,D*24
$PGRME,16.07,M,16.89,M,23.31,M*2B
$PGRMZ,6,f,3*1D
$PGR[2024/10/02, 12:31:13.961]MM,WGS 84*06
$HCHDM,,M*07
$WIMWV,,R,,,A*6D
$GPAPB,V,V,,,N,V,V,,,[2024/10/02, 12:31:14.086],,,,,N*68
$GPZDA,043111,02,10,2024,-08,00*6C
[2024/10/02, 12:31:14.289]$GPRMC,043113,A,0114.4592,N,10338.6259,E,4.26,179.40,021[2024/10/02, 12:31:14.555]024,0.16,E,D*2C
$GPRMB,A,,,,,,,,,,,,V,D*19
$GPGGA,043113,0114.459[2024/10/02, 12:31:14.695]2,N,10338.6259,E,2,16,0.72,0.42,M,9.57,M,,*45
$GPGSA,A,3,10,12,18[2024/10/02, 12:31:14.836],23,25,28,29,32,,,,,1.23,0.72,1.00*0B
$GPGSV,5,1,17,10,16,341,16,1[2024/10/02, 12:31:14.977]2,22,093,30,18,75,178,30,23,37,017,18*7A
$GPGSV,5,2,17,25,39,134,3[2024/10/02, 12:31:15.117]0,28,44,225,19,29,18,167,24,32,26,306,15*77
$GPGSV,5,3,17,41,65,26[2024/10/02, 12:31:15.258]6,25,,30,112,27,,49,142,29,,76,336,20*7A
$GPGSV,5,4,17,,06,153,20,,[2024/10/02, 12:31:15.398]68,000,22,,55,181,29,,25,291,16*7A
$GPGSV,5,5,17,,49,240,28*4E
$[2024/10/02, 12:31:15.539]GPGLL,0114.4592,N,10338.6259,E,043113,A,D*49
$GPBOD,,T,,M,,*47
$G[2024/10/02, 12:31:15.680]PBWC,043113,,,,,,T,,M,,N,,D*7A
$GPVTG,179.40,T,179.24,M,4.26,N,7.8[2024/10/02, 12:31:15.820]9,K,D*22
$PGRME,16.08,M,16.80,M,23.25,M*28
$PGRMZ,1,f,3*1A
$PGR[2024/10/02, 12:31:15.961]MM,WGS 84*06
$HCHDM,,M*07
$WIMWV,,R,,,A*6D
$GPAPB,V,V,,,N,V,V,,,[2024/10/02, 12:31:16.086],,,,,N*68
$GPZDA,043113,02,10,2024,-08,00*6E
[2024/10/02, 12:31:16.289]$GPRMC,043115,A,0114.4570,N,10338.6259,E,4.24,179.12,021[2024/10/02, 12:31:16.554]024,0.16,E,D*23
$GPRMB,A,,,,,,,,,,,,V,D*19
$GPGGA,043115,0114.45[2024/10/02, 12:31:16.695]70,N,10338.6259,E,2,16,0.72,-0.41,M,9.57,M,,*61
$GPGSA,A,3,10,12,1[2024/10/02, 12:31:16.836]8,23,25,28,29,32,,,,,1.23,0.72,1.00*0B
$GPGSV,5,1,17,10,16,341,14,[2024/10/02, 12:31:16.976]12,22,093,30,18,75,178,30,23,37,017,15*75
$GPGSV,5,2,17,25,39,134,[2024/10/02, 12:31:17.117]29,28,44,225,16,29,18,167,25,32,26,306,18*7C
$GPGSV,5,3,17,41,65,2[2024/10/02, 12:31:17.257]66,25,,30,112,27,,49,142,29,,76,336,21*7B
$GPGSV,5,4,17,,06,153,19[2024/10/02, 12:31:17.398],,68,000,21,,55,181,28,,25,291,15*71
$GPGSV,5,5,17,,49,240,28*4E
[2024/10/02, 12:31:17.539]$GPGLL,0114.4570,N,10338.6259,E,043115,A,D*43
$GPBOD,,T,,M,,*47
$[2024/10/02, 12:31:17.679]GPBWC,043115,,,,,,T,,M,,N,,D*7C
$GPVTG,179.12,T,178.96,M,4.24,N,7.[2024/10/02, 12:31:17.820]86,K,D*20
$PGRME,16.08,M,17.10,M,23.48,M*2B
$PGRMZ,-1,f,3*37
$P[2024/10/02, 12:31:17.960]GRMM,WGS 84*06
$HCHDM,,M*07
$WIMWV,,R,,,A*6D
$GPAPB,V,V,,,N,V,V[2024/10/02, 12:31:18.085],,,,,,,,N*68
$GPZDA,043115,02,10,2024,-08,00*68
[2024/10/02, 12:31:18.288]$GPRMC,043117,A,0114.4546,N,10338.6259,E,4.21,177.90,02[2024/10/02, 12:31:18.554]1024,0.16,E,D*25
$GPRMB,A,,,,,,,,,,,,V,D*19
$GPGGA,043117,0114.45[2024/10/02, 12:31:18.695]46,N,10338.6259,E,2,16,0.72,-2.06,M,9.57,M,,*67
$GPGSA,A,3,10,12,1[2024/10/02, 12:31:18.835]8,23,25,28,29,32,,,,,1.23,0.72,0.99*0A
$GPGSV,5,1,17,10,16,341,15[2024/10/02, 12:31:18.976],12,22,093,30,18,75,178,30,23,37,017,15*74
$GPGSV,5,2,17,25,39,134,[2024/10/02, 12:31:19.116]30,28,44,225,16,29,18,167,26,32,26,306,18*77
$GPGSV,5,3,17,41,65,2[2024/10/02, 12:31:19.257]66,26,,30,112,25,,49,142,29,,76,336,21*7A
$GPGSV,5,4,17,,06,153,17[2024/10/02, 12:31:19.397],,68,000,20,,55,181,28,,25,291,14*7F
$GPGSV,5,5,17,,49,240,28*4E
[2024/10/02, 12:31:19.538]$GPGLL,0114.4546,N,10338.6259,E,043117,A,D*44
$GPBOD,,T,,M,,*47
[2024/10/02, 12:31:19.679]$GPBWC,043117,,,,,,T,,M,,N,,D*7E
$GPVTG,177.90,T,177.74,M,4.21,N,7[2024/10/02, 12:31:19.819].79,K,D*22
$PGRME,16.09,M,16.85,M,23.30,M*28
$PGRMZ,-7,f,3*31
$[2024/10/02, 12:31:19.960]PGRMM,WGS 84*06
$HCHDM,,M*07
$WIMWV,,R,,,A*6D
$GPAPB,V,V,,,N,V,V[2024/10/02, 12:31:20.085],,,,,,,,N*68
$GPZDA,043117,02,10,2024,-08,00*6A
[2024/10/02, 12:31:20.288]$GPRMC,043119,A,0114.4521,N,10338.6261,E,4.26,178.34,02[2024/10/02, 12:31:20.554]1024,0.16,E,D*27
$GPRMB,A,,,,,,,,,,,,V,D*19
$GPGGA,043119,0114.45[2024/10/02, 12:31:20.694]21,N,10338.6261,E,2,16,0.72,-3.15,M,9.57,M,,*60
$GPGSA,A,3,10,12,[2024/10/02, 12:31:20.835]18,23,25,28,29,32,,,,,1.23,0.72,0.99*0A
$GPGSV,5,1,17,10,16,341,16[2024/10/02, 12:31:20.975],12,22,093,30,18,75,178,30,23,37,017,14*76
$GPGSV,5,2,17,25,39,134[2024/10/02, 12:31:21.116],30,28,44,225,16,29,18,167,26,32,26,306,18*77
$GPGSV,5,3,17,41,65,[2024/10/02, 12:31:21.256]266,26,,30,112,26,,49,142,29,,76,336,20*78
$GPGSV,5,4,17,,06,153,20[2024/10/02, 12:31:21.397],,68,000,20,,55,181,27,,25,291,13*73
$GPGSV,5,5,17,,49,240,27*41
[2024/10/02, 12:31:21.538]$GPGLL,0114.4521,N,10338.6261,E,043119,A,D*40
$GPBOD,,T,,M,,*47
[2024/10/02, 12:31:21.678]$GPBWC,043119,,,,,,T,,M,,N,,D*70
$GPVTG,178.34,T,178.18,M,4.26,N,7[2024/10/02, 12:31:21.819].89,K,D*2E
$PGRME,16.10,M,17.08,M,23.47,M*24
$PGRMZ,-10,f,3*07
[2024/10/02, 12:31:21.959]$PGRMM,WGS 84*06
$HCHDM,,M*07
$WIMWV,,R,,,A*6D
$GPAPB,V,V,,,N,V,[2024/10/02, 12:31:22.084]V,,,,,,,,N*68
$GPZDA,043119,02,10,2024,-08,00*64
[2024/10/02, 12:31:22.287]$GPRMC,043121,A,0114.4496,N,10338.6260,E,4.36,178.31,02[2024/10/02, 12:31:22.553]1024,0.16,E,D*24
$GPRMB,A,,,,,,,,,,,,V,D*19
$GPGGA,043121,0114.44[2024/10/02, 12:31:22.694]96,N,10338.6260,E,2,16,0.72,-3.23,M,9.57,M,,*62
$GPGSA,A,3,10,12,[2024/10/02, 12:31:22.834]18,23,25,28,29,32,,,,,1.23,0.72,0.99*0A
$GPGSV,5,1,17,10,16,341,16[2024/10/02, 12:31:22.975],12,22,093,30,18,75,178,30,23,37,017,19*7B
$GPGSV,5,2,17,25,39,134[2024/10/02, 12:31:23.115],30,28,44,225,17,29,18,167,26,32,26,306,18*76
$GPGSV,5,3,17,41,65,[2024/10/02, 12:31:23.256]266,26,,30,112,27,,49,142,29,,76,336,20*79
$GPGSV,5,4,17,,06,153,2[2024/10/02, 12:31:23.397]2,,68,000,21,,55,181,28,,25,291,13*7F
$GPGSV,5,5,17,,49,240,28*4E[2024/10/02, 12:31:23.537]
$GPGLL,0114.4496,N,10338.6260,E,043121,A,D*47
$GPBOD,,T,,M,,*47
[2024/10/02, 12:31:23.678]$GPBWC,043121,,,,,,T,,M,,N,,D*7B
$GPVTG,178.31,T,178.15,M,4.36,N,8[2024/10/02, 12:31:23.818].07,K,D*2E
$PGRME,16.11,M,16.70,M,23.20,M*2A
$PGRMZ,-11,f,3*06
[2024/10/02, 12:31:23.959]$PGRMM,WGS 84*06
$HCHDM,,M*07
$WIMWV,,R,,,A*6D
$GPAPB,V,V,,,N,V[2024/10/02, 12:31:24.084],V,,,,,,,,N*68
$GPZDA,043121,02,10,2024,-08,00*6F
[2024/10/02, 12:31:24.287]$GPRMC,043123,A,0114.4475,N,10338.6261,E,4.32,178.52,02[2024/10/02, 12:31:24.552]1024,0.16,E,D*2B
$GPRMB,A,,,,,,,,,,,,V,D*19
$GPGGA,043123,0114.44[2024/10/02, 12:31:24.693]75,N,10338.6261,E,2,16,0.72,-3.76,M,9.57,M,,*6C
$GPGSA,A,3,10,12,[2024/10/02, 12:31:24.834]18,23,25,28,29,32,,,,,1.23,0.72,1.00*0B
$GPGSV,5,1,17,10,16,341,16[2024/10/02, 12:31:24.974],12,22,093,30,18,75,178,30,23,37,017,18*7A
$GPGSV,5,2,17,25,39,134[2024/10/02, 12:31:25.115],30,28,44,225,17,29,18,167,26,32,26,306,17*79
$GPGSV,5,3,17,41,65,[2024/10/02, 12:31:25.255]266,26,,30,112,26,,49,142,29,,76,336,20*78
$GPGSV,5,4,17,,06,153,20[2024/10/02, 12:31:25.396],,68,000,21,,55,181,29,,25,291,16*79
$GPGSV,5,5,17,,49,240,28*4E
[2024/10/02, 12:31:25.537]$GPGLL,0114.4475,N,10338.6261,E,043123,A,D*49
$GPBOD,,T,,M,,*47
[2024/10/02, 12:31:25.677]$GPBWC,043123,,,,,,T,,M,,N,,D*79
$GPVTG,178.52,T,178.36,M,4.32,N,8[2024/10/02, 12:31:25.818].00,K,D*29
$PGRME,16.11,M,16.42,M,23.00,M*29
$PGRMZ,-12,f,3*05
[2024/10/02, 12:31:25.958]$PGRMM,WGS 84*06
$HCHDM,,M*07
$WIMWV,,R,,,A*6D
$GPAPB,V,V,,,N,V,[2024/10/02, 12:31:26.083]V,,,,,,,,N*68
$GPZDA,043123,02,10,2024,-08,00*6D
[2024/10/02, 12:31:26.286]$GPRMC,043125,A,0114.4454,N,10338.6265,E,4.33,178.50,02[2024/10/02, 12:31:26.552]1024,0.16,E,D*29
$GPRMB,A,,,,,,,,,,,,V,D*19
$GPGGA,043125,0114.4[2024/10/02, 12:31:26.693]454,N,10338.6265,E,2,16,0.72,-4.35,M,9.57,M,,*6D
$GPGSA,A,3,10,12,[2024/10/02, 12:31:26.833]18,23,25,28,29,32,,,,,1.23,0.72,1.00*0B
$GPGSV,5,1,17,10,16,341,16[2024/10/02, 12:31:26.974],12,22,093,30,18,75,178,30,23,37,017,19*7B
$GPGSV,5,2,17,25,39,134[2024/10/02, 12:31:27.114],30,28,44,225,19,29,18,167,26,32,26,306,16*76
$GPGSV,5,3,17,41,65,[2024/10/02, 12:31:27.255]266,26,,30,112,27,,49,142,29,,76,336,22*7B
$GPGSV,5,4,17,,06,153,1[2024/10/02, 12:31:27.396]9,,68,000,22,,55,181,29,,25,291,16*70
$GPGSV,5,5,17,,49,240,28*4E[2024/10/02, 12:31:27.536]
$GPGLL,0114.4454,N,10338.6265,E,043125,A,D*48
$GPBOD,,T,,M,,*47
[2024/10/02, 12:31:27.677]$GPBWC,043125,,,,,,T,,M,,N,,D*7F
$GPVTG,178.50,T,178.34,M,4.33,N,[2024/10/02, 12:31:27.817]8.02,K,D*2A
$PGRME,15.99,M,16.35,M,22.87,M*24
$PGRMZ,-14,f,3*03
[2024/10/02, 12:31:27.958]$PGRMM,WGS 84*06
$HCHDM,,M*07
$WIMWV,,R,,,A*6D
$GPAPB,V,V,,,N,V[2024/10/02, 12:31:28.083],V,,,,,,,,N*68
$GPZDA,043125,02,10,2024,-08,00*6B
[2024/10/02, 12:31:28.286]$GPRMC,043127,A,0114.4431,N,10338.6269,E,4.43,178.45,0[2024/10/02, 12:31:28.552]21024,0.16,E,D*27
$GPRMB,A,,,,,,,,,,,,V,D*19
$GPGGA,043127,0114.4[2024/10/02, 12:31:28.692]431,N,10338.6269,E,2,16,0.72,-5.03,M,9.57,M,,*64
$GPGSA,A,3,10,12,[2024/10/02, 12:31:28.833]18,23,25,28,29,32,,,,,1.23,0.72,0.99*0A
$GPGSV,5,1,17,10,16,341,1[2024/10/02, 12:31:28.973]6,12,22,093,31,18,75,178,30,23,37,017,19*7A
$GPGSV,5,2,17,25,39,134[2024/10/02, 12:31:29.114],31,28,44,225,21,29,18,167,25,32,26,306,18*71
$GPGSV,5,3,17,41,65,[2024/10/02, 12:31:29.254]266,26,,30,112,27,,49,142,29,,76,336,19*73
$GPGSV,5,4,17,,06,153,1[2024/10/02, 12:31:29.395]9,,68,000,20,,55,181,29,,25,291,14*70
$GPGSV,5,5,17,,49,240,27*41[2024/10/02, 12:31:29.536]
$GPGLL,0114.4431,N,10338.6269,E,043127,A,D*45
$GPBOD,,T,,M,,*47[2024/10/02, 12:31:29.676]
$GPBWC,043127,,,,,,T,,M,,N,,D*7D
$GPVTG,178.45,T,178.29,M,4.43,N,[2024/10/02, 12:31:29.817]8.21,K,D*24
$PGRME,15.98,M,16.67,M,23.09,M*25
$PGRMZ,-17,f,3*00[2024/10/02, 12:31:29.957]
$PGRMM,WGS 84*06
$HCHDM,,M*07
$WIMWV,,R,,,A*6D
$GPAPB,V,V,,,N,V[2024/10/02, 12:31:30.082],V,,,,,,,,N*68
$GPZDA,043127,02,10,2024,-08,00*69
[2024/10/02, 12:31:30.286]$GPRMC,043129,A,0114.4404,N,10338.6269,E,4.77,178.41,0[2024/10/02, 12:31:30.551]21024,0.16,E,D*2C
$GPRMB,A,,,,,,,,,,,,V,D*19
$GPGGA,043129,0114.4[2024/10/02, 12:31:30.692]404,N,10338.6269,E,2,16,0.72,-5.30,M,9.57,M,,*6C
$GPGSA,A,3,10,12,[2024/10/02, 12:31:30.832]18,23,25,28,29,32,,,,,1.23,0.72,0.99*0A
$GPGSV,5,1,17,10,16,341,17[2024/10/02, 12:31:30.973],12,22,093,31,18,75,178,30,23,37,017,18*7A
$GPGSV,5,2,17,25,39,134[2024/10/02, 12:31:31.113],30,28,44,225,19,29,18,167,24,32,26,306,17*75
$GPGSV,5,3,17,41,65,[2024/10/02, 12:31:31.254]266,26,,30,112,25,,49,142,29,,76,336,19*71
$GPGSV,5,4,17,,06,153,1[2024/10/02, 12:31:31.395]9,,68,000,21,,55,181,29,,25,291,14*71
$GPGSV,5,5,17,,49,240,27*41[2024/10/02, 12:31:31.535]
$GPGLL,0114.4404,N,10338.6269,E,043129,A,D*4D
$GPBOD,,T,,M,,*47
[2024/10/02, 12:31:31.676]$GPBWC,043129,,,,,,T,,M,,N,,D*73
$GPVTG,178.41,T,178.25,M,4.77,N,[2024/10/02, 12:31:31.816]8.84,K,D*24
$PGRME,15.98,M,17.12,M,23.42,M*29
$PGRMZ,-17,f,3*00
[2024/10/02, 12:31:31.957]$PGRMM,WGS 84*06
$HCHDM,,M*07
$WIMWV,,R,,,A*6D
$GPAPB,V,V,,,N,V[2024/10/02, 12:31:32.082],V,,,,,,,,N*68
$GPZDA,043129,02,10,2024,-08,00*67
[2024/10/02, 12:31:32.285]$GPRMC,043131,A,0114.4380,N,10338.6273,E,4.79,176.54,0[2024/10/02, 12:31:32.551]21024,0.16,E,D*21
$GPRMB,A,,,,,,,,,,,,V,D*19
$GPGGA,043131,0114.4[2024/10/02, 12:31:32.691]380,N,10338.6273,E,2,16,0.72,-6.11,M,9.57,M,,*65
$GPGSA,A,3,10,12,[2024/10/02, 12:31:32.832]18,23,25,28,29,32,,,,,1.23,0.72,1.00*0B
$GPGSV,5,1,17,10,16,341,1[2024/10/02, 12:31:32.972]5,12,22,093,30,18,75,178,30,23,37,017,18*79
$GPGSV,5,2,17,25,39,134[2024/10/02, 12:31:33.113],30,28,44,225,20,29,18,167,25,32,26,306,16*7F
$GPGSV,5,3,17,41,65,[2024/10/02, 12:31:33.254]266,26,,30,112,27,,49,142,29,,76,336,21*78
$GPGSV,5,4,17,,06,153,2[2024/10/02, 12:31:33.394]1,,68,000,21,,55,181,28,,25,291,15*7A
$GPGSV,5,5,17,,49,240,28*4E[2024/10/02, 12:31:33.535]
$GPGLL,0114.4380,N,10338.6273,E,043131,A,D*44
$GPBOD,,T,,M,,*47[2024/10/02, 12:31:33.675]
$GPBWC,043131,,,,,,T,,M,,N,,D*7A
$GPVTG,176.54,T,176.38,M,4.79,N,[2024/10/02, 12:31:33.816]8.87,K,D*21
$PGRME,15.98,M,17.56,M,23.74,M*2C
$PGRMZ,-20,f,3*04[2024/10/02, 12:31:33.956]
$PGRMM,WGS 84*06
$HCHDM,,M*07
$WIMWV,,R,,,A*6D
$GPAPB,V,V,,,N,V[2024/10/02, 12:31:34.081],V,,,,,,,,N*68
$GPZDA,043131,02,10,2024,-08,00*6E
[2024/10/02, 12:31:34.285]$GPRMC,043133,A,0114.4362,N,10338.6268,E,4.36,187.14,0[2024/10/02, 12:31:34.550]21024,0.16,E,D*24
$GPRMB,A,,,,,,,,,,,,V,D*19
$GPGGA,043133,0114.[2024/10/02, 12:31:34.691]4362,N,10338.6268,E,2,16,0.72,-6.92,M,9.57,M,,*6A
$GPGSA,A,3,10,12[2024/10/02, 12:31:34.831],18,23,25,28,29,32,,,,,1.23,0.72,0.99*0A
$GPGSV,5,1,17,10,16,341,1[2024/10/02, 12:31:34.972]5,12,22,093,29,18,75,178,30,23,37,017,16*7F
$GPGSV,5,2,17,25,39,13[2024/10/02, 12:31:35.112]4,30,28,44,225,15,29,18,167,25,32,26,306,17*78
$GPGSV,5,3,17,41,65[2024/10/02, 12:31:35.253],266,26,,30,112,25,,49,142,29,,76,336,19*71
$GPGSV,5,4,17,,06,153,[2024/10/02, 12:31:35.394]19,,68,000,21,,55,181,28,,25,291,14*70
$GPGSV,5,5,17,,49,240,28*4E[2024/10/02, 12:31:35.534]
$GPGLL,0114.4362,N,10338.6268,E,043133,A,D*40
$GPBOD,,T,,M,,*47[2024/10/02, 12:31:35.675]
$GPBWC,043133,,,,,,T,,M,,N,,D*78
$GPVTG,187.14,T,186.98,M,4.36,N,[2024/10/02, 12:31:35.816]8.08,K,D*22
$PGRME,15.99,M,17.61,M,23.78,M*25
$PGRMZ,-23,f,3*07[2024/10/02, 12:31:35.956]
$PGRMM,WGS 84*06
$HCHDM,,M*07
$WIMWV,,R,,,A*6D
$GPAPB,V,V,,,N,V[2024/10/02, 12:31:36.097],V,,,,,,,,N*68
$GPZDA,043133,02,10,2024,-08,00*6C
[2024/10/02, 12:31:36.284]$GPRMC,043135,A,0114.4341,N,103[2024/10/02, 12:31:36.503]38.6274,E,4.32,166.64,021024,0.16,E,D*22
$GPRMB,A,,,,,,,,,,,,V,D*1[2024/10/02, 12:31:36.643]9
$GPGGA,043135,0114.4341,N,10338.6274,E,2,16,0.72,-7.74,M,9.57,M,[2024/10/02, 12:31:36.784],*69
$GPGSA,A,3,10,12,18,23,25,28,29,32,,,,,1.23,0.72,0.99*0A
$GP[2024/10/02, 12:31:36.925]GSV,5,1,17,10,16,341,16,12,22,093,30,18,75,178,30,23,37,017,16*74
[2024/10/02, 12:31:37.065]$GPGSV,5,2,17,25,39,134,29,28,44,225,22,29,18,167,25,32,26,306,21*7[2024/10/02, 12:31:37.206]1
$GPGSV,5,3,17,41,65,266,26,,30,112,27,,49,142,30,,76,336,20*71
[2024/10/02, 12:31:37.346]$GPGSV,5,4,17,,06,153,19,,68,000,22,,55,181,26,,25,291,14*7D
$GPGS[2024/10/02, 12:31:37.487]V,5,5,17,,49,240,28*4E
$GPGLL,0114.4341,N,10338.6274,E,043135,A,D*[2024/10/02, 12:31:37.628]4A
$GPBOD,,T,,M,,*47
$GPBWC,043135,,,,,,T,,M,,N,,D*7E
$GPVTG,16[2024/10/02, 12:31:37.768]6.64,T,166.48,M,4.32,N,8.00,K,D*25
$PGRME,16.00,M,17.54,M,23.74,M*[2024/10/02, 12:31:37.909]2C
$PGRMZ,-25,f,3*01
$PGRMM,WGS 84*06
$HCHDM,,M*07
$WIMWV,,R,,[2024/10/02, 12:31:38.049],A*6D
$GPAPB,V,V,,,N,V,V,,,,,,,,N*68
$GPZDA,043135,02,10,2024,-08[2024/10/02, 12:31:38.159],00*6A
[2024/10/02, 12:31:38.237]$GPRMC,043137,A,0114.4312,N,103[2024/10/02, 12:31:38.502]38.6279,E,4.44,169.00,021024,0.16,E,D*27
$GPRMB,A,,,,,,,,,,,,V,D*1[2024/10/02, 12:31:38.643]9
$GPGGA,043137,0114.4312,N,10338.6279,E,2,16,0.72,-8.25,M,9.57,M,[2024/10/02, 12:31:38.783],*6B
$GPGSA,A,3,10,12,18,23,25,28,29,32,,,,,1.23,0.72,0.99*0A
$GP[2024/10/02, 12:31:38.924]GSV,5,1,17,10,16,341,17,12,22,093,30,18,75,178,30,23,37,017,20*70
[2024/10/02, 12:31:39.065]$GPGSV,5,2,17,25,39,134,29,28,44,225,22,29,18,167,25,32,26,306,20*7[2024/10/02, 12:31:39.205]0
$GPGSV,5,3,17,41,65,266,25,,30,112,27,,49,142,29,,76,336,18*71
[2024/10/02, 12:31:39.346]$GPGSV,5,4,17,,06,153,20,,68,000,20,,55,181,26,,25,291,14*75
$GPGS[2024/10/02, 12:31:39.486]V,5,5,17,,49,240,28*4E
$GPGLL,0114.4312,N,10338.6279,E,043137,A,D*[2024/10/02, 12:31:39.627]43
$GPBOD,,T,,M,,*47
$GPBWC,043137,,,,,,T,,M,,N,,D*7C
$GPVTG,16[2024/10/02, 12:31:39.768]9.00,T,168.84,M,4.44,N,8.21,K,D*24
$PGRME,16.01,M,17.64,M,23.82,M*[2024/10/02, 12:31:39.908]27
$PGRMZ,-27,f,3*03
$PGRMM,WGS 84*06
$HCHDM,,M*07
$WIMWV,,R,,[2024/10/02, 12:31:40.049],A*6D
$GPAPB,V,V,,,N,V,V,,,,,,,,N*68
$GPZDA,043137,02,10,2024,-0[2024/10/02, 12:31:40.158]8,00*68
[2024/10/02, 12:31:40.236]$GPRMC,043139,A,0114.4288,N,103[2024/10/02, 12:31:40.502]38.6284,E,4.04,167.87,021024,0.16,E,D*2C
$GPRMB,A,,,,,,,,,,,,V,D*1[2024/10/02, 12:31:40.642]9
$GPGGA,043139,0114.4288,N,10338.6284,E,2,16,0.72,-8.59,M,9.57,M,[2024/10/02, 12:31:40.783],*6E
$GPGSA,A,3,10,12,18,23,25,28,29,32,,,,,1.23,0.72,0.99*0A
$G[2024/10/02, 12:31:40.924]PGSV,5,1,17,10,16,341,16,12,22,093,30,18,74,178,30,23,37,017,20*70[2024/10/02, 12:31:41.064]
$GPGSV,5,2,17,25,39,134,29,28,44,225,23,29,18,167,24,32,26,306,19*[2024/10/02, 12:31:41.205]7A
$GPGSV,5,3,17,41,65,266,25,,30,112,27,,49,142,30,,76,336,19*78[2024/10/02, 12:31:41.345]
$GPGSV,5,4,17,,06,153,19,,68,000,21,,55,181,26,,25,291,14*7E
$GPGS[2024/10/02, 12:31:41.486]V,5,5,17,,49,240,27*41
$GPGLL,0114.4288,N,10338.6284,E,043139,A,D[2024/10/02, 12:31:41.627]*4D
$GPBOD,,T,,M,,*47
$GPBWC,043139,,,,,,T,,M,,N,,D*72
$GPVTG,1[2024/10/02, 12:31:41.767]67.87,T,167.71,M,4.04,N,7.49,K,D*25
$PGRME,16.02,M,17.82,M,23.96,M[2024/10/02, 12:31:41.908]*29
$PGRMZ,-28,f,3*0C
$PGRMM,WGS 84*06
$HCHDM,,M*07
$WIMWV,,R,[2024/10/02, 12:31:42.048],,A*6D
$GPAPB,V,V,,,N,V,V,,,,,,,,N*68
$GPZDA,043139,02,10,2024,-0[2024/10/02, 12:31:42.158]8,00*66
[2024/10/02, 12:31:42.236]$GPRMC,043141,A,0114.4262,N,103[2024/10/02, 12:31:42.501]38.6281,E,4.48,179.39,021024,0.16,E,D*20
$GPRMB,A,,,,,,,,,,,,V,D*[2024/10/02, 12:31:42.642]19
$GPGGA,043141,0114.4262,N,10338.6281,E,2,16,0.72,-8.78,M,9.57,M[2024/10/02, 12:31:42.783],,*63
$GPGSA,A,3,10,12,18,23,25,28,29,32,,,,,1.23,0.72,0.99*0A
$G[2024/10/02, 12:31:42.923]PGSV,5,1,17,10,16,341,16,12,22,093,31,18,74,178,30,23,37,017,20*71[2024/10/02, 12:31:43.064]
$GPGSV,5,2,17,25,39,134,29,28,44,225,21,29,18,167,25,32,26,306,21*[2024/10/02, 12:31:43.204]72
$GPGSV,5,3,17,41,65,266,25,,30,112,27,,49,142,30,,76,336,19*78[2024/10/02, 12:31:43.345]
$GPGSV,5,4,17,,06,153,20,,68,000,22,,55,181,26,,25,291,14*77
$GPG[2024/10/02, 12:31:43.486]SV,5,5,17,,49,240,27*41
$GPGLL,0114.4262,N,10338.6281,E,043141,A,D[2024/10/02, 12:31:43.626]*43
$GPBOD,,T,,M,,*47
$GPBWC,043141,,,,,,T,,M,,N,,D*7D
$GPVTG,17[2024/10/02, 12:31:43.767]9.39,T,179.23,M,4.48,N,8.29,K,D*26
$PGRME,16.02,M,18.10,M,24.17,M[2024/10/02, 12:31:43.907]*23
$PGRMZ,-29,f,3*0D
$PGRMM,WGS 84*06
$HCHDM,,M*07
$WIMWV,,R,,[2024/10/02, 12:31:44.048],A*6D
$GPAPB,V,V,,,N,V,V,,,,,,,,N*68
$GPZDA,043141,02,10,2024,-0[2024/10/02, 12:31:44.157]8,00*69
[2024/10/02, 12:31:44.235]$GPRMC,043143,A,0114.4237,N,10[2024/10/02, 12:31:44.501]338.6283,E,4.44,180.74,021024,0.16,E,D*23
$GPRMB,A,,,,,,,,,,,,V,D*[2024/10/02, 12:31:44.642]19
$GPGGA,043143,0114.4237,N,10338.6283,E,2,16,0.72,-8.30,M,9.57,M[2024/10/02, 12:31:44.782],,*6F
$GPGSA,A,3,10,12,18,23,25,28,29,32,,,,,1.23,0.72,0.99*0A
$G[2024/10/02, 12:31:44.923]PGSV,5,1,17,10,16,341,17,12,22,093,30,18,74,178,30,23,37,017,20*71[2024/10/02, 12:31:45.063]
$GPGSV,5,2,17,25,39,134,29,28,44,225,21,29,18,167,25,32,26,306,23*[2024/10/02, 12:31:45.204]70
$GPGSV,5,3,17,41,65,266,25,,30,112,28,,49,142,30,,76,336,19*77[2024/10/02, 12:31:45.344]
$GPGSV,5,4,17,,06,153,20,,68,000,20,,55,181,27,,25,291,16*76
$GPG[2024/10/02, 12:31:45.485]SV,5,5,17,,49,240,27*41
$GPGLL,0114.4237,N,10338.6283,E,043143,A,D[2024/10/02, 12:31:45.626]*43
$GPBOD,,T,,M,,*47
$GPBWC,043143,,,,,,T,,M,,N,,D*7F
$GPVTG,1[2024/10/02, 12:31:45.766]80.74,T,180.58,M,4.44,N,8.22,K,D*24
$PGRME,16.02,M,17.55,M,23.76,M[2024/10/02, 12:31:45.907]*2D
$PGRMZ,-27,f,3*03
$PGRMM,WGS 84*06
$HCHDM,,M*07
$WIMWV,,R,[2024/10/02, 12:31:46.047],,A*6D
$GPAPB,V,V,,,N,V,V,,,,,,,,N*68
$GPZDA,043143,02,10,2024,-0[2024/10/02, 12:31:46.157]8,00*6B
[2024/10/02, 12:31:46.297]$GPRMC,043145,A,0114.4211,N,10338.6283,E,4.17,180.88,021024,[2024/10/02, 12:31:46.563]0.16,E,D*24
$GPRMB,A,,,,,,,,,,,,V,D*19
$GPGGA,043145,0114.4211,N,[2024/10/02, 12:31:46.703]10338.6283,E,2,16,0.72,-9.29,M,9.57,M,,*64
$GPGSA,A,3,10,12,18,23,[2024/10/02, 12:31:46.844]25,28,29,32,,,,,1.23,0.72,1.00*0B
$GPGSV,5,1,17,10,16,341,15,12,2[2024/10/02, 12:31:46.985]2,093,30,18,74,178,30,23,37,018,20*7C
$GPGSV,5,2,17,25,39,134,29,28[2024/10/02, 12:31:47.125],44,225,20,29,18,167,25,32,26,306,19*78
$GPGSV,5,3,17,41,65,266,25[2024/10/02, 12:31:47.266],,30,112,27,,49,142,29,,76,336,19*70
$GPGSV,5,4,17,,06,153,21,,68,[2024/10/02, 12:31:47.407]000,21,,55,181,26,,25,291,13*72
$GPGSV,5,5,17,,49,240,27*41
$GPG[2024/10/02, 12:31:47.547]LL,0114.4211,N,10338.6283,E,043145,A,D*41
$GPBOD,,T,,M,,*47
$GPBW[2024/10/02, 12:31:47.688]C,043145,,,,,,T,,M,,N,,D*79
$GPVTG,180.88,T,180.72,M,4.17,N,7.72,[2024/10/02, 12:31:47.828]K,D*23
$PGRME,15.99,M,17.51,M,23.72,M*2C
$PGRMZ,-30,f,3*05
$PGRM[2024/10/02, 12:31:47.969]M,WGS 84*06
$HCHDM,,M*07
$WIMWV,,R,,,A*6D
$GPAPB,V,V,,,N,V,V,,,[2024/10/02, 12:31:48.094],,,,,N*68
$GPZDA,043145,02,10,2024,-08,00*6D
[2024/10/02, 12:31:48.297]$GPRMC,043147,A,0114.4185,N,10338.6284,E,4.15,177.33,021024,[2024/10/02, 12:31:48.562]0.16,E,D*25
$GPRMB,A,,,,,,,,,,,,V,D*19
$GPGGA,043147,0114.4185,N[2024/10/02, 12:31:48.703],10338.6284,E,2,16,0.72,-9.51,M,9.57,M,,*60
$GPGSA,A,3,10,12,18,23[2024/10/02, 12:31:48.844],25,28,29,32,,,,,1.23,0.72,0.99*0A
$GPGSV,5,1,17,10,16,341,15,12,2[2024/10/02, 12:31:48.984]2,093,30,18,74,178,30,23,37,018,16*79
$GPGSV,5,2,17,25,39,133,30,2[2024/10/02, 12:31:49.125]8,44,225,18,29,18,167,26,32,26,306,22*77
$GPGSV,5,3,17,41,65,266,2[2024/10/02, 12:31:49.265]6,,30,112,28,,49,142,29,,76,336,18*7D
$GPGSV,5,4,17,,06,153,20,,68[2024/10/02, 12:31:49.406],000,21,,55,181,28,,25,291,13*7D
$GPGSV,5,5,17,,49,240,27*41
$GPG[2024/10/02, 12:31:49.547]LL,0114.4185,N,10338.6284,E,043147,A,D*4A
$GPBOD,,T,,M,,*47
$GPBW[2024/10/02, 12:31:49.687]C,043147,,,,,,T,,M,,N,,D*7B
$GPVTG,177.33,T,177.17,M,4.15,N,7.69,K[2024/10/02, 12:31:49.828],D*28
$PGRME,15.71,M,17.51,M,23.53,M*29
$PGRMZ,-31,f,3*04
$PGRM[2024/10/02, 12:31:49.968]M,WGS 84*06
$HCHDM,,M*07
$WIMWV,,R,,,A*6D
$GPAPB,V,V,,,N,V,V,,,,[2024/10/02, 12:31:50.093],,,,N*68
$GPZDA,043147,02,10,2024,-08,00*6F
[2024/10/02, 12:31:50.296]$GPRMC,043149,A,0114.4158,N,10338.6287,E,4.30,176.98,021024,[2024/10/02, 12:31:50.562]0.16,E,D*2F
$GPRMB,A,,,,,,,,,,,,V,D*19
$GPGGA,043149,0114.4158,N[2024/10/02, 12:31:50.703],10338.6287,E,2,16,0.72,-10.10,M,9.57,M,,*50
$GPGSA,A,3,10,12,18,2[2024/10/02, 12:31:50.843]3,25,28,29,32,,,,,1.23,0.72,0.99*0A
$GPGSV,5,1,17,10,16,341,17,12,[2024/10/02, 12:31:50.984]22,093,31,18,74,178,29,23,37,018,20*77
$GPGSV,5,2,17,25,39,133,30,[2024/10/02, 12:31:51.124]28,44,226,19,29,18,167,25,32,26,306,20*74
$GPGSV,5,3,17,41,65,266,[2024/10/02, 12:31:51.265]26,,30,112,27,,49,142,29,,76,336,18*72
$GPGSV,5,4,17,,06,153,21,,6[2024/10/02, 12:31:51.405]8,000,20,,55,181,28,,25,291,14*7A
$GPGSV,5,5,17,,49,240,28*4E
$GP[2024/10/02, 12:31:51.546]GLL,0114.4158,N,10338.6287,E,043149,A,D*47
$GPBOD,,T,,M,,*47
$GP[2024/10/02, 12:31:51.687]BWC,043149,,,,,,T,,M,,N,,D*75
$GPVTG,176.98,T,176.82,M,4.30,N,7.97[2024/10/02, 12:31:51.827],K,D*23
$PGRME,15.56,M,17.08,M,23.11,M*26
$PGRMZ,-33,f,3*06
$PGR[2024/10/02, 12:31:51.968]MM,WGS 84*06
$HCHDM,,M*07
$WIMWV,,R,,,A*6D
$GPAPB,V,V,,,N,V,V,,[2024/10/02, 12:31:52.093],,,,,,N*68
$GPZDA,043149,02,10,2024,-08,00*61
[2024/10/02, 12:31:52.296]$GPRMC,043151,A,0114.4130,N,10338.6285,E,4.56,177.01,021024[2024/10/02, 12:31:52.562],0.16,E,D*2B
$GPRMB,A,,,,,,,,,,,,V,D*19
$GPGGA,043151,0114.4130,N[2024/10/02, 12:31:52.702],10338.6285,E,2,16,0.72,-9.20,M,9.57,M,,*6E
$GPGSA,A,3,10,12,18,23[2024/10/02, 12:31:52.843],25,28,29,32,,,,,1.23,0.72,0.99*0A
$GPGSV,5,1,17,10,16,341,17,12,2[2024/10/02, 12:31:52.983]2,093,31,18,74,178,30,23,37,018,18*74
$GPGSV,5,2,17,25,39,133,30,2[2024/10/02, 12:31:53.124]8,44,226,20,29,18,167,26,32,26,306,19*77
$GPGSV,5,3,17,41,65,266,2[2024/10/02, 12:31:53.265]6,,30,112,26,,49,142,30,,76,336,21*71
$GPGSV,5,4,17,,06,153,19,,68[2024/10/02, 12:31:53.405],000,22,,55,181,28,,25,291,19*7E
$GPGSV,5,5,17,,49,240,28*4E
$GPG[2024/10/02, 12:31:53.546]LL,0114.4130,N,10338.6285,E,043151,A,D*42
$GPBOD,,T,,M,,*47
$GPBW[2024/10/02, 12:31:53.686]C,043151,,,,,,T,,M,,N,,D*7C
$GPVTG,177.01,T,176.85,M,4.56,N,8.44,[2024/10/02, 12:31:53.827]K,D*24
$PGRME,15.54,M,16.78,M,22.87,M*2C
$PGRMZ,-30,f,3*05
$PGRM[2024/10/02, 12:31:53.967]M,WGS 84*06
$HCHDM,,M*07
$WIMWV,,R,,,A*6D
$GPAPB,V,V,,,N,V,V,,,[2024/10/02, 12:31:54.092],,,,,N*68
$GPZDA,043151,02,10,2024,-08,00*68
[2024/10/02, 12:31:54.296]$GPRMC,043153,A,0114.4106,N,10338.6286,E,4.51,177.18,021024[2024/10/02, 12:31:54.561],0.16,E,D*20
$GPRMB,A,,,,,,,,,,,,V,D*19
$GPGGA,043153,0114.4106,N[2024/10/02, 12:31:54.702],10338.6286,E,2,16,0.72,-10.12,M,9.57,M,,*53
$GPGSA,A,3,10,12,18,[2024/10/02, 12:31:54.842]23,25,28,29,32,,,,,1.23,0.72,0.99*0A
$GPGSV,5,1,17,10,16,341,17,12[2024/10/02, 12:31:54.983],22,093,31,18,74,178,30,23,37,018,17*7B
$GPGSV,5,2,17,25,39,133,30[2024/10/02, 12:31:55.123],28,44,226,21,29,18,167,26,32,26,307,18*76
$GPGSV,5,3,17,41,65,266[2024/10/02, 12:31:55.264],26,,30,112,26,,49,142,29,,76,336,18*73
$GPGSV,5,4,17,,06,153,17,,[2024/10/02, 12:31:55.405]68,000,20,,55,181,28,,25,291,18*73
$GPGSV,5,5,17,,49,240,27*41
$G[2024/10/02, 12:31:55.545]PGLL,0114.4106,N,10338.6286,E,043153,A,D*46
$GPBOD,,T,,M,,*47
$GP[2024/10/02, 12:31:55.686]BWC,043153,,,,,,T,,M,,N,,D*7E
$GPVTG,177.18,T,177.02,M,4.51,N,8.36[2024/10/02, 12:31:55.826],K,D*20
$PGRME,15.51,M,16.55,M,22.68,M*27
$PGRMZ,-33,f,3*06
$PG[2024/10/02, 12:31:55.967]RMM,WGS 84*06
$HCHDM,,M*07
$WIMWV,,R,,,A*6D
$GPAPB,V,V,,,N,V,V,,[2024/10/02, 12:31:56.092],,,,,,N*68
$GPZDA,043153,02,10,2024,-08,00*6A
[2024/10/02, 12:31:56.295]$GPRMC,043155,A,0114.4081,N,10338.6284,E,4.48,177.96,021024[2024/10/02, 12:31:56.561],0.16,E,D*24
$GPRMB,A,,,,,,,,,,,,V,D*19
$GPGGA,043155,0114.4081,N[2024/10/02, 12:31:56.701],10338.6284,E,2,16,0.72,-9.63,M,9.57,M,,*67
$GPGSA,A,3,10,12,18,23[2024/10/02, 12:31:56.842],25,28,29,32,,,,,1.23,0.72,0.99*0A
$GPGSV,5,1,17,10,16,341,20,12,[2024/10/02, 12:31:56.982]22,093,31,18,74,178,30,23,37,018,18*70
$GPGSV,5,2,17,25,39,133,30,2[2024/10/02, 12:31:57.123]8,44,226,22,29,18,167,25,32,26,307,17*79
$GPGSV,5,3,17,41,65,266,2[2024/10/02, 12:31:57.263]7,,31,112,27,,49,142,29,,76,336,21*78
$GPGSV,5,4,17,,06,153,22,,68[2024/10/02, 12:31:57.404],000,20,,55,181,29,,25,291,21*7E
$GPGSV,5,5,17,,49,240,28*4E
$GP[2024/10/02, 12:31:57.545]GLL,0114.4081,N,10338.6284,E,043155,A,D*4C
$GPBOD,,T,,M,,*47
$GPB[2024/10/02, 12:31:57.685]WC,043155,,,,,,T,,M,,N,,D*78
$GPVTG,177.96,T,177.80,M,4.48,N,8.29,[2024/10/02, 12:31:57.826]K,D*2A
$PGRME,15.51,M,16.35,M,22.54,M*2E
$PGRMZ,-32,f,3*07
$PGR[2024/10/02, 12:31:57.967]MM,WGS 84*06
$HCHDM,,M*07
$WIMWV,,R,,,A*6D
$GPAPB,V,V,,,N,V,V,,,[2024/10/02, 12:31:58.092],,,,,N*68
$GPZDA,043155,02,10,2024,-08,00*6C
[2024/10/02, 12:31:58.294]$GPRMC,043157,A,0114.4059,N,10338.6285,E,4.46,178.99,021024[2024/10/02, 12:31:58.560],0.16,E,D*2C
$GPRMB,A,,,,,,,,,,,,V,D*19
$GPGGA,043157,0114.4059,[2024/10/02, 12:31:58.701]N,10338.6285,E,2,16,0.72,-10.20,M,9.57,M,,*5E
$GPGSA,A,3,10,12,18,[2024/10/02, 12:31:58.841]23,25,28,29,32,,,,,1.23,0.72,0.99*0A
$GPGSV,5,1,17,10,16,341,17,12[2024/10/02, 12:31:58.982],22,093,31,18,74,178,30,23,37,018,17*7B
$GPGSV,5,2,17,25,39,133,30[2024/10/02, 12:31:59.123],28,44,226,19,29,18,167,26,32,26,307,16*73
$GPGSV,5,3,17,41,65,266[2024/10/02, 12:31:59.263],27,,31,112,26,,49,142,29,,76,336,20*78
$GPGSV,5,4,17,,06,153,21,,[2024/10/02, 12:31:59.404]68,000,19,,55,181,29,,25,291,16*73
$GPGSV,5,5,17,,49,240,28*4E
$G[2024/10/02, 12:31:59.544]PGLL,0114.4059,N,10338.6285,E,043157,A,D*4A
$GPBOD,,T,,M,,*47
$GP[2024/10/02, 12:31:59.685]BWC,043157,,,,,,T,,M,,N,,D*7A
$GPVTG,178.99,T,178.83,M,4.46,N,8.2[2024/10/02, 12:31:59.825]6,K,D*27
$PGRME,15.51,M,16.31,M,22.51,M*2F
$PGRMZ,-33,f,3*06
$PG[2024/10/02, 12:31:59.966]RMM,WGS 84*06
$HCHDM,,M*07
$WIMWV,,R,,,A*6D
$GPAPB,V,V,,,N,V,V,[2024/10/02, 12:32:00.091],,,,,,,N*68
$GPZDA,043157,02,10,2024,-08,00*6E
[2024/10/02, 12:32:00.294]$GPRMC,043159,A,0114.4036,N,10338.6287,E,4.27,173.04,02102[2024/10/02, 12:32:00.560]4,0.16,E,D*21
$GPRMB,A,,,,,,,,,,,,V,D*19
$GPGGA,043159,0114.4036,[2024/10/02, 12:32:00.700]N,10338.6287,E,2,16,0.72,-11.04,M,9.57,M,,*5C
$GPGSA,A,3,10,12,18,[2024/10/02, 12:32:00.841]23,25,28,29,32,,,,,1.23,0.72,1.00*0B
$GPGSV,5,1,17,10,16,341,17,12[2024/10/02, 12:32:00.981],22,093,30,18,74,178,30,23,37,018,18*75
$GPGSV,5,2,17,25,39,133,30[2024/10/02, 12:32:01.122],28,44,226,19,29,18,167,26,32,26,307,17*72
$GPGSV,5,3,17,41,65,266[2024/10/02, 12:32:01.263],27,,31,112,27,,49,142,29,,76,336,22*7B
$GPGSV,5,4,17,,06,153,20,,[2024/10/02, 12:32:01.403]68,000,20,,55,181,28,,25,291,16*79
$GPGSV,5,5,17,,49,240,27*41
$G[2024/10/02, 12:32:01.544]PGLL,0114.4036,N,10338.6287,E,043159,A,D*4F
$GPBOD,,T,,M,,*47
$G[2024/10/02, 12:32:01.684]PBWC,043159,,,,,,T,,M,,N,,D*74
$GPVTG,173.04,T,172.88,M,4.27,N,7.9[2024/10/02, 12:32:01.825]1,K,D*2D
$PGRME,15.51,M,16.56,M,22.69,M*25
$PGRMZ,-36,f,3*03
$P[2024/10/02, 12:32:01.966]GRMM,WGS 84*06
$HCHDM,,M*07
$WIMWV,,R,,,A*6D
$GPAPB,V,V,,,N,V,V,[2024/10/02, 12:32:02.091],,,,,,,N*68
$GPZDA,043159,02,10,2024,-08,00*60
[2024/10/02, 12:32:02.294]$GPRMC,043201,A,0114.4012,N,10338.6290,E,4.24,174.17,02102[2024/10/02, 12:32:02.559]4,0.16,E,D*29
$GPRMB,A,,,,,,,,,,,,V,D*19
$GPGGA,043201,0114.4012,[2024/10/02, 12:32:02.700]N,10338.6290,E,2,16,0.72,-11.35,M,9.57,M,,*50
$GPGSA,A,3,10,12,18,[2024/10/02, 12:32:02.840]23,25,28,29,32,,,,,1.23,0.72,0.99*0A
$GPGSV,5,1,17,10,16,341,16,1[2024/10/02, 12:32:02.981]2,22,093,31,18,74,178,30,23,37,018,17*7A
$GPGSV,5,2,17,25,39,133,3[2024/10/02, 12:32:03.122]0,28,44,226,17,29,18,167,23,32,26,307,17*79
$GPGSV,5,3,17,41,65,266[2024/10/02, 12:32:03.262],27,,31,112,26,,49,142,29,,76,336,22*7A
$GPGSV,5,4,17,,06,153,20,,[2024/10/02, 12:32:03.403]68,000,21,,55,181,26,,25,291,19*79
$GPGSV,5,5,17,,49,240,28*4E
$[2024/10/02, 12:32:03.543]GPGLL,0114.4012,N,10338.6290,E,043201,A,D*41
$GPBOD,,T,,M,,*47
$G[2024/10/02, 12:32:03.684]PBWC,043201,,,,,,T,,M,,N,,D*7A
$GPVTG,174.17,T,174.01,M,4.24,N,7.[2024/10/02, 12:32:03.824]85,K,D*29
$PGRME,15.52,M,16.93,M,22.97,M*2E
$PGRMZ,-37,f,3*02
$P[2024/10/02, 12:32:03.965]GRMM,WGS 84*06
$HCHDM,,M*07
$WIMWV,,R,,,A*6D
$GPAPB,V,V,,,N,V,V[2024/10/02, 12:32:04.090],,,,,,,,N*68
$GPZDA,043201,02,10,2024,-08,00*6E
[2024/10/02, 12:32:04.293]$GPRMC,043203,A,0114.3989,N,10338.6292,E,4.25,174.45,02102[2024/10/02, 12:32:04.559]4,0.16,E,D*23
$GPRMB,A,,,,,,,,,,,,V,D*19
$GPGGA,043203,0114.3989,[2024/10/02, 12:32:04.699]N,10338.6292,E,2,16,0.72,-12.12,M,9.57,M,,*5A
$GPGSA,A,3,10,12,18[2024/10/02, 12:32:04.829],23,25,28,29,32,,,,,1.23,0.72,0.99*0A
$GPGSV,5,1,17,10,16,341[2024/10/02, 12:32:04.970],15,12,22,093,31,18,74,178,30,23,37,018,19*77
$GPGSV,5,2,17,25,39,[2024/10/02, 12:32:05.111]133,30,28,44,226,18,29,18,167,26,32,26,307,16*72
$GPGSV,5,3,17,41,[2024/10/02, 12:32:05.251]65,266,27,,31,112,26,,49,142,29,,75,336,21*7A
$GPGSV,5,4,17,,06,15[2024/10/02, 12:32:05.392]3,19,,68,000,20,,55,181,28,,25,291,17*72
$GPGSV,5,5,17,,49,240,26*[2024/10/02, 12:32:05.532]40
$GPGLL,0114.3989,N,10338.6292,E,043203,A,D*4D
$GPBOD,,T,,M,,*4[2024/10/02, 12:32:05.673]7
$GPBWC,043203,,,,,,T,,M,,N,,D*78
$GPVTG,174.45,T,174.29,M,4.25,[2024/10/02, 12:32:05.814]N,7.86,K,D*26
$PGRME,15.53,M,17.37,M,23.30,M*2C
$PGRMZ,-40,f,3*0[2024/10/02, 12:32:05.954]2
$PGRMM,WGS 84*06
$HCHDM,,M*07
$WIMWV,,R,,,A*6D
$GPAPB,V,V,,,[2024/10/02, 12:32:06.095]N,V,V,,,,,,,,N*68
$GPZDA,043203,02,10,2024,-08,00*6C
[2024/10/02, 12:32:06.282]$GPRMC,043205,A,0114.3961,N,10[2024/10/02, 12:32:06.501]338.6290,E,4.32,178.55,021024,0.16,E,D*2A
$GPRMB,A,,,,,,,,,,,,V,D*[2024/10/02, 12:32:06.641]19
$GPGGA,043205,0114.3961,N,10338.6290,E,2,16,0.72,-12.35,M,9.57,[2024/10/02, 12:32:06.782]M,,*5D
$GPGSA,A,3,10,12,18,23,25,28,29,32,,,,,1.23,0.72,0.99*0A
$[2024/10/02, 12:32:06.923]GPGSV,5,1,17,10,16,341,17,12,22,093,31,18,74,178,30,23,37,018,18*74[2024/10/02, 12:32:07.063]
$GPGSV,5,2,17,25,39,133,30,28,44,226,16,29,18,167,24,32,26,307,20[2024/10/02, 12:32:07.204]*7B
$GPGSV,5,3,17,41,65,266,27,,31,112,26,,49,142,29,,75,336,20*7B[2024/10/02, 12:32:07.344]
$GPGSV,5,4,17,,06,153,18,,68,000,19,,55,181,28,,25,291,17*79
$GP[2024/10/02, 12:32:07.485]GSV,5,5,17,,49,240,27*41
$GPGLL,0114.3961,N,10338.6290,E,043205,A,[2024/10/02, 12:32:07.626]D*4F
$GPBOD,,T,,M,,*47
$GPBWC,043205,,,,,,T,,M,,N,,D*7E
$GPVTG,[2024/10/02, 12:32:07.766]178.55,T,178.39,M,4.32,N,8.00,K,D*21
$PGRME,15.54,M,17.76,M,23.59,[2024/10/02, 12:32:07.907]M*21
$PGRMZ,-41,f,3*03
$PGRMM,WGS 84*06
$HCHDM,,M*07
$WIMWV,,R[2024/10/02, 12:32:08.047],,,A*6D
$GPAPB,V,V,,,N,V,V,,,,,,,,N*68
$GPZDA,043205,02,10,2024,-[2024/10/02, 12:32:08.157]08,00*6A
[2024/10/02, 12:32:08.297]$GPRMC,043207,A,0114.3933,N,10338.6293,E,4.52,171.13,021024,[2024/10/02, 12:32:08.563]0.16,E,D*21
$GPRMB,A,,,,,,,,,,,,V,D*19
$GPGGA,043207,0114.3933,N,[2024/10/02, 12:32:08.704]10338.6293,E,2,16,0.72,-11.95,M,9.57,M,,*52
$GPGSA,A,3,10,12,18,2[2024/10/02, 12:32:08.844]3,25,28,29,32,,,,,1.23,0.72,0.99*0A
$GPGSV,5,1,17,10,16,341,17,12,[2024/10/02, 12:32:08.985]22,093,30,18,74,178,30,23,37,018,17*7A
$GPGSV,5,2,17,25,39,133,30,[2024/10/02, 12:32:09.125]28,44,226,21,29,18,167,25,32,26,307,15*78
$GPGSV,5,3,17,41,65,266,[2024/10/02, 12:32:09.266]27,,31,112,27,,49,142,29,,75,336,20*7A
$GPGSV,5,4,17,,06,153,18,,6[2024/10/02, 12:32:09.406]8,000,21,,55,181,28,,25,291,20*76
$GPGSV,5,5,17,,49,240,27*41
$GP[2024/10/02, 12:32:09.547]GLL,0114.3933,N,10338.6293,E,043207,A,D*49
$GPBOD,,T,,M,,*47
$GPB[2024/10/02, 12:32:09.688]WC,043207,,,,,,T,,M,,N,,D*7C
$GPVTG,171.13,T,170.97,M,4.52,N,8.36,[2024/10/02, 12:32:09.828]K,D*25
$PGRME,15.54,M,17.25,M,23.22,M*2B
$PGRMZ,-39,f,3*0C
$PGR[2024/10/02, 12:32:09.969]MM,WGS 84*06
$HCHDM,,M*07
$WIMWV,,R,,,A*6D
$GPAPB,V,V,,,N,V,V,,,[2024/10/02, 12:32:10.094],,,,,N*68
$GPZDA,043207,02,10,2024,-08,00*68
[2024/10/02, 12:32:10.297]$GPRMC,043209,A,0114.3909,N,10338.6292,E,4.64,171.78,021024,[2024/10/02, 12:32:10.562]0.16,E,D*2F
$GPRMB,A,,,,,,,,,,,,V,D*19
$GPGGA,043209,0114.3909,N,[2024/10/02, 12:32:10.703]10338.6292,E,2,16,0.72,-10.32,M,9.57,M,,*58
$GPGSA,A,3,10,12,18,2[2024/10/02, 12:32:10.844]3,25,28,29,32,,,,,1.23,0.72,0.99*0A
$GPGSV,5,1,17,10,16,341,19,12,[2024/10/02, 12:32:10.984]22,093,31,18,74,178,30,23,37,018,17*75
$GPGSV,5,2,17,25,39,133,30,[2024/10/02, 12:32:11.125]28,44,226,18,29,18,167,25,32,26,307,14*73
$GPGSV,5,3,17,41,65,266,[2024/10/02, 12:32:11.265]27,,31,112,26,,49,142,29,,75,336,21*7A
$GPGSV,5,4,17,,06,153,19,,6[2024/10/02, 12:32:11.406]8,000,19,,55,181,29,,25,291,20*7D
$GPGSV,5,5,17,,49,240,27*41
$GP[2024/10/02, 12:32:11.547]GLL,0114.3909,N,10338.6292,E,043209,A,D*4F
$GPBOD,,T,,M,,*47
$GPB[2024/10/02, 12:32:11.687]WC,043209,,,,,,T,,M,,N,,D*72
$GPVTG,171.78,T,171.62,M,4.64,N,8.60[2024/10/02, 12:32:11.828],K,D*25
$PGRME,15.55,M,16.58,M,22.73,M*24
$PGRMZ,-34,f,3*01
$PGR[2024/10/02, 12:32:11.968]MM,WGS 84*06
$HCHDM,,M*07
$WIMWV,,R,,,A*6D
$GPAPB,V,V,,,N,V,V,,[2024/10/02, 12:32:12.093],,,,,,N*68
$GPZDA,043209,02,10,2024,-08,00*66
[2024/10/02, 12:32:12.296]$GPRMC,043211,A,0114.3886,N,10338.6289,E,4.73,172.96,021024,[2024/10/02, 12:32:12.562]0.16,E,D*2F
$GPRMB,A,,,,,,,,,,,,V,D*19
$GPGGA,043211,0114.3886,N[2024/10/02, 12:32:12.702],10338.6289,E,2,16,0.72,-8.52,M,9.57,M,,*62
$GPGSA,A,3,10,12,18,23[2024/10/02, 12:32:12.843],25,28,29,32,,,,,1.23,0.72,0.99*0A
$GPGSV,5,1,17,10,16,341,19,12,2[2024/10/02, 12:32:12.984]2,093,31,18,74,178,30,23,37,018,18*7A
$GPGSV,5,2,17,25,39,133,30,2[2024/10/02, 12:32:13.124]8,44,226,19,29,18,167,25,32,26,307,14*72
$GPGSV,5,3,17,41,65,266,2[2024/10/02, 12:32:13.265]7,,31,112,27,,49,142,29,,75,336,22*78
$GPGSV,5,4,17,,06,153,18,,68[2024/10/02, 12:32:13.405],000,20,,55,181,29,,25,291,15*70
$GPGSV,5,5,17,,49,240,28*4E
$GPG[2024/10/02, 12:32:13.546]LL,0114.3886,N,10338.6289,E,043211,A,D*4A
$GPBOD,,T,,M,,*47
$GPBW[2024/10/02, 12:32:13.687]C,043211,,,,,,T,,M,,N,,D*7B
$GPVTG,172.96,T,172.80,M,4.73,N,8.75,K[2024/10/02, 12:32:13.827],D*2B
$PGRME,15.55,M,15.99,M,22.30,M*2D
$PGRMZ,-28,f,3*0C
$PGR[2024/10/02, 12:32:13.968]MM,WGS 84*06
$HCHDM,,M*07
$WIMWV,,R,,,A*6D
$GPAPB,V,V,,,N,V,V,,,[2024/10/02, 12:32:14.093],,,,,N*68
$GPZDA,043211,02,10,2024,-08,00*6F
[2024/10/02, 12:32:14.296]$GPRMC,043213,A,0114.3863,N,10338.6287,E,4.61,173.57,021024[2024/10/02, 12:32:14.561],0.16,E,D*27
$GPRMB,A,,,,,,,,,,,,V,D*19
$GPGGA,043213,0114.3863,N[2024/10/02, 12:32:14.702],10338.6287,E,2,16,0.72,-8.40,M,9.57,M,,*66
$GPGSA,A,3,10,12,18,23[2024/10/02, 12:32:14.843],25,28,29,32,,,,,1.23,0.72,0.99*0A
$GPGSV,5,1,17,10,16,341,16,12,2[2024/10/02, 12:32:14.983]2,093,29,18,74,178,30,23,37,018,18*7C
$GPGSV,5,2,17,25,39,133,31,2[2024/10/02, 12:32:15.124]8,44,226,18,29,18,167,24,32,26,307,17*70
$GPGSV,5,3,17,41,65,266,2[2024/10/02, 12:32:15.264]7,,31,112,27,,49,142,29,,75,336,21*7B
$GPGSV,5,4,17,,06,153,20,,68[2024/10/02, 12:32:15.405],000,21,,55,181,28,,25,291,17*79
$GPGSV,5,5,17,,49,240,28*4E
$GPG[2024/10/02, 12:32:15.546]LL,0114.3863,N,10338.6287,E,043213,A,D*4D
$GPBOD,,T,,M,,*47
$GPBW[2024/10/02, 12:32:15.686]C,043213,,,,,,T,,M,,N,,D*79
$GPVTG,173.57,T,173.41,M,4.61,N,8.53,[2024/10/02, 12:32:15.827]K,D*2C
$PGRME,15.55,M,15.80,M,22.17,M*20
$PGRMZ,-28,f,3*0C
$PGRM[2024/10/02, 12:32:15.967]M,WGS 84*06
$HCHDM,,M*07
$WIMWV,,R,,,A*6D
$GPAPB,V,V,,,N,V,V,,,[2024/10/02, 12:32:16.092],,,,,N*68
$GPZDA,043213,02,10,2024,-08,00*6D
[2024/10/02, 12:32:16.295]$GPRMC,043215,A,0114.3837,N,10338.6285,E,4.43,173.64,021024[2024/10/02, 12:32:16.561],0.16,E,D*22
$GPRMB,A,,,,,,,,,,,,V,D*19
$GPGGA,043215,0114.3837,N[2024/10/02, 12:32:16.702],10338.6285,E,2,16,0.72,-8.51,M,9.57,M,,*63
$GPGSA,A,3,10,12,18,23[2024/10/02, 12:32:16.842],25,28,29,32,,,,,1.23,0.72,1.00*0B
$GPGSV,5,1,17,10,16,341,20,12,2[2024/10/02, 12:32:16.983]2,093,30,18,74,178,30,23,37,018,18*71
$GPGSV,5,2,17,25,39,133,30,2[2024/10/02, 12:32:17.123]8,44,226,17,29,18,167,25,32,26,307,19*71
$GPGSV,5,3,17,41,65,266,2[2024/10/02, 12:32:17.264]7,,31,112,26,,49,142,29,,75,336,21*7A
$GPGSV,5,4,17,,06,153,18,,68[2024/10/02, 12:32:17.405],000,21,,55,181,28,,25,291,16*73
$GPGSV,5,5,17,,49,240,28*4E
$GPG[2024/10/02, 12:32:17.545]LL,0114.3837,N,10338.6285,E,043215,A,D*48
$GPBOD,,T,,M,,*47
$GPB[2024/10/02, 12:32:17.686]WC,043215,,,,,,T,,M,,N,,D*7F
$GPVTG,173.64,T,173.48,M,4.43,N,8.20,[2024/10/02, 12:32:17.826]K,D*21
$PGRME,15.56,M,15.69,M,22.10,M*23
$PGRMZ,-28,f,3*0C
$PGR[2024/10/02, 12:32:17.967]MM,WGS 84*06
$HCHDM,,M*07
$WIMWV,,R,,,A*6D
$GPAPB,V,V,,,N,V,V,,,[2024/10/02, 12:32:18.092],,,,,N*68
$GPZDA,043215,02,10,2024,-08,00*6B
[2024/10/02, 12:32:18.295]$GPRMC,043217,A,0114.3812,N,10338.6285,E,4.17,174.39,021024[2024/10/02, 12:32:18.560],0.16,E,D*29
$GPRMB,A,,,,,,,,,,,,V,D*19
$GPGGA,043217,0114.3812,N[2024/10/02, 12:32:18.701],10338.6285,E,2,16,0.72,-9.18,M,9.57,M,,*6A
$GPGSA,A,3,10,12,18,2[2024/10/02, 12:32:18.842]3,25,28,29,32,,,,,1.23,0.72,0.99*0A
$GPGSV,5,1,17,10,16,341,17,12,[2024/10/02, 12:32:18.982]22,093,30,18,74,178,30,23,37,018,18*75
$GPGSV,5,2,17,25,39,133,30,[2024/10/02, 12:32:19.123]28,44,226,18,29,18,167,25,32,26,307,16*71
$GPGSV,5,3,17,41,65,266,[2024/10/02, 12:32:19.263]27,,31,112,25,,49,142,29,,75,336,19*72
$GPGSV,5,4,17,,06,153,20,,6[2024/10/02, 12:32:19.404]8,000,22,,55,181,28,,25,291,19*74
$GPGSV,5,5,17,,49,240,27*41
$GP[2024/10/02, 12:32:19.556]GLL,0114.3812,N,10338.6285,E,043217,A,D*4D
$GPBOD,,T,,M,,*47
$GPBWC,04[2024/10/02, 12:32:19.696]3217,,,,,,T,,M,,N,,D*7D
$GPVTG,174.39,T,174.23,M,4.17,N,7.72,K,D*2[2024/10/02, 12:32:19.837]D
$PGRME,15.56,M,15.92,M,22.26,M*22
$PGRMZ,-30,f,3*05
$PGRMM,WG[2024/10/02, 12:32:19.977]S 84*06
$HCHDM,,M*07
$WIMWV,,R,,,A*6D
$GPAPB,V,V,,,N,V,V,,,,,,,,[2024/10/02, 12:32:20.087]N*68
$GPZDA,043217,02,10,2024,-08,00*69
[2024/10/02, 12:32:20.290]$GPRMC,043219,A,0114.3785,N,10338.6285,E,4.20,175.25,0210[2024/10/02, 12:32:20.555]24,0.16,E,D*2E
$GPRMB,A,,,,,,,,,,,,V,D*19
$GPGGA,043219,0114.378[2024/10/02, 12:32:20.696]5,N,10338.6285,E,2,16,0.72,-9.75,M,9.57,M,,*6E
$GPGSA,A,3,10,12,18[2024/10/02, 12:32:20.837],23,25,28,29,32,,,,,1.23,0.72,0.99*0A
$GPGSV,5,1,17,10,16,341,18,1[2024/10/02, 12:32:20.977]2,22,093,30,18,74,178,30,23,37,018,19*7B
$GPGSV,5,2,17,25,39,133,3[2024/10/02, 12:32:21.118]0,28,44,226,21,29,18,167,22,32,26,307,15*7F
$GPGSV,5,3,17,41,65,26[2024/10/02, 12:32:21.258]6,27,,31,112,28,,49,142,28,,75,336,21*75
$GPGSV,5,4,17,,06,153,20,[2024/10/02, 12:32:21.399],68,000,22,,55,181,29,,25,291,21*7E
$GPGSV,5,5,17,,49,240,27*41
$[2024/10/02, 12:32:21.539]GPGLL,0114.3785,N,10338.6285,E,043219,A,D*42
$GPBOD,,T,,M,,*47
$G[2024/10/02, 12:32:21.680]PBWC,043219,,,,,,T,,M,,N,,D*73
$GPVTG,175.25,T,175.09,M,4.20,N,7.[2024/10/02, 12:32:21.821]78,K,D*26
$PGRME,15.57,M,16.16,M,22.44,M*28
$PGRMZ,-32,f,3*07
$P[2024/10/02, 12:32:21.961]GRMM,WGS 84*06
$HCHDM,,M*07
$WIMWV,,R,,,A*6D
$GPAPB,V,V,,,N,V,V[2024/10/02, 12:32:22.086],,,,,,,,N*68
$GPZDA,043219,02,10,2024,-08,00*67
[2024/10/02, 12:32:22.289]$GPRMC,043221,A,0114.3752,N,10338.6290,E,4.54,175.88,021[2024/10/02, 12:32:22.555]024,0.16,E,D*2F
$GPRMB,A,,,,,,,,,,,,V,D*19
$GPGGA,043221,0114.375[2024/10/02, 12:32:22.695]2,N,10338.6290,E,2,16,0.72,-9.35,M,9.57,M,,*6F
$GPGSA,A,3,10,12,18[2024/10/02, 12:32:22.836],23,25,28,29,32,,,,,1.23,0.72,0.99*0A
$GPGSV,5,1,17,10,16,341,19,1[2024/10/02, 12:32:22.977]2,22,093,31,18,74,178,30,23,37,018,17*75
$GPGSV,5,2,17,25,39,133,3[2024/10/02, 12:32:23.117]0,28,44,226,19,29,18,167,26,32,26,307,17*72
$GPGSV,5,3,17,41,65,26[2024/10/02, 12:32:23.258]6,27,,31,112,28,,49,142,29,,75,336,21*74
$GPGSV,5,4,17,,06,153,21,[2024/10/02, 12:32:23.398],68,000,21,,55,181,28,,25,291,20*7C
$GPGSV,5,5,17,,49,240,28*4E
$[2024/10/02, 12:32:23.539]GPGLL,0114.3752,N,10338.6290,E,043221,A,D*47
$GPBOD,,T,,M,,*47
$G[2024/10/02, 12:32:23.680]PBWC,043221,,,,,,T,,M,,N,,D*78
$GPVTG,175.88,T,175.72,M,4.54,N,8.[2024/10/02, 12:32:23.820]42,K,D*28
$PGRME,15.58,M,16.46,M,22.66,M*22
$PGRMZ,-31,f,3*04
$P[2024/10/02, 12:32:23.961]GRMM,WGS 84*06
$HCHDM,,M*07
$WIMWV,,R,,,A*6D
$GPAPB,V,V,,,N,V,V[2024/10/02, 12:32:24.086],,,,,,,,N*68
$GPZDA,043221,02,10,2024,-08,00*6C
[2024/10/02, 12:32:24.289]$GPRMC,043223,A,0114.3725,N,10338.6292,E,4.57,176.48,021[2024/10/02, 12:32:24.554]024,0.16,E,D*23
$GPRMB,A,,,,,,,,,,,,V,D*19
$GPGGA,043223,0114.372[2024/10/02, 12:32:24.695]5,N,10338.6292,E,2,16,0.72,-9.65,M,9.57,M,,*6A
$GPGSA,A,3,10,12,18[2024/10/02, 12:32:24.836],23,25,28,29,32,,,,,1.23,0.72,0.99*0A
$GPGSV,5,1,17,10,16,341,19,1[2024/10/02, 12:32:24.976]2,22,093,30,18,74,178,30,23,37,018,18*7B
$GPGSV,5,2,17,25,39,133,3[2024/10/02, 12:32:25.117]1,28,44,226,20,29,18,167,24,32,26,307,15*79
$GPGSV,5,3,17,41,65,26[2024/10/02, 12:32:25.257]6,27,,31,112,27,,49,142,29,,75,336,20*7A
$GPGSV,5,4,17,,06,153,18,[2024/10/02, 12:32:25.398],68,000,19,,55,181,29,,25,290,21*7C
$GPGSV,5,5,17,,49,240,27*41
$[2024/10/02, 12:32:25.538]GPGLL,0114.3725,N,10338.6292,E,043223,A,D*47
$GPBOD,,T,,M,,*47
$[2024/10/02, 12:32:25.679]GPBWC,043223,,,,,,T,,M,,N,,D*7A
$GPVTG,176.48,T,176.32,M,4.57,N,8.[2024/10/02, 12:32:25.820]47,K,D*26
$PGRME,15.59,M,16.96,M,23.04,M*2B
$PGRMZ,-32,f,3*07
$P[2024/10/02, 12:32:25.960]GRMM,WGS 84*06
$HCHDM,,M*07
$WIMWV,,R,,,A*6D
$GPAPB,V,V,,,N,V,V[2024/10/02, 12:32:26.085],,,,,,,,N*68
$GPZDA,043223,02,10,2024,-08,00*6E
[2024/10/02, 12:32:26.288]$GPRMC,043225,A,0114.3696,N,10338.6297,E,4.87,171.37,021[2024/10/02, 12:32:26.554]024,0.16,E,D*2B
$GPRMB,A,,,,,,,,,,,,V,D*19
$GPGGA,043225,0114.369[2024/10/02, 12:32:26.694]6,N,10338.6297,E,2,16,0.72,-9.22,M,9.57,M,,*63
$GPGSA,A,3,10,12,18[2024/10/02, 12:32:26.835],23,25,28,29,32,,,,,1.23,0.72,0.99*0A
$GPGSV,5,1,17,10,16,341,18,[2024/10/02, 12:32:26.976]12,22,093,31,18,74,178,30,23,37,018,19*7A
$GPGSV,5,2,17,25,39,133,3[2024/10/02, 12:32:27.116]0,28,44,226,19,29,18,167,26,32,26,307,15*70
$GPGSV,5,3,17,41,65,26[2024/10/02, 12:32:27.257]6,27,,31,112,27,,49,142,29,,75,336,20*7A
$GPGSV,5,4,17,,06,153,19,[2024/10/02, 12:32:27.398],68,000,19,,55,181,29,,25,290,15*7A
$GPGSV,5,5,17,,49,239,28*40
[2024/10/02, 12:32:27.538]$GPGLL,0114.3696,N,10338.6297,E,043225,A,D*4D
$GPBOD,,T,,M,,*47
$[2024/10/02, 12:32:27.679]GPBWC,043225,,,,,,T,,M,,N,,D*7C
$GPVTG,171.37,T,171.21,M,4.87,N,9.[2024/10/02, 12:32:27.819]01,K,D*22
$PGRME,15.61,M,16.57,M,22.76,M*29
$PGRMZ,-30,f,3*05
$[2024/10/02, 12:32:27.960]PGRMM,WGS 84*06
$HCHDM,,M*07
$WIMWV,,R,,,A*6D
$GPAPB,V,V,,,N,V,[2024/10/02, 12:32:28.085]V,,,,,,,,N*68
$GPZDA,043225,02,10,2024,-08,00*68
[2024/10/02, 12:32:28.288]$GPRMC,043227,A,0114.3671,N,10338.6298,E,4.91,176.14,021[2024/10/02, 12:32:28.553]024,0.16,E,D*2E
$GPRMB,A,,,,,,,,,,,,V,D*19
$GPGGA,043227,0114.36[2024/10/02, 12:32:28.694]71,N,10338.6298,E,2,16,0.72,-6.97,M,9.57,M,,*66
$GPGSA,A,3,10,12,1[2024/10/02, 12:32:28.835]8,23,25,28,29,32,,,,,1.23,0.72,0.99*0A
$GPGSV,5,1,17,10,16,341,15,[2024/10/02, 12:32:28.975]12,22,093,30,18,74,178,30,23,37,018,17*78
$GPGSV,5,2,17,25,39,133,[2024/10/02, 12:32:29.116]30,28,44,226,17,29,18,167,25,32,26,307,17*7F
$GPGSV,5,3,17,41,65,2[2024/10/02, 12:32:29.256]66,27,,31,112,25,,49,142,29,,75,336,20*78
$GPGSV,5,4,17,,06,153,17[2024/10/02, 12:32:29.397],,68,000,21,,55,181,28,,25,290,17*7C
$GPGSV,5,5,17,,49,239,28*40
[2024/10/02, 12:32:29.538]$GPGLL,0114.3671,N,10338.6298,E,043227,A,D*49
$GPBOD,,T,,M,,*47
$[2024/10/02, 12:32:29.678]GPBWC,043227,,,,,,T,,M,,N,,D*7E
$GPVTG,176.14,T,175.98,M,4.91,N,9[2024/10/02, 12:32:29.819].10,K,D*25
$PGRME,15.62,M,16.34,M,22.60,M*28
$PGRMZ,-23,f,3*07
$[2024/10/02, 12:32:29.959]PGRMM,WGS 84*06
$HCHDM,,M*07
$WIMWV,,R,,,A*6D
$GPAPB,V,V,,,N,V,[2024/10/02, 12:32:30.084]V,,,,,,,,N*68
$GPZDA,043227,02,10,2024,-08,00*6A
[2024/10/02, 12:32:30.287]$GPRMC,043229,A,0114.3643,N,10338.6302,E,4.58,176.17,021[2024/10/02, 12:32:30.553]024,0.16,E,D*25
$GPRMB,A,,,,,,,,,,,,V,D*19
$GPGGA,043229,0114.36[2024/10/02, 12:32:30.693]43,N,10338.6302,E,2,16,0.72,-6.31,M,9.57,M,,*67
$GPGSA,A,3,10,12,1[2024/10/02, 12:32:30.834]8,23,25,28,29,32,,,,,1.23,0.72,0.99*0A
$GPGSV,5,1,17,10,16,341,16,[2024/10/02, 12:32:30.975]12,22,093,30,18,74,178,30,23,37,018,14*78
$GPGSV,5,2,17,25,39,133,[2024/10/02, 12:32:31.115]30,28,44,226,16,29,18,167,26,32,26,307,17*7D
$GPGSV,5,3,17,41,65,2[2024/10/02, 12:32:31.256]66,27,,31,112,26,,49,142,29,,75,336,19*71
$GPGSV,5,4,17,,06,153,19[2024/10/02, 12:32:31.396],,68,000,19,,55,181,27,,25,290,15*74
$GPGSV,5,5,17,,49,239,28*40
[2024/10/02, 12:32:31.537]$GPGLL,0114.3643,N,10338.6302,E,043229,A,D*44
$GPBOD,,T,,M,,*47
[2024/10/02, 12:32:31.676]$GPBWC,043229,,,,,,T,,M,,N,,D*70
$GPVTG,176.17,T,176.01,M,4.58,N,[2024/10/02, 12:32:31.816]8.48,K,D*2C
$PGRME,15.63,M,16.33,M,22.60,M*2E
$PGRMZ,-21,f,3*05
[2024/10/02, 12:32:31.957]$PGRMM,WGS 84*06
$HCHDM,,M*07
$WIMWV,,R,,,A*6D
$GPAPB,V,V,,,N,V[2024/10/02, 12:32:32.082],V,,,,,,,,N*68
$GPZDA,043229,02,10,2024,-08,00*64
[2024/10/02, 12:32:32.285]$GPRMC,043231,A,0114.3618,N,10338.6309,E,4.52,175.07,0[2024/10/02, 12:32:32.551]21024,0.16,E,D*21
$GPRMB,A,,,,,,,,,,,,V,D*19
$GPGGA,043231,0114.3[2024/10/02, 12:32:32.691]618,N,10338.6309,E,2,16,0.72,-6.44,M,9.57,M,,*69
$GPGSA,A,3,10,12,[2024/10/02, 12:32:32.832]18,23,25,28,29,32,,,,,1.23,0.72,0.99*0A
$GPGSV,5,1,17,10,16,341,16[2024/10/02, 12:32:32.972],12,22,093,30,18,74,178,30,23,37,018,15*79
$GPGSV,5,2,17,25,39,133[2024/10/02, 12:32:33.113],30,28,44,226,17,29,18,167,26,32,26,307,18*73
$GPGSV,5,3,17,41,65,[2024/10/02, 12:32:33.254]266,27,,31,112,27,,49,142,29,,75,336,21*7B
$GPGSV,5,4,17,,06,153,2[2024/10/02, 12:32:33.394]0,,68,000,21,,55,181,27,,25,290,14*74
$GPGSV,5,5,17,,49,239,28*40[2024/10/02, 12:32:33.535]
$GPGLL,0114.3618,N,10338.6309,E,043231,A,D*48
$GPBOD,,T,,M,,*47
[2024/10/02, 12:32:33.675]$GPBWC,043231,,,,,,T,,M,,N,,D*79
$GPVTG,175.07,T,174.91,M,4.52,N,[2024/10/02, 12:32:33.816]8.38,K,D*28
$PGRME,15.64,M,16.38,M,22.65,M*27
$PGRMZ,-21,f,3*05
[2024/10/02, 12:32:33.957]$PGRMM,WGS 84*06
$HCHDM,,M*07
$WIMWV,,R,,,A*6D
$GPAPB,V,V,,,N,V[2024/10/02, 12:32:34.082],V,,,,,,,,N*68
$GPZDA,043231,02,10,2024,-08,00*6D
[2024/10/02, 12:32:34.285]$GPRMC,043233,A,0114.3592,N,10338.6316,E,4.57,174.80,0[2024/10/02, 12:32:34.550]21024,0.16,E,D*27
$GPRMB,A,,,,,,,,,,,,V,D*19
$GPGGA,043233,0114.3[2024/10/02, 12:32:34.691]592,N,10338.6316,E,2,16,0.72,-6.21,M,9.57,M,,*67
$GPGSA,A,3,10,12,[2024/10/02, 12:32:34.831]18,23,25,28,29,32,,,,,1.23,0.72,0.99*0A
$GPGSV,5,1,17,10,16,341,16[2024/10/02, 12:32:34.972],12,22,093,30,18,74,178,30,23,37,018,15*79
$GPGSV,5,2,17,25,39,133[2024/10/02, 12:32:35.113],30,28,44,226,17,29,18,167,27,32,26,307,18*72
$GPGSV,5,3,17,41,65,[2024/10/02, 12:32:35.253]266,27,,31,112,25,,49,142,29,,75,336,19*72
$GPGSV,5,4,17,,06,153,1[2024/10/02, 12:32:35.394]8,,68,000,18,,55,181,28,,25,290,14*7A
$GPGSV,5,5,17,,49,239,28*40[2024/10/02, 12:32:35.534]
$GPGLL,0114.3592,N,10338.6316,E,043233,A,D*45
$GPBOD,,T,,M,,*47
[2024/10/02, 12:32:35.675]$GPBWC,043233,,,,,,T,,M,,N,,D*7B
$GPVTG,174.80,T,174.64,M,4.57,N,[2024/10/02, 12:32:35.816]8.46,K,D*20
$PGRME,15.65,M,16.72,M,22.90,M*22
$PGRMZ,-20,f,3*04
[2024/10/02, 12:32:35.956]$PGRMM,WGS 84*06
$HCHDM,,M*07
$WIMWV,,R,,,A*6D
$GPAPB,V,V,,,N,V[2024/10/02, 12:32:36.081],V,,,,,,,,N*68
$GPZDA,043233,02,10,2024,-08,00*6F
[2024/10/02, 12:32:36.284]$GPRMC,043235,A,0114.3564,N,10338.6322,E,4.57,174.95,0[2024/10/02, 12:32:36.550]21024,0.16,E,D*2B
$GPRMB,A,,,,,,,,,,,,V,D*19
$GPGGA,043235,0114.3[2024/10/02, 12:32:36.690]564,N,10338.6322,E,2,16,0.72,-6.06,M,9.57,M,,*6A
$GPGSA,A,3,10,12,[2024/10/02, 12:32:36.831]18,23,25,28,29,32,,,,,1.23,0.72,0.99*0A
$GPGSV,5,1,17,10,16,341,17[2024/10/02, 12:32:36.971],12,22,093,30,18,74,178,30,23,37,018,15*78
$GPGSV,5,2,17,25,39,133[2024/10/02, 12:32:37.112],30,28,44,226,19,29,18,167,24,32,26,307,20*74
$GPGSV,5,3,17,41,65,[2024/10/02, 12:32:37.253]266,27,,31,112,27,,49,142,28,,75,336,19*71
$GPGSV,5,4,17,,06,153,2[2024/10/02, 12:32:37.393]1,,68,000,21,,55,181,28,,25,290,15*7B
