[2024/10/02, 13:09:51.900],22.37,M*21
$PGRMZ,-3,f,3*35
$PGRMM,WGS 84*06
$HCHDM,,M*07
$WI[2024/10/02, 13:09:52.041]MWV,,R,,,A*6D
$GPAPB,V,V,,,N,V,V,,,,,,,,N*68
$GPZDA,050949,02,10,[2024/10/02, 13:09:52.166]2024,-08,00*6B
[2024/10/02, 13:09:52.244]$GPRMC,050952,A,0114.1879,N,10339.1209,E,3.72,299.3[2024/10/02, 13:09:52.510]3,021024,0.16,E,D*22
$GPRMB,A,,,,,,,,,,,,V,D*19
$GPGGA,050952,011[2024/10/02, 13:09:52.650]4.1879,N,10339.1209,E,2,18,0.92,-3.15,M,9.62,M,,*6E
$GPGSA,A,3,10,[2024/10/02, 13:09:52.791]12,18,23,25,28,29,32,,,,,1.87,0.92,1.62*0F
$GPGSV,5,1,19,10,28,351[2024/10/02, 13:09:52.931],22,12,20,074,19,18,54,174,30,23,48,038,17*7A
$GPGSV,5,2,19,25,44,[2024/10/02, 13:09:53.072]110,21,28,56,249,28,29,12,153,19,32,24,325,24*7C
$GPGSV,5,3,19,45,[2024/10/02, 13:09:53.213]00,000,28,,34,104,15,,44,147,27,,66,336,23*7A
$GPGSV,5,4,19,,55,03[2024/10/02, 13:09:53.353]4,17,,50,010,20,,60,354,21,,72,173,27*75
$GPGSV,5,5,19,,45,048,20,[2024/10/02, 13:09:53.494],28,273,28,,41,218,29*4D
$GPGLL,0114.1879,N,10339.1209,E,050952,A,[2024/10/02, 13:09:53.634]D*48
$GPBOD,,T,,M,,*47
$GPBWC,050952,,,,,,T,,M,,N,,D*75
$GPVTG,[2024/10/02, 13:09:53.775]299.33,T,299.16,M,3.72,N,6.89,K,D*20
$PGRME,13.52,M,17.85,M,22.40,[2024/10/02, 13:09:53.916]M*24
$PGRMZ,-10,f,3*07
$PGRMM,WGS 84*06
$HCHDM,,M*07
$WIMWV,,R[2024/10/02, 13:09:54.056],,,A*6D
$GPAPB,V,V,,,N,V,V,,,,,,,,N*68
$GPZDA,050952,02,10,2024,-[2024/10/02, 13:09:54.165]08,00*61
[2024/10/02, 13:09:54.243]$GPRMC,050954,A,0114.1886,N,10339.1198,E,3.62,269.6[2024/10/02, 13:09:54.509]7,021024,0.16,E,D*20
$GPRMB,A,,,,,,,,,,,,V,D*19
$GPGGA,050954,011[2024/10/02, 13:09:54.650]4.1886,N,10339.1198,E,2,10,0.92,-3.18,M,9.62,M,,*66
$GPGSA,A,3,10[2024/10/02, 13:09:54.790],12,18,23,25,28,29,32,,,,,1.87,0.92,1.62*0F
$GPGSV,5,1,19,10,28,35[2024/10/02, 13:09:54.931]1,25,12,20,074,19,18,54,174,32,23,48,038,17*7F
$GPGSV,5,2,19,25,44[2024/10/02, 13:09:55.071],110,23,28,56,249,30,29,12,153,23,32,24,325,25*7F
$GPGSV,5,3,19,45,[2024/10/02, 13:09:55.212]00,000,28,,34,104,15,,44,147,27,,66,336,22*7B
$GPGSV,5,4,19,,55,03[2024/10/02, 13:09:55.353]4,15,,50,010,18,,60,354,21,,72,173,28*73
$GPGSV,5,5,19,,45,048,17,[2024/10/02, 13:09:55.493],28,273,30,,41,218,32*4A
$GPGLL,0114.1886,N,10339.1198,E,050954,A[2024/10/02, 13:09:55.634],D*45
$GPBOD,,T,,M,,*47
$GPBWC,050954,,,,,,T,,M,,N,,D*73
$GPVTG,[2024/10/02, 13:09:55.774]269.67,T,269.51,M,3.62,N,6.70,K,D*25
$PGRME,13.54,M,18.79,M,23.16,[2024/10/02, 13:09:55.915]M*2C
$PGRMZ,-10,f,3*07
$PGRMM,WGS 84*06
$HCHDM,,M*07
$WIMWV,,R[2024/10/02, 13:09:56.056],,,A*6D
$GPAPB,V,V,,,N,V,V,,,,,,,,N*68
$GPZDA,050954,02,10,2024,[2024/10/02, 13:09:56.165]-08,00*67
[2024/10/02, 13:09:56.243]$GPRMC,050956,A,0114.1890,N,10339.1182,E,3.52,259.2[2024/10/02, 13:09:56.509]6,021024,0.16,E,D*2B
$GPRMB,A,,,,,,,,,,,,V,D*19
$GPGGA,050956,01[2024/10/02, 13:09:56.649]14.1890,N,10339.1182,E,2,10,0.92,-3.04,M,9.62,M,,*65
$GPGSA,A,3,10[2024/10/02, 13:09:56.790],12,18,23,25,28,29,32,,,,,1.87,0.92,1.62*0F
$GPGSV,5,1,19,10,28,35[2024/10/02, 13:09:56.930]1,21,12,20,074,18,18,54,174,32,23,48,038,23*7D
$GPGSV,5,2,19,25,44[2024/10/02, 13:09:57.071],110,22,28,56,249,30,29,12,153,23,32,24,325,20*7B
$GPGSV,5,3,19,45[2024/10/02, 13:09:57.212],00,000,27,,34,104,14,,44,147,26,,66,336,23*75
$GPGSV,5,4,19,,55,0[2024/10/02, 13:09:57.352]34,16,,50,010,18,,60,354,20,,72,173,29*70
$GPGSV,5,5,19,,45,048,17[2024/10/02, 13:09:57.493],,28,273,29,,41,218,32*42
$GPGLL,0114.1890,N,10339.1182,E,050956,A[2024/10/02, 13:09:57.633],D*4B
$GPBOD,,T,,M,,*47
$GPBWC,050956,,,,,,T,,M,,N,,D*71
$GPVTG,[2024/10/02, 13:09:57.774]259.26,T,259.10,M,3.52,N,6.52,K,D*26
$PGRME,13.57,M,19.82,M,24.02[2024/10/02, 13:09:57.915],M*28
$PGRMZ,-10,f,3*07
$PGRMM,WGS 84*06
$HCHDM,,M*07
$WIMWV,,R[2024/10/02, 13:09:58.055],,,A*6D
$GPAPB,V,V,,,N,V,V,,,,,,,,N*68
$GPZDA,050956,02,10,2024,[2024/10/02, 13:09:58.165]-08,00*65
[2024/10/02, 13:09:58.243]$GPRMC,050958,A,0114.1894,N,10339.1170,E,3.28,264.6[2024/10/02, 13:09:58.508]8,021024,0.16,E,D*25
$GPRMB,A,,,,,,,,,,,,V,D*19
$GPGGA,050958,011[2024/10/02, 13:09:58.649]4.1894,N,10339.1170,E,2,10,0.92,-3.31,M,9.62,M,,*64
$GPGSA,A,3,10,[2024/10/02, 13:09:58.789]12,18,23,25,28,29,32,,,,,1.87,0.92,1.62*0F
$GPGSV,5,1,19,10,28,351[2024/10/02, 13:09:58.930],18,12,20,074,17,18,54,174,33,23,48,038,23*79
$GPGSV,5,2,19,25,44,[2024/10/02, 13:09:59.070]110,16,28,56,249,30,29,12,153,22,32,24,325,21*7C
$GPGSV,5,3,19,45,[2024/10/02, 13:09:59.211]00,000,27,,34,104,15,,44,147,24,,66,336,23*76
$GPGSV,5,4,19,,55,03[2024/10/02, 13:09:59.352]4,18,,50,010,15,,60,354,18,,72,173,30*70
$GPGSV,5,5,19,,45,048,15,[2024/10/02, 13:09:59.492],28,273,28,,41,218,32*41
$GPGLL,0114.1894,N,10339.1170,E,050958,A,[2024/10/02, 13:09:59.633]D*4C
$GPBOD,,T,,M,,*47
$GPBWC,050958,,,,,,T,,M,,N,,D*7F
$GPVTG,[2024/10/02, 13:09:59.773]264.68,T,264.52,M,3.28,N,6.08,K,D*28
$PGRME,13.62,M,20.93,M,24.97,[2024/10/02, 13:09:59.914]M*28
$PGRMZ,-11,f,3*06
$PGRMM,WGS 84*06
$HCHDM,,M*07
$WIMWV,,R[2024/10/02, 13:10:00.055],,,A*6D
$GPAPB,V,V,,,N,V,V,,,,,,,,N*68
$GPZDA,050958,02,10,2024,[2024/10/02, 13:10:00.164]-08,00*6B
[2024/10/02, 13:10:00.242]$GPRMC,050959,A,0114.1896,N,10339.1149,E,3.21,290.1[2024/10/02, 13:10:00.508]1,021024,0.16,E,D*20
$GPRMB,A,,,,,,,,,,,,V,D*19
$GPGGA,050959,01[2024/10/02, 13:10:00.648]14.1896,N,10339.1149,E,2,10,0.67,-4.15,M,9.62,M,,*66
$GPGSA,A,3,10[2024/10/02, 13:10:00.789],12,18,23,25,28,29,32,,,,,1.34,0.67,1.16*0E
$GPGSV,5,1,19,10,28,35[2024/10/02, 13:10:00.929]1,18,12,20,074,17,18,54,174,33,23,48,038,22*78
$GPGSV,5,2,19,25,44[2024/10/02, 13:10:01.070],110,16,28,56,249,30,29,12,153,23,32,24,325,21*7D
$GPGSV,5,3,19,45[2024/10/02, 13:10:01.211],00,000,27,,34,104,15,,44,147,26,,66,336,23*74
$GPGSV,5,4,19,,55,0[2024/10/02, 13:10:01.351]34,18,,50,010,15,,60,354,18,,72,173,30*70
$GPGSV,5,5,19,,45,048,15[2024/10/02, 13:10:01.492],,28,273,28,,41,218,32*41
$GPGLL,0114.1896,N,10339.1149,E,050959,A[2024/10/02, 13:10:01.632],D*45
$GPBOD,,T,,M,,*47
$GPBWC,050959,,,,,,T,,M,,N,,D*7E
$GPVTG[2024/10/02, 13:10:01.773],290.11,T,289.95,M,3.21,N,5.94,K,D*2A
$PGRME,13.64,M,20.39,M,24.53[2024/10/02, 13:10:01.914],M*26
$PGRMZ,-14,f,3*03
$PGRMM,WGS 84*06
$HCHDM,,M*07
$WIMWV,,[2024/10/02, 13:10:02.054]R,,,A*6D
$GPAPB,V,V,,,N,V,V,,,,,,,,N*68
$GPZDA,050959,02,10,2024,[2024/10/02, 13:10:02.163]-08,00*6A
[2024/10/02, 13:10:02.242]$GPRMC,051001,A,0114.1889,N,10339.1124,E,3.25,261.3[2024/10/02, 13:10:02.507]8,021024,0.16,E,D*21
$GPRMB,A,,,,,,,,,,,,V,D*19
$GPGGA,051001,01[2024/10/02, 13:10:02.648]14.1889,N,10339.1124,E,2,18,0.67,-5.13,M,9.62,M,,*69
$GPGSA,A,3,10[2024/10/02, 13:10:02.788],12,18,23,25,28,29,32,,,,,1.34,0.67,1.16*0E
$GPGSV,5,1,19,10,28,35[2024/10/02, 13:10:02.929]2,24,12,20,074,21,18,54,174,33,23,48,038,21*72
$GPGSV,5,2,19,25,44[2024/10/02, 13:10:03.070],110,23,28,56,249,30,29,12,153,23,32,24,325,24*7E
$GPGSV,5,3,19,45[2024/10/02, 13:10:03.210],00,000,28,,34,104,15,,44,147,27,,66,336,22*7B
$GPGSV,5,4,19,,55,0[2024/10/02, 13:10:03.351]34,17,,50,010,17,,60,354,17,,72,173,29*7A
$GPGSV,5,5,19,,45,048,17[2024/10/02, 13:10:03.491],,28,273,28,,41,218,32*43
$GPGLL,0114.1889,N,10339.1124,E,051001,A[2024/10/02, 13:10:03.632],D*45
$GPBOD,,T,,M,,*47
$GPBWC,051001,,,,,,T,,M,,N,,D*7B
$GPVTG[2024/10/02, 13:10:03.772],261.38,T,261.22,M,3.25,N,6.01,K,D*2E
$PGRME,13.68,M,19.41,M,23.74[2024/10/02, 13:10:03.913],M*2D
$PGRMZ,-17,f,3*00
$PGRMM,WGS 84*06
$HCHDM,,M*07
$WIMWV,,[2024/10/02, 13:10:04.054]R,,,A*6D
$GPAPB,V,V,,,N,V,V,,,,,,,,N*68
$GPZDA,051001,02,10,2024[2024/10/02, 13:10:04.163],-08,00*6F
[2024/10/02, 13:10:04.241]$GPRMC,051003,A,0114.1889,N,10339.1099,E,3.27,263.[2024/10/02, 13:10:04.507]80,021024,0.16,E,D*27
$GPRMB,A,,,,,,,,,,,,V,D*19
$GPGGA,051003,0[2024/10/02, 13:10:04.647]114.1889,N,10339.1099,E,2,18,0.67,-5.35,M,9.62,M,,*68
$GPGSA,A,3,1[2024/10/02, 13:10:04.788]0,12,18,23,25,28,29,32,,,,,1.34,0.67,1.16*0E
$GPGSV,5,1,19,10,28,3[2024/10/02, 13:10:04.928]52,23,12,20,074,18,18,54,174,32,23,48,038,19*75
$GPGSV,5,2,19,25,4[2024/10/02, 13:10:05.069]4,110,21,28,56,249,30,29,12,153,25,32,24,325,25*7B
$GPGSV,5,3,19,45[2024/10/02, 13:10:05.210],00,000,28,,34,104,14,,44,147,27,,66,336,23*7B
$GPGSV,5,4,19,,55,0[2024/10/02, 13:10:05.350]34,16,,50,010,21,,60,354,21,,72,173,27*75
$GPGSV,5,5,19,,45,048,18[2024/10/02, 13:10:05.491],,28,273,29,,41,218,31*4E
$GPGLL,0114.1889,N,10339.1099,E,051003,[2024/10/02, 13:10:05.631]A,D*40
$GPBOD,,T,,M,,*47
$GPBWC,051003,,,,,,T,,M,,N,,D*79
$GPVTG[2024/10/02, 13:10:05.772],263.80,T,263.64,M,3.27,N,6.06,K,D*2A
$PGRME,13.71,M,18.86,M,23.32[2024/10/02, 13:10:05.913],M*2D
$PGRMZ,-18,f,3*0F
$PGRMM,WGS 84*06
$HCHDM,,M*07
$WIMWV,[2024/10/02, 13:10:06.053],R,,,A*6D
$GPAPB,V,V,,,N,V,V,,,,,,,,N*68
$GPZDA,051003,02,10,2024[2024/10/02, 13:10:06.163],-08,00*6D
[2024/10/02, 13:10:06.241]$GPRMC,051005,A,0114.1891,N,10339.1078,E,3.11,265.[2024/10/02, 13:10:06.506]29,021024,0.16,E,A*22
$GPRMB,A,,,,,,,,,,,,V,A*1C
$GPGGA,051005,01[2024/10/02, 13:10:06.647]14.1891,N,10339.1078,E,1,18,0.67,-5.59,M,9.62,M,,*61
$GPGSA,A,3,10[2024/10/02, 13:10:06.787],12,18,23,25,28,29,32,,,,,1.34,0.67,1.16*0E
$GPGSV,5,1,18,10,28,35[2024/10/02, 13:10:06.928]2,25,12,20,074,21,18,54,174,32,23,48,038,18*79
$GPGSV,5,2,18,25,44[2024/10/02, 13:10:07.069],110,19,28,56,249,30,29,12,153,22,32,24,325,25*76
$GPGSV,5,3,18,,3[2024/10/02, 13:10:07.209]4,104,16,,44,147,24,,66,336,24,,55,034,14*75
$GPGSV,5,4,18,,50,010[2024/10/02, 13:10:07.350],18,,60,354,21,,72,173,27,,45,048,17*75
$GPGSV,5,5,18,,28,273,29,,[2024/10/02, 13:10:07.490]41,218,27*7C
$GPGLL,0114.1891,N,10339.1078,E,051005,A,A*45
$GPBO[2024/10/02, 13:10:07.631]D,,T,,M,,*47
$GPBWC,051005,,,,,,T,,M,,N,,A*7A
$GPVTG,265.29,T,265[2024/10/02, 13:10:07.772].13,M,3.11,N,5.77,K,A*2C
$PGRME,13.73,M,18.84,M,23.31,M*2E
$PGRM[2024/10/02, 13:10:07.912]Z,-18,f,3*0F
$PGRMM,WGS 84*06
$HCHDM,,M*07
$WIMWV,,R,,,A*6D
$GP[2024/10/02, 13:10:08.053]APB,V,V,,,N,V,V,,,,,,,,N*68
$GPZDA,051005,02,10,2024,-08,00*6B
[2024/10/02, 13:10:08.256]$GPRMC,051007,A,0114.1896,N,10339.1060,E,3.25,270.03,0210[2024/10/02, 13:10:08.521]24,0.16,E,A*25
$GPRMB,A,,,,,,,,,,,,V,A*1C
$GPGGA,051007,0114.1896[2024/10/02, 13:10:08.662],N,10339.1060,E,1,18,0.67,-5.20,M,9.62,M,,*63
$GPGSA,A,3,10,12,18,[2024/10/02, 13:10:08.803]23,25,28,29,32,,,,,1.34,0.67,1.16*0E
$GPGSV,5,1,18,10,28,352,24,12[2024/10/02, 13:10:08.943],20,074,17,18,54,174,31,23,48,038,21*74
$GPGSV,5,2,18,25,44,110,15[2024/10/02, 13:10:09.084],28,56,249,28,29,12,153,15,32,24,325,25*77
$GPGSV,5,3,18,,34,104,1[2024/10/02, 13:10:09.224]6,,44,147,25,,66,336,21,,55,034,14*71
$GPGSV,5,4,18,,50,010,18,,60[2024/10/02, 13:10:09.365],354,24,,72,173,24,,45,048,17*73
$GPGSV,5,5,18,,28,273,29,,41,218,[2024/10/02, 13:10:09.506]29*72
$GPGLL,0114.1896,N,10339.1060,E,051007,A,A*49
$GPBOD,,T,,M,[2024/10/02, 13:10:09.646],*47
$GPBWC,051007,,,,,,T,,M,,N,,A*78
$GPVTG,270.03,T,269.87,M,3[2024/10/02, 13:10:09.787].25,N,6.02,K,A*27
$PGRME,13.75,M,18.88,M,23.36,M*23
$PGRMZ,-17,f,[2024/10/02, 13:10:09.927]3*00
$PGRMM,WGS 84*06
$HCHDM,,M*07
$WIMWV,,R,,,A*6D
$GPAPB,V,V[2024/10/02, 13:10:10.068],,,N,V,V,,,,,,,,N*68
$GPZDA,051007,02,10,2024,-08,00*69
[2024/10/02, 13:10:10.255]$GPRMC,051010,A,0114.1902,N,10339.1045,E,3.52,283.21,0210[2024/10/02, 13:10:10.521]24,0.16,E,A*24
$GPRMB,A,,,,,,,,,,,,V,A*1C
$GPGGA,051010,0114.190[2024/10/02, 13:10:10.661]2,N,10339.1045,E,1,18,0.93,-3.91,M,9.62,M,,*69
$GPGSA,A,3,10,12,1[2024/10/02, 13:10:10.802]8,23,25,28,29,32,,,,,1.87,0.93,1.62*0E
$GPGSV,5,1,18,10,28,352,26,[2024/10/02, 13:10:10.943]12,20,074,17,18,54,174,30,23,48,038,16*73
$GPGSV,5,2,18,25,44,110,[2024/10/02, 13:10:11.083]18,28,56,249,27,29,12,153,17,32,24,325,26*74
$GPGSV,5,3,18,,34,104[2024/10/02, 13:10:11.224],23,,44,147,24,,66,336,21,,55,034,16*74
$GPGSV,5,4,18,,50,010,21,,[2024/10/02, 13:10:11.365]60,354,22,,72,173,23,,45,048,19*76
$GPGSV,5,5,18,,28,273,28,,41,21[2024/10/02, 13:10:11.505]8,29*73
$GPGLL,0114.1902,N,10339.1045,E,051010,A,A*44
$GPBOD,,T,,[2024/10/02, 13:10:11.646]M,,*47
$GPBWC,051010,,,,,,T,,M,,N,,A*7E
$GPVTG,283.21,T,283.05,M,[2024/10/02, 13:10:11.786]3.52,N,6.53,K,A*21
$PGRME,13.78,M,19.53,M,23.90,M*25
$PGRMZ,-13,[2024/10/02, 13:10:11.927]f,3*04
$PGRMM,WGS 84*06
$HCHDM,,M*07
$WIMWV,,R,,,A*6D
$GPAPB,V,[2024/10/02, 13:10:12.067]V,,,N,V,V,,,,,,,,N*68
$GPZDA,051010,02,10,2024,-08,00*6F
[2024/10/02, 13:10:12.255]$GPRMC,051012,A,0114.1909,N,10339.1035,E,3.38,285.25,0210[2024/10/02, 13:10:12.520]24,0.16,E,A*24
$GPRMB,A,,,,,,,,,,,,V,A*1C
$GPGGA,051012,0114.1909[2024/10/02, 13:10:12.661],N,10339.1035,E,1,10,0.93,-3.10,M,9.62,M,,*66
$GPGSA,A,3,10,12,18[2024/10/02, 13:10:12.802],23,25,28,29,32,,,,,1.87,0.93,1.62*0E
$GPGSV,5,1,18,10,28,352,26,1[2024/10/02, 13:10:12.942]2,20,074,18,18,54,174,29,23,48,038,17*75
$GPGSV,5,2,18,25,44,110,1[2024/10/02, 13:10:13.083]7,28,56,249,26,29,12,153,16,32,24,325,26*7B
$GPGSV,5,3,18,,34,104,[2024/10/02, 13:10:13.223]17,,44,147,24,,66,336,23,,55,034,17*70
$GPGSV,5,4,18,,50,010,19,,6[2024/10/02, 13:10:13.364]0,354,24,,72,173,25,,45,048,16*72
$GPGSV,5,5,18,,28,273,28,,41,218[2024/10/02, 13:10:13.505],30*7B
$GPGLL,0114.1909,N,10339.1035,E,051012,A,A*4A
$GPBOD,,T,,M[2024/10/02, 13:10:13.645],,*47
$GPBWC,051012,,,,,,T,,M,,N,,A*7C
$GPVTG,285.25,T,285.09,M,[2024/10/02, 13:10:13.786]3.38,N,6.27,K,A*26
$PGRME,13.81,M,20.76,M,24.94,M*2D
$PGRMZ,-10,f[2024/10/02, 13:10:13.926],3*07
$PGRMM,WGS 84*06
$HCHDM,,M*07
$WIMWV,,R,,,A*6D
$GPAPB,V,[2024/10/02, 13:10:14.067]V,,,N,V,V,,,,,,,,N*68
$GPZDA,051012,02,10,2024,-08,00*6D
[2024/10/02, 13:10:14.254]$GPRMC,051014,A,0114.1914,N,10339.1022,E,3.31,285.97,0210[2024/10/02, 13:10:14.520]24,0.16,E,A*28
$GPRMB,A,,,,,,,,,,,,V,A*1C
$GPGGA,051014,0114.191[2024/10/02, 13:10:14.661]4,N,10339.1022,E,1,10,0.92,-2.36,M,9.62,M,,*6E
$GPGSA,A,3,10,12,18[2024/10/02, 13:10:14.801],23,25,28,29,32,,,,,1.87,0.92,1.62*0F
$GPGSV,5,1,18,10,28,352,24,1[2024/10/02, 13:10:14.942]2,20,074,20,18,54,174,30,23,48,038,17*74
$GPGSV,5,2,18,25,44,110,1[2024/10/02, 13:10:15.082]7,28,56,249,26,29,12,153,16,32,24,325,25*78
$GPGSV,5,3,18,,34,104,[2024/10/02, 13:10:15.223]19,,44,147,25,,66,336,22,,55,034,17*7E
$GPGSV,5,4,18,,50,010,20,,6[2024/10/02, 13:10:15.364]0,354,23,,72,173,25,,45,048,16*7F
$GPGSV,5,5,18,,28,273,28,,41,218[2024/10/02, 13:10:15.504],30*7B
$GPGLL,0114.1914,N,10339.1022,E,051014,A,A*46
$GPBOD,,T,,M[2024/10/02, 13:10:15.645],,*47
$GPBWC,051014,,,,,,T,,M,,N,,A*7A
$GPVTG,285.97,T,285.81,M,[2024/10/02, 13:10:15.785]3.31,N,6.14,K,A*26
$PGRME,13.84,M,21.38,M,25.47,M*2C
$PGRMZ,-8,f,[2024/10/02, 13:10:15.926]3*3E
$PGRMM,WGS 84*06
$HCHDM,,M*07
$WIMWV,,R,,,A*6D
$GPAPB,V,V[2024/10/02, 13:10:16.066],,,N,V,V,,,,,,,,N*68
$GPZDA,051014,02,10,2024,-08,00*6B
[2024/10/02, 13:10:16.254]$GPRMC,051015,A,0114.1914,N,10339.1001,E,3.32,281.01,021[2024/10/02, 13:10:16.520]024,0.16,E,A*20
$GPRMB,A,,,,,,,,,,,,V,A*1C
$GPGGA,051015,0114.191[2024/10/02, 13:10:16.660]4,N,10339.1001,E,1,18,0.67,-0.73,M,9.62,M,,*6F
$GPGSA,A,3,10,12,1[2024/10/02, 13:10:16.801]8,23,25,28,29,32,,,,,1.34,0.67,1.16*0E
$GPGSV,5,1,18,10,28,352,27,[2024/10/02, 13:10:16.941]12,20,074,20,18,54,174,29,23,49,038,17*7E
$GPGSV,5,2,18,25,44,110,[2024/10/02, 13:10:17.082]19,28,56,249,25,29,12,153,16,32,24,325,27*77
$GPGSV,5,3,18,,34,104[2024/10/02, 13:10:17.222],21,,44,147,22,,66,336,22,,55,034,15*70
$GPGSV,5,4,18,,50,010,20,,[2024/10/02, 13:10:17.363]60,354,24,,72,173,23,,45,048,16*7E
$GPGSV,5,5,18,,28,273,28,,41,21[2024/10/02, 13:10:17.504]8,30*7B
$GPGLL,0114.1914,N,10339.1001,E,051015,A,A*46
$GPBOD,,T,,[2024/10/02, 13:10:17.644]M,,*47
$GPBWC,051015,,,,,,T,,M,,N,,A*7B
$GPVTG,281.01,T,280.85,M[2024/10/02, 13:10:17.785],3.32,N,6.15,K,A*2E
$PGRME,13.88,M,21.06,M,25.23,M*2F
$PGRMZ,-2,f[2024/10/02, 13:10:17.925],3*34
$PGRMM,WGS 84*06
$HCHDM,,M*07
$WIMWV,,R,,,A*6D
$GPAPB,V,[2024/10/02, 13:10:18.066]V,,,N,V,V,,,,,,,,N*68
$GPZDA,051015,02,10,2024,-08,00*6A
[2024/10/02, 13:10:18.254]$GPRMC,051017,A,0114.1920,N,10339.0986,E,2.97,297.78,021[2024/10/02, 13:10:18.519]024,0.16,E,D*20
$GPRMB,A,,,,,,,,,,,,V,D*19
$GPGGA,051017,0114.192[2024/10/02, 13:10:18.660]0,N,10339.0986,E,2,18,0.67,-0.67,M,9.62,M,,*6B
$GPGSA,A,3,10,12,1[2024/10/02, 13:10:18.800]8,23,25,28,29,32,,,,,1.34,0.67,1.16*0E
$GPGSV,5,1,19,10,28,352,27,[2024/10/02, 13:10:18.941]12,20,074,17,18,54,174,29,23,49,038,15*79
$GPGSV,5,2,19,25,45,109,[2024/10/02, 13:10:19.081]22,28,56,249,26,29,12,153,17,32,24,325,27*75
$GPGSV,5,3,19,45,00,0[2024/10/02, 13:10:19.222]00,28,,34,104,23,,44,147,23,,66,336,23*7B
$GPGSV,5,4,19,,55,034,16,[2024/10/02, 13:10:19.363],50,010,20,,60,354,23,,72,173,21*70
$GPGSV,5,5,19,,45,048,18,,28,2[2024/10/02, 13:10:19.503]73,28,,41,218,30*4E
$GPGLL,0114.1920,N,10339.0986,E,051017,A,D*41[2024/10/02, 13:10:19.644]
$GPBOD,,T,,M,,*47
$GPBWC,051017,,,,,,T,,M,,N,,D*7C
$GPVTG,297.7[2024/10/02, 13:10:19.784]8,T,297.62,M,2.97,N,5.51,K,D*20
$PGRME,13.92,M,20.82,M,25.04,M*2C[2024/10/02, 13:10:19.925]
$PGRMZ,-2,f,3*34
$PGRMM,WGS 84*06
$HCHDM,,M*07
$WIMWV,,R,,,A*6[2024/10/02, 13:10:20.066]D
$GPAPB,V,V,,,N,V,V,,,,,,,,N*68
$GPZDA,051017,02,10,2024,-08,00[2024/10/02, 13:10:20.159]*68
[2024/10/02, 13:10:20.237]$GPRMC,051020,A,0114.1926,N,10339.0969,E,3.17,279[2024/10/02, 13:10:20.503].92,021024,0.16,E,D*2E
$GPRMB,A,,,,,,,,,,,,V,D*19
$GPGGA,051020,[2024/10/02, 13:10:20.644]0114.1926,N,10339.0969,E,2,18,0.93,-0.56,M,9.62,M,,*61
$GPGSA,A,3,[2024/10/02, 13:10:20.784]10,12,18,23,25,28,29,32,,,,,1.87,0.93,1.62*0E
$GPGSV,5,1,19,10,28,[2024/10/02, 13:10:20.925]352,27,12,20,074,20,18,54,174,30,23,49,038,15*75
$GPGSV,5,2,19,25,[2024/10/02, 13:10:21.065]45,109,18,28,56,250,26,29,12,152,17,32,24,325,27*75
$GPGSV,5,3,19,[2024/10/02, 13:10:21.206]45,00,000,28,,34,104,19,,44,147,26,,66,336,21*75
$GPGSV,5,4,19,,55[2024/10/02, 13:10:21.346],034,16,,50,010,22,,60,354,23,,72,173,23*70
$GPGSV,5,5,19,,45,048,[2024/10/02, 13:10:21.487]20,,28,273,27,,41,218,31*4B
$GPGLL,0114.1926,N,10339.0969,E,051020[2024/10/02, 13:10:21.628],A,D*42
$GPBOD,,T,,M,,*47
$GPBWC,051020,,,,,,T,,M,,N,,D*78
$GPV[2024/10/02, 13:10:21.768]TG,279.92,T,279.76,M,3.17,N,5.87,K,D*23
$PGRME,13.96,M,21.19,M,25.[2024/10/02, 13:10:21.909]38,M*24
$PGRMZ,-2,f,3*34
$PGRMM,WGS 84*06
$HCHDM,,M*07
$WIMWV,[2024/10/02, 13:10:22.050],R,,,A*6D
$GPAPB,V,V,,,N,V,V,,,,,,,,N*68
$GPZDA,051020,02,10,2024[2024/10/02, 13:10:22.159],-08,00*6C
[2024/10/02, 13:10:22.237]$GPRMC,051022,A,0114.1932,N,10339.0952,E,3.25,28[2024/10/02, 13:10:22.502]0.51,021024,0.16,E,D*29
$GPRMB,A,,,,,,,,,,,,V,D*19
$GPGGA,051022,[2024/10/02, 13:10:22.643]0114.1932,N,10339.0952,E,2,10,0.93,0.02,M,9.62,M,,*4A
$GPGSA,A,3,1[2024/10/02, 13:10:22.784]0,12,18,23,25,28,29,32,,,,,1.87,0.93,1.62*0E
$GPGSV,5,1,19,10,28,3[2024/10/02, 13:10:22.924]52,25,12,20,074,17,18,54,174,30,23,49,038,15*73
$GPGSV,5,2,19,25,4[2024/10/02, 13:10:23.065]5,109,19,28,56,250,26,29,12,152,20,32,24,325,27*70
$GPGSV,5,3,19,4[2024/10/02, 13:10:23.205]5,00,000,28,,34,104,21,,44,147,25,,66,336,23*7F
$GPGSV,5,4,19,,55,[2024/10/02, 13:10:23.346]034,16,,50,010,18,,60,354,23,,72,173,22*78
$GPGSV,5,5,19,,45,048,2[2024/10/02, 13:10:23.487]0,,28,273,27,,41,218,31*4B
$GPGLL,0114.1932,N,10339.0952,E,051022,[2024/10/02, 13:10:23.627]A,D*4D
$GPBOD,,T,,M,,*47
$GPBWC,051022,,,,,,T,,M,,N,,D*7A
$GPVT[2024/10/02, 13:10:23.768]G,280.51,T,280.35,M,3.25,N,6.02,K,D*24
$PGRME,13.98,M,21.81,M,25.9[2024/10/02, 13:10:23.908]0,M*29
$PGRMZ,0,f,3*1B
$PGRMM,WGS 84*06
$HCHDM,,M*07
$WIMWV,,R[2024/10/02, 13:10:24.049],,,A*6D
$GPAPB,V,V,,,N,V,V,,,,,,,,N*68
$GPZDA,051022,02,10,2024,-[2024/10/02, 13:10:24.158]08,00*6E
[2024/10/02, 13:10:24.236]$GPRMC,051024,A,0114.1935,N,10339.0928,E,3.37,26[2024/10/02, 13:10:24.502]8.08,021024,0.16,E,D*2C
$GPRMB,A,,,,,,,,,,,,V,D*19
$GPGGA,051024,[2024/10/02, 13:10:24.643]0114.1935,N,10339.0928,E,2,18,0.93,-0.96,M,9.62,M,,*6E
$GPGSA,A,3,[2024/10/02, 13:10:24.783]10,12,18,23,25,28,29,32,,,,,1.87,0.93,1.62*0E
$GPGSV,5,1,19,10,28,[2024/10/02, 13:10:24.924]352,25,12,20,074,20,18,54,174,30,23,49,038,19*7B
$GPGSV,5,2,19,25,[2024/10/02, 13:10:25.064]45,109,18,28,56,250,27,29,12,152,14,32,23,325,26*71
$GPGSV,5,3,19,[2024/10/02, 13:10:25.205]45,00,000,28,,34,104,17,,44,147,25,,66,336,24*7D
$GPGSV,5,4,19,,55[2024/10/02, 13:10:25.346],034,16,,50,010,17,,60,354,24,,72,173,24*76
$GPGSV,5,5,19,,45,048,[2024/10/02, 13:10:25.486]18,,28,273,29,,41,218,30*4F
$GPGLL,0114.1935,N,10339.0928,E,051024[2024/10/02, 13:10:25.627],A,D*41
$GPBOD,,T,,M,,*47
$GPBWC,051024,,,,,,T,,M,,N,,D*7C
$GPV[2024/10/02, 13:10:25.767]TG,268.08,T,267.92,M,3.37,N,6.24,K,D*2D
$PGRME,14.03,M,22.29,M,26.[2024/10/02, 13:10:25.908]34,M*20
$PGRMZ,-3,f,3*35
$PGRMM,WGS 84*06
$HCHDM,,M*07
$WIMWV,[2024/10/02, 13:10:26.048],R,,,A*6D
$GPAPB,V,V,,,N,V,V,,,,,,,,N*68
$GPZDA,051024,02,10,2024[2024/10/02, 13:10:26.158],-08,00*68
[2024/10/02, 13:10:26.236]$GPRMC,051025,A,0114.1935,N,10339.0906,E,3.62,26[2024/10/02, 13:10:26.502]6.96,021024,0.16,E,D*28
$GPRMB,A,,,,,,,,,,,,V,D*19
$GPGGA,051025,[2024/10/02, 13:10:26.642]0114.1935,N,10339.0906,E,2,10,0.67,-0.58,M,9.62,M,,*62
$GPGSA,A,3,[2024/10/02, 13:10:26.783]10,12,18,23,25,28,29,32,,,,,1.34,0.67,1.16*0E
$GPGSV,5,1,19,10,28[2024/10/02, 13:10:26.923],352,21,12,20,074,19,18,54,174,30,23,49,038,19*75
$GPGSV,5,2,19,25,[2024/10/02, 13:10:27.064]45,109,19,28,56,250,28,29,12,152,14,32,23,325,26*7F
$GPGSV,5,3,19,[2024/10/02, 13:10:27.204]45,00,000,28,,34,104,17,,44,147,27,,66,336,23*78
$GPGSV,5,4,19,,55[2024/10/02, 13:10:27.345],034,15,,50,010,19,,60,354,23,,72,173,25*7D
$GPGSV,5,5,19,,45,048,[2024/10/02, 13:10:27.486]19,,28,273,29,,41,218,29*46
$GPGLL,0114.1935,N,10339.0906,E,051025[2024/10/02, 13:10:27.626],A,D*4C
$GPBOD,,T,,M,,*47
$GPBWC,051025,,,,,,T,,M,,N,,D*7D
$GPV[2024/10/02, 13:10:27.767]TG,266.96,T,266.80,M,3.62,N,6.71,K,D*26
$PGRME,14.04,M,22.05,M,26[2024/10/02, 13:10:27.907].15,M*2A
$PGRMZ,-2,f,3*34
$PGRMM,WGS 84*06
$HCHDM,,M*07
$WIMWV,[2024/10/02, 13:10:28.048],R,,,A*6D
$GPAPB,V,V,,,N,V,V,,,,,,,,N*68
$GPZDA,051025,02,10,202[2024/10/02, 13:10:28.157]4,-08,00*69
[2024/10/02, 13:10:28.235]$GPRMC,051027,A,0114.1936,N,10339.0879,E,3.85,26[2024/10/02, 13:10:28.501]9.55,021024,0.16,E,D*29
$GPRMB,A,,,,,,,,,,,,V,D*19
$GPGGA,051027[2024/10/02, 13:10:28.642],0114.1936,N,10339.0879,E,2,18,0.67,-0.86,M,9.62,M,,*61
$GPGSA,A,3[2024/10/02, 13:10:28.782],10,12,18,23,25,28,29,32,,,,,1.34,0.67,1.16*0E
$GPGSV,5,1,19,10,28[2024/10/02, 13:10:28.923],352,22,12,20,074,18,18,54,174,31,23,49,038,20*7C
$GPGSV,5,2,19,25[2024/10/02, 13:10:29.063],45,109,19,28,56,250,28,29,12,152,17,32,23,325,25*7F
$GPGSV,5,3,19[2024/10/02, 13:10:29.204],45,00,000,28,,34,104,15,,44,147,25,,66,336,22*79
$GPGSV,5,4,19,,5[2024/10/02, 13:10:29.345]5,034,15,,50,010,20,,60,354,24,,72,173,26*73
$GPGSV,5,5,19,,45,048[2024/10/02, 13:10:29.485],20,,28,273,29,,41,218,29*4C
$GPGLL,0114.1936,N,10339.0879,E,05102[2024/10/02, 13:10:29.626]7,A,D*44
$GPBOD,,T,,M,,*47
$GPBWC,051027,,,,,,T,,M,,N,,D*7F
$GP[2024/10/02, 13:10:29.766]VTG,269.55,T,269.39,M,3.85,N,7.13,K,D*27
$PGRME,14.07,M,21.46,M,25[2024/10/02, 13:10:29.907].66,M*2A
$PGRMZ,-3,f,3*35
$PGRMM,WGS 84*06
$HCHDM,,M*07
$WIMWV[2024/10/02, 13:10:30.048],,R,,,A*6D
$GPAPB,V,V,,,N,V,V,,,,,,,,N*68
$GPZDA,051027,02,10,202[2024/10/02, 13:10:30.157]4,-08,00*6B
[2024/10/02, 13:10:30.235]$GPRMC,051029,A,0114.1948,N,10339.0857,E,3.90,30[2024/10/02, 13:10:30.501]8.79,021024,0.16,E,D*2E
$GPRMB,A,,,,,,,,,,,,V,D*19
$GPGGA,051029[2024/10/02, 13:10:30.641],0114.1948,N,10339.0857,E,2,18,0.67,-1.96,M,9.62,M,,*6A
$GPGSA,A,3[2024/10/02, 13:10:30.782],10,12,18,23,25,28,29,32,,,,,1.34,0.67,1.16*0E
$GPGSV,5,1,19,10,28[2024/10/02, 13:10:30.922],352,23,12,20,074,23,18,54,174,31,23,49,038,19*7F
$GPGSV,5,2,19,25[2024/10/02, 13:10:31.063],45,109,16,28,56,250,29,29,12,152,15,32,23,325,24*72
$GPGSV,5,3,19[2024/10/02, 13:10:31.203],45,00,000,28,,34,104,16,,44,147,26,,66,336,22*79
$GPGSV,5,4,19,,5[2024/10/02, 13:10:31.344]5,034,15,,50,010,19,,60,354,22,,72,173,27*7E
$GPGSV,5,5,19,,45,048[2024/10/02, 13:10:31.485],20,,28,273,29,,41,218,28*4D
$GPGLL,0114.1948,N,10339.0857,E,05102[2024/10/02, 13:10:31.625]9,A,D*4F
$GPBOD,,T,,M,,*47
$GPBWC,051029,,,,,,T,,M,,N,,D*71
$GPV[2024/10/02, 13:10:31.766]TG,308.79,T,308.63,M,3.90,N,7.23,K,D*21
$PGRME,14.08,M,21.13,M,25[2024/10/02, 13:10:31.906].39,M*2F
$PGRMZ,-6,f,3*30
$PGRMM,WGS 84*06
$HCHDM,,M*07
$WIMWV,[2024/10/02, 13:10:32.047],R,,,A*6D
$GPAPB,V,V,,,N,V,V,,,,,,,,N*68
$GPZDA,051029,02,10,202[2024/10/02, 13:10:32.156]4,-08,00*65
[2024/10/02, 13:10:32.234]$GPRMC,051031,A,0114.1949,N,10339.0831,E,3.95,2[2024/10/02, 13:10:32.500]89.96,021024,0.16,E,D*2A
$GPRMB,A,,,,,,,,,,,,V,D*19
$GPGGA,051031[2024/10/02, 13:10:32.641],0114.1949,N,10339.0831,E,2,18,0.67,-3.49,M,9.62,M,,*62
$GPGSA,A,3[2024/10/02, 13:10:32.781],10,12,18,23,25,28,29,32,,,,,1.34,0.67,1.16*0E
$GPGSV,5,1,19,10,28[2024/10/02, 13:10:32.922],352,24,12,20,074,23,18,54,174,30,23,49,038,18*78
$GPGSV,5,2,19,25[2024/10/02, 13:10:33.062],45,109,18,28,56,250,28,29,12,152,15,32,23,325,25*7C
$GPGSV,5,3,19[2024/10/02, 13:10:33.203],45,00,000,29,,34,104,19,,44,147,25,,66,336,23*75
$GPGSV,5,4,19,,5[2024/10/02, 13:10:33.344]5,034,16,,50,010,20,,60,354,22,,72,173,25*75
$GPGSV,5,5,19,,45,048[2024/10/02, 13:10:33.484],20,,28,273,29,,41,218,29*4C
$GPGLL,0114.1949,N,10339.0831,E,05103[2024/10/02, 13:10:33.625]1,A,D*47
$GPBOD,,T,,M,,*47
$GPBWC,051031,,,,,,T,,M,,N,,D*78
$GP[2024/10/02, 13:10:33.765]VTG,289.96,T,289.80,M,3.95,N,7.32,K,D*28
$PGRME,14.10,M,20.85,M,25[2024/10/02, 13:10:33.906].17,M*24
$PGRMZ,-11,f,3*06
$PGRMM,WGS 84*06
$HCHDM,,M*07
$WIMW[2024/10/02, 13:10:34.047]V,,R,,,A*6D
$GPAPB,V,V,,,N,V,V,,,,,,,,N*68
$GPZDA,051031,02,10,20[2024/10/02, 13:10:34.156]24,-08,00*6C
[2024/10/02, 13:10:34.234]$GPRMC,051033,A,0114.1947,N,10339.0807,E,3.97,2[2024/10/02, 13:10:34.500]78.76,021024,0.16,E,D*21
$GPRMB,A,,,,,,,,,,,,V,D*19
$GPGGA,051033[2024/10/02, 13:10:34.640],0114.1947,N,10339.0807,E,2,18,0.67,-3.66,M,9.62,M,,*66
$GPGSA,A,3[2024/10/02, 13:10:34.781],10,12,18,23,25,28,29,32,,,,,1.34,0.67,1.16*0E
$GPGSV,5,1,19,10,28[2024/10/02, 13:10:34.921],352,21,12,20,074,20,18,54,174,30,23,49,038,19*7F
$GPGSV,5,2,19,25[2024/10/02, 13:10:35.062],45,109,20,28,56,250,28,29,12,152,16,32,23,325,25*74
$GPGSV,5,3,19[2024/10/02, 13:10:35.203],45,00,000,28,,34,104,20,,44,147,22,,66,336,24*7E
$GPGSV,5,4,19,,5[2024/10/02, 13:10:35.343]5,034,16,,50,010,18,,60,354,24,,72,173,23*7E
$GPGSV,5,5,19,,45,048[2024/10/02, 13:10:35.484],18,,28,273,29,,41,218,29*47
$GPGLL,0114.1947,N,10339.0807,E,05103[2024/10/02, 13:10:35.624]3,A,D*4E
$GPBOD,,T,,M,,*47
$GPBWC,051033,,,,,,T,,M,,N,,D*7A
$GP[2024/10/02, 13:10:35.765]VTG,278.76,T,278.60,M,3.97,N,7.36,K,D*2E
$PGRME,14.10,M,20.72,M,25[2024/10/02, 13:10:35.905].06,M*2C
$PGRMZ,-12,f,3*05
$PGRMM,WGS 84*06
$HCHDM,,M*07
$WIMW[2024/10/02, 13:10:36.046]V,,R,,,A*6D
$GPAPB,V,V,,,N,V,V,,,,,,,,N*68
$GPZDA,051033,02,10,20[2024/10/02, 13:10:36.155]24,-08,00*6E
[2024/10/02, 13:10:36.234]$GPRMC,051035,A,0114.1947,N,10339.0781,E,4.01,2[2024/10/02, 13:10:36.499]75.17,021024,0.16,E,D*24
$GPRMB,A,,,,,,,,,,,,V,D*19
$GPGGA,051035[2024/10/02, 13:10:36.640],0114.1947,N,10339.0781,E,2,18,0.67,-3.01,M,9.62,M,,*60
$GPGSA,A,3[2024/10/02, 13:10:36.780],10,12,18,23,25,28,29,32,,,,,1.34,0.67,1.16*0E
$GPGSV,5,1,19,10,2[2024/10/02, 13:10:36.921]8,352,22,12,20,074,19,18,54,174,29,23,49,038,16*71
$GPGSV,5,2,19,25[2024/10/02, 13:10:37.061],45,109,20,28,56,250,25,29,12,152,16,32,23,325,26*7A
$GPGSV,5,3,19[2024/10/02, 13:10:37.202],45,00,000,28,,34,104,24,,44,147,23,,66,336,23*7C
$GPGSV,5,4,19,,5[2024/10/02, 13:10:37.343]5,035,15,,50,010,18,,60,354,24,,72,173,25*7A
$GPGSV,5,5,19,,45,048[2024/10/02, 13:10:37.483],16,,28,273,27,,41,218,30*4F
$GPGLL,0114.1947,N,10339.0781,E,05103[2024/10/02, 13:10:37.624]5,A,D*49
$GPBOD,,T,,M,,*47
$GPBWC,051035,,,,,,T,,M,,N,,D*7C
$GP[2024/10/02, 13:10:37.765]VTG,275.17,T,275.01,M,4.01,N,7.42,K,D*25
$PGRME,14.11,M,20.69,M,25[2024/10/02, 13:10:37.905].05,M*24
$PGRMZ,-10,f,3*07
$PGRMM,WGS 84*06
$HCHDM,,M*07
$WIMW[2024/10/02, 13:10:38.046]V,,R,,,A*6D
$GPAPB,V,V,,,N,V,V,,,,,,,,N*68
$GPZDA,051035,02,10,2[2024/10/02, 13:10:38.155]024,-08,00*68
[2024/10/02, 13:10:38.233]$GPRMC,051037,A,0114.1949,N,10339.0757,E,4.05,2[2024/10/02, 13:10:38.499]80.69,021024,0.16,E,D*24
$GPRMB,A,,,,,,,,,,,,V,D*19
$GPGGA,05103[2024/10/02, 13:10:38.639]7,0114.1949,N,10339.0757,E,2,18,0.67,-2.90,M,9.62,M,,*6E
$GPGSA,A,[2024/10/02, 13:10:38.780]3,10,12,18,23,25,28,29,32,,,,,1.34,0.67,1.16*0E
$GPGSV,5,1,19,10,2[2024/10/02, 13:10:38.920]8,352,25,12,20,074,17,18,54,174,28,23,49,038,19*76
$GPGSV,5,2,19,2[2024/10/02, 13:10:39.061]5,45,109,20,28,56,250,25,29,12,152,17,32,23,325,25*78
$GPGSV,5,3,1[2024/10/02, 13:10:39.202]9,45,00,000,28,,34,104,21,,44,147,23,,66,336,24*7E
$GPGSV,5,4,19,,[2024/10/02, 13:10:39.342]55,035,17,,50,010,19,,60,354,24,,72,173,24*78
$GPGSV,5,5,19,,45,048[2024/10/02, 13:10:39.483],16,,28,273,26,,41,218,32*4C
$GPGLL,0114.1949,N,10339.0757,E,0510[2024/10/02, 13:10:39.623]37,A,D*4E
$GPBOD,,T,,M,,*47
$GPBWC,051037,,,,,,T,,M,,N,,D*7E
$GP[2024/10/02, 13:10:39.764]VTG,280.69,T,280.53,M,4.05,N,7.50,K,D*2C
$PGRME,14.12,M,20.61,M,24[2024/10/02, 13:10:39.905].99,M*2B
$PGRMZ,-10,f,3*07
$PGRMM,WGS 84*06
$HCHDM,,M*07
$WIMW[2024/10/02, 13:10:40.045]V,,R,,,A*6D
$GPAPB,V,V,,,N,V,V,,,,,,,,N*68
$GPZDA,051037,02,10,2[2024/10/02, 13:10:40.154]024,-08,00*6A
[2024/10/02, 13:10:40.233]$GPRMC,051039,A,0114.1953,N,10339.0738,E,4.04,2[2024/10/02, 13:10:40.498]87.36,021024,0.16,E,D*24
$GPRMB,A,,,,,,,,,,,,V,D*19
$GPGGA,05103[2024/10/02, 13:10:40.639]9,0114.1953,N,10339.0738,E,2,18,0.67,-4.03,M,9.62,M,,*6E
$GPGSA,A,[2024/10/02, 13:10:40.779]3,10,12,18,23,25,28,29,32,,,,,1.34,0.67,1.16*0E
$GPGSV,5,1,19,10,2[2024/10/02, 13:10:40.920]8,352,21,12,20,074,20,18,54,174,29,23,49,038,19*77
$GPGSV,5,2,19,2[2024/10/02, 13:10:41.061]5,45,109,20,28,56,250,26,29,12,152,22,32,23,325,25*7D
$GPGSV,5,3,1[2024/10/02, 13:10:41.201]9,45,00,000,28,,34,104,24,,44,147,21,,66,336,24*79
$GPGSV,5,4,19,,[2024/10/02, 13:10:41.342]55,035,17,,50,010,21,,60,354,24,,72,173,25*72
$GPGSV,5,5,19,,45,04[2024/10/02, 13:10:41.482]8,20,,28,273,27,,41,218,31*4B
$GPGLL,0114.1953,N,10339.0738,E,0510[2024/10/02, 13:10:41.623]39,A,D*42
$GPBOD,,T,,M,,*47
$GPBWC,051039,,,,,,T,,M,,N,,D*70
$GP[2024/10/02, 13:10:41.763]VTG,287.36,T,287.20,M,4.04,N,7.48,K,D*2A
$PGRME,14.13,M,20.32,M,2[2024/10/02, 13:10:41.904]4.74,M*2F
$PGRMZ,-13,f,3*04
$PGRMM,WGS 84*06
$HCHDM,,M*07
$WIMW[2024/10/02, 13:10:42.045]V,,R,,,A*6D
$GPAPB,V,V,,,N,V,V,,,,,,,,N*68
$GPZDA,051039,02,10,2[2024/10/02, 13:10:42.154]024,-08,00*64
[2024/10/02, 13:10:42.232]$GPRMC,051041,A,0114.1958,N,10339.0715,E,4.07,[2024/10/02, 13:10:42.498]285.97,021024,0.16,E,D*25
$GPRMB,A,,,,,,,,,,,,V,D*19
$GPGGA,05104[2024/10/02, 13:10:42.638]1,0114.1958,N,10339.0715,E,2,18,0.67,-4.51,M,9.62,M,,*62
$GPGSA,A,[2024/10/02, 13:10:42.779]3,10,12,18,23,25,28,29,32,,,,,1.34,0.67,1.16*0E
$GPGSV,5,1,19,10,2[2024/10/02, 13:10:42.919]8,352,23,12,20,074,19,18,54,174,29,23,49,038,18*7E
$GPGSV,5,2,19,2[2024/10/02, 13:10:43.060]5,45,109,19,28,56,250,27,29,12,152,20,32,23,325,26*77
$GPGSV,5,3,1[2024/10/02, 13:10:43.201]9,45,00,000,28,,34,104,24,,44,147,25,,66,336,23*7A
$GPGSV,5,4,19,,[2024/10/02, 13:10:43.341]55,035,17,,50,010,21,,60,354,24,,72,173,26*71
$GPGSV,5,5,19,,45,04[2024/10/02, 13:10:43.482]8,19,,28,273,27,,41,218,31*41
$GPGLL,0114.1958,N,10339.0715,E,0510[2024/10/02, 13:10:43.623]41,A,D*49
$GPBOD,,T,,M,,*47
$GPBWC,051041,,,,,,T,,M,,N,,D*7F
$G[2024/10/02, 13:10:43.763]PVTG,285.97,T,285.81,M,4.07,N,7.55,K,D*25
$PGRME,14.13,M,20.17,M,2[2024/10/02, 13:10:43.904]4.62,M*2F
$PGRMZ,-15,f,3*02
$PGRMM,WGS 84*06
$HCHDM,,M*07
$WIM[2024/10/02, 13:10:44.044]WV,,R,,,A*6D
$GPAPB,V,V,,,N,V,V,,,,,,,,N*68
$GPZDA,051041,02,10,[2024/10/02, 13:10:44.169]2024,-08,00*6B
[2024/10/02, 13:10:44.247]$GPRMC,051043,A,0114.1958,N,10339.0690,E,4.16,273.12,0[2024/10/02, 13:10:44.513]21024,0.16,E,D*2F
$GPRMB,A,,,,,,,,,,,,V,D*19
$GPGGA,051043,0114.[2024/10/02, 13:10:44.653]1958,N,10339.0690,E,2,18,0.67,-4.73,M,9.62,M,,*6C
$GPGSA,A,3,10,12[2024/10/02, 13:10:44.794],18,23,25,28,29,32,,,,,1.34,0.67,1.16*0E
$GPGSV,5,1,19,10,28,352,2[2024/10/02, 13:10:44.935]5,12,20,074,18,18,54,174,29,23,49,038,18*79
$GPGSV,5,2,19,25,45,10[2024/10/02, 13:10:45.075]9,19,28,56,250,26,29,12,152,22,32,23,325,24*76
$GPGSV,5,3,19,45,00[2024/10/02, 13:10:45.216],000,28,,34,104,20,,44,147,25,,66,336,24*79
$GPGSV,5,4,19,,55,035,[2024/10/02, 13:10:45.356]16,,50,010,18,,59,354,22,,72,173,24*74
$GPGSV,5,5,19,,45,048,17,,2[2024/10/02, 13:10:45.497]8,273,26,,41,218,31*4E
$GPGLL,0114.1958,N,10339.0690,E,051043,A,D*[2024/10/02, 13:10:45.638]47
$GPBOD,,T,,M,,*47
$GPBWC,051043,,,,,,T,,M,,N,,D*7D
$GPVTG,273[2024/10/02, 13:10:45.778].12,T,272.96,M,4.16,N,7.70,K,D*28
$PGRME,14.00,M,20.07,M,24.47,M*[2024/10/02, 13:10:45.919]2B
$PGRMZ,-16,f,3*01
$PGRMM,WGS 84*06
$HCHDM,,M*07
$WIMWV,,R,,,[2024/10/02, 13:10:46.059]A*6D
$GPAPB,V,V,,,N,V,V,,,,,,,,N*68
$GPZDA,051043,02,10,2024,-08[2024/10/02, 13:10:46.153],00*69
[2024/10/02, 13:10:46.231]$GPRMC,051046,A,0114.1969,N,10339.0669,E,4.17,[2024/10/02, 13:10:46.497]288.24,021024,0.16,E,D*2E
$GPRMB,A,,,,,,,,,,,,V,D*19
$GPGGA,05104[2024/10/02, 13:10:46.637]6,0114.1969,N,10339.0669,E,2,18,0.93,-4.92,M,9.62,M,,*69
$GPGSA,A,[2024/10/02, 13:10:46.778]3,10,12,18,23,25,28,29,32,,,,,1.87,0.93,1.62*0E
$GPGSV,5,1,19,10,[2024/10/02, 13:10:46.919]28,352,21,12,20,074,20,18,54,174,29,23,49,038,16*78
$GPGSV,5,2,19,[2024/10/02, 13:10:47.059]25,45,109,18,28,56,250,25,29,12,152,19,32,23,325,25*7D
$GPGSV,5,3,[2024/10/02, 13:10:47.200]19,45,00,000,28,,34,104,23,,44,147,24,,66,336,22*7D
$GPGSV,5,4,19,,[2024/10/02, 13:10:47.340]55,035,17,,50,010,21,,59,354,23,,72,173,26*7C
$GPGSV,5,5,19,,45,04[2024/10/02, 13:10:47.481]8,17,,28,273,26,,41,218,31*4E
$GPGLL,0114.1969,N,10339.0669,E,0510[2024/10/02, 13:10:47.621]46,A,D*46
$GPBOD,,T,,M,,*47
$GPBWC,051046,,,,,,T,,M,,N,,D*78
$G[2024/10/02, 13:10:47.762]PVTG,288.24,T,288.08,M,4.17,N,7.72,K,D*28
$PGRME,13.99,M,20.61,M,2[2024/10/02, 13:10:47.903]4.91,M*27
$PGRMZ,-16,f,3*01
$PGRMM,WGS 84*06
$HCHDM,,M*07
$WIM[2024/10/02, 13:10:48.043]WV,,R,,,A*6D
$GPAPB,V,V,,,N,V,V,,,,,,,,N*68
$GPZDA,051046,02,10,[2024/10/02, 13:10:48.168]2024,-08,00*6C
[2024/10/02, 13:10:48.246]$GPRMC,051047,A,0114.1973,N,10339.0646,E,4.41,286.87,[2024/10/02, 13:10:48.512]021024,0.16,E,D*2D
$GPRMB,A,,,,,,,,,,,,V,D*19
$GPGGA,051047,0114.[2024/10/02, 13:10:48.653]1973,N,10339.0646,E,2,18,0.67,-4.82,M,9.62,M,,*64
$GPGSA,A,3,10,12[2024/10/02, 13:10:48.793],18,23,25,28,29,32,,,,,1.34,0.67,1.16*0E
$GPGSV,5,1,19,10,28,352,2[2024/10/02, 13:10:48.934]7,12,20,074,18,18,54,174,29,23,49,038,16*75
$GPGSV,5,2,19,25,45,10[2024/10/02, 13:10:49.074]9,19,28,56,250,26,29,12,152,17,32,23,325,25*71
$GPGSV,5,3,19,45,00[2024/10/02, 13:10:49.215],000,28,,34,104,25,,44,147,23,,66,336,23*7D
$GPGSV,5,4,19,,55,035,[2024/10/02, 13:10:49.356]18,,50,010,21,,59,354,23,,72,173,24*71
$GPGSV,5,5,19,,45,048,19,,2[2024/10/02, 13:10:49.496]8,273,26,,41,218,31*40
$GPGLL,0114.1973,N,10339.0646,E,051047,A,D*[2024/10/02, 13:10:49.637]41
$GPBOD,,T,,M,,*47
$GPBWC,051047,,,,,,T,,M,,N,,D*79
$GPVTG,28[2024/10/02, 13:10:49.777]6.87,T,286.71,M,4.41,N,8.18,K,D*2F
$PGRME,13.99,M,20.61,M,24.91,M*[2024/10/02, 13:10:49.918]27
$PGRMZ,-16,f,3*01
$PGRMM,WGS 84*06
$HCHDM,,M*07
$WIMWV,,R,,[2024/10/02, 13:10:50.058],A*6D
$GPAPB,V,V,,,N,V,V,,,,,,,,N*68
$GPZDA,051047,02,10,2024,-08[2024/10/02, 13:10:50.168],00*6D
[2024/10/02, 13:10:50.246]$GPRMC,051049,A,0114.1978,N,10339.0622,E,4.58,280.65,[2024/10/02, 13:10:50.511]021024,0.16,E,D*28
$GPRMB,A,,,,,,,,,,,,V,D*19
$GPGGA,051049,0114.[2024/10/02, 13:10:50.652]1978,N,10339.0622,E,2,18,0.67,-4.49,M,9.62,M,,*64
$GPGSA,A,3,10,12[2024/10/02, 13:10:50.793],18,23,25,28,29,32,,,,,1.34,0.67,1.16*0E
$GPGSV,5,1,19,10,28,352,[2024/10/02, 13:10:50.933]28,12,20,074,18,18,54,174,29,23,49,038,15*79
$GPGSV,5,2,19,25,45,10[2024/10/02, 13:10:51.074]9,19,28,56,250,25,29,12,152,17,32,23,325,26*71
$GPGSV,5,3,19,45,00[2024/10/02, 13:10:51.214],000,28,,34,104,21,,44,147,26,,66,336,24*7B
$GPGSV,5,4,19,,55,035,[2024/10/02, 13:10:51.355]18,,50,010,21,,59,354,25,,73,173,23*71
$GPGSV,5,5,19,,45,048,20,,2[2024/10/02, 13:10:51.496]8,273,26,,41,218,31*4A
$GPGLL,0114.1978,N,10339.0622,E,051049,A,D[2024/10/02, 13:10:51.636]*46
$GPBOD,,T,,M,,*47
$GPBWC,051049,,,,,,T,,M,,N,,D*77
$GPVTG,28[2024/10/02, 13:10:51.777]0.65,T,280.49,M,4.58,N,8.49,K,D*24
$PGRME,14.00,M,20.63,M,24.93,M[2024/10/02, 13:10:51.917]*20
$PGRMZ,-15,f,3*02
$PGRMM,WGS 84*06
$HCHDM,,M*07
$WIMWV,,R,[2024/10/02, 13:10:52.058],,A*6D
$GPAPB,V,V,,,N,V,V,,,,,,,,N*68
$GPZDA,051049,02,10,2024,-[2024/10/02, 13:10:52.167]08,00*63
[2024/10/02, 13:10:52.245]$GPRMC,051052,A,0114.1987,N,10339.0599,E,4.67,282.16,[2024/10/02, 13:10:52.511]021024,0.16,E,D*2B
$GPRMB,A,,,,,,,,,,,,V,D*19
$GPGGA,051052,0114[2024/10/02, 13:10:52.652].1987,N,10339.0599,E,2,10,0.93,-3.41,M,9.61,M,,*62
$GPGSA,A,3,10,[2024/10/02, 13:10:52.792]12,18,23,25,28,29,32,,,,,1.87,0.93,1.62*0E
$GPGSV,5,1,19,10,28,352[2024/10/02, 13:10:52.933],26,12,20,074,19,18,54,174,26,23,49,038,18*74
$GPGSV,5,2,19,25,45,[2024/10/02, 13:10:53.073]109,20,28,56,250,26,29,12,152,18,32,23,325,22*73
$GPGSV,5,3,19,45,[2024/10/02, 13:10:53.214]00,000,28,,34,104,22,,44,147,24,,66,336,23*7D
$GPGSV,5,4,19,,55,03[2024/10/02, 13:10:53.355]5,18,,50,010,21,,59,354,24,,73,173,24*77
$GPGSV,5,5,19,,45,048,17,[2024/10/02, 13:10:53.495],28,273,25,,41,218,32*4E
$GPGLL,0114.1987,N,10339.0599,E,051052,A,[2024/10/02, 13:10:53.636]D*4F
$GPBOD,,T,,M,,*47
$GPBWC,051052,,,,,,T,,M,,N,,D*7D
$GPVTG,2[2024/10/02, 13:10:53.776]82.16,T,282.00,M,4.67,N,8.65,K,D*2F
$PGRME,14.01,M,21.65,M,25.79,M[2024/10/02, 13:10:53.917]*23
$PGRMZ,-11,f,3*06
$PGRMM,WGS 84*06
$HCHDM,,M*07
$WIMWV,,R[2024/10/02, 13:10:54.057],,,A*6D
$GPAPB,V,V,,,N,V,V,,,,,,,,N*68
$GPZDA,051052,02,10,2024,-[2024/10/02, 13:10:54.167]08,00*69
[2024/10/02, 13:10:54.245]$GPRMC,051054,A,0114.1996,N,10339.0578,E,4.67,282.46[2024/10/02, 13:10:54.511],021024,0.16,E,D*27
$GPRMB,A,,,,,,,,,,,,V,D*19
$GPGGA,051054,0114[2024/10/02, 13:10:54.651].1996,N,10339.0578,E,2,10,0.93,-2.66,M,9.61,M,,*6F
$GPGSA,A,3,10,[2024/10/02, 13:10:54.792]12,18,23,25,28,29,32,,,,,1.87,0.93,1.62*0E
$GPGSV,5,1,19,10,28,352[2024/10/02, 13:10:54.932],26,12,20,074,18,18,54,174,28,23,49,038,18*7B
$GPGSV,5,2,19,25,45,[2024/10/02, 13:10:55.073]109,24,28,56,250,26,29,12,152,18,32,23,325,21*74
$GPGSV,5,3,19,45,[2024/10/02, 13:10:55.214]00,000,28,,34,104,25,,44,147,22,,66,336,22*7D
$GPGSV,5,4,19,,55,03[2024/10/02, 13:10:55.354]5,18,,50,010,21,,59,354,23,,73,173,21*75
$GPGSV,5,5,19,,45,048,18,[2024/10/02, 13:10:55.495],28,272,26,,41,218,32*43
$GPGLL,0114.1996,N,10339.0578,E,051054,A,[2024/10/02, 13:10:55.635]D*46
$GPBOD,,T,,M,,*47
$GPBWC,051054,,,,,,T,,M,,N,,D*7B
$GPVTG,[2024/10/02, 13:10:55.776]282.46,T,282.30,M,4.67,N,8.66,K,D*2A
$PGRME,14.02,M,22.17,M,26.23,[2024/10/02, 13:10:55.916]M*2A
$PGRMZ,-9,f,3*3F
$PGRMM,WGS 84*06
$HCHDM,,M*07
$WIMWV,,R,[2024/10/02, 13:10:56.057],,A*6D
$GPAPB,V,V,,,N,V,V,,,,,,,,N*68
$GPZDA,051054,02,10,2024,-0[2024/10/02, 13:10:56.166]8,00*6F
[2024/10/02, 13:10:56.244]$GPRMC,051055,A,0114.2003,N,10339.0557,E,4.57,295.87[2024/10/02, 13:10:56.510],021024,0.16,E,D*25
$GPRMB,A,,,,,,,,,,,,V,D*19
$GPGGA,051055,0114[2024/10/02, 13:10:56.651].2003,N,10339.0557,E,2,18,0.67,-3.36,M,9.61,M,,*62
$GPGSA,A,3,10,1[2024/10/02, 13:10:56.791]2,18,23,25,28,29,32,,,,,1.34,0.67,1.16*0E
$GPGSV,5,1,19,10,28,352,[2024/10/02, 13:10:56.932]27,12,20,074,24,18,54,174,29,23,49,038,19*75
$GPGSV,5,2,19,25,45,1[2024/10/02, 13:10:57.072]09,23,28,56,250,26,29,12,152,20,32,23,325,22*7B
$GPGSV,5,3,19,45,0[2024/10/02, 13:10:57.213]0,000,28,,34,104,25,,44,147,23,,66,336,25*7B
$GPGSV,5,4,19,,55,035[2024/10/02, 13:10:57.354],20,,50,010,21,,59,354,25,,73,173,23*7A
$GPGSV,5,5,19,,45,048,19,,[2024/10/02, 13:10:57.494]28,272,25,,41,217,32*4E
$GPGLL,0114.2003,N,10339.0557,E,051055,A,D[2024/10/02, 13:10:57.635]*4C
$GPBOD,,T,,M,,*47
$GPBWC,051055,,,,,,T,,M,,N,,D*7A
$GPVTG,2[2024/10/02, 13:10:57.775]95.87,T,295.71,M,4.57,N,8.46,K,D*23
$PGRME,14.04,M,21.82,M,25.94,M[2024/10/02, 13:10:57.916]*2C
$PGRMZ,-11,f,3*06
$PGRMM,WGS 84*06
$HCHDM,,M*07
$WIMWV,,R,[2024/10/02, 13:10:58.057],,A*6D
$GPAPB,V,V,,,N,V,V,,,,,,,,N*68
$GPZDA,051055,02,10,2024,-0[2024/10/02, 13:10:58.166]8,00*6E
[2024/10/02, 13:10:58.244]$GPRMC,051057,A,0114.2007,N,10339.0535,E,4.39,294.02[2024/10/02, 13:10:58.510],021024,0.16,E,D*23
$GPRMB,A,,,,,,,,,,,,V,D*19
$GPGGA,051057,0114[2024/10/02, 13:10:58.650].2007,N,10339.0535,E,2,18,0.67,-4.58,M,9.61,M,,*6F
$GPGSA,A,3,10,1[2024/10/02, 13:10:58.791]2,18,23,25,28,29,32,,,,,1.34,0.67,1.16*0E
$GPGSV,5,1,19,10,28,352[2024/10/02, 13:10:58.931],24,12,20,074,17,18,54,174,29,23,49,038,19*76
$GPGSV,5,2,19,25,45,[2024/10/02, 13:10:59.072]109,25,28,56,250,26,29,12,152,21,32,23,325,20*7E
$GPGSV,5,3,19,45,[2024/10/02, 13:10:59.213]00,000,29,,34,104,24,,44,147,22,,66,336,24*7B
$GPGSV,5,4,19,,55,03[2024/10/02, 13:10:59.353]5,22,,50,010,22,,59,354,25,,73,173,23*7B
$GPGSV,5,5,19,,45,048,19,[2024/10/02, 13:10:59.494],28,272,26,,41,217,32*4D
$GPGLL,0114.2007,N,10339.0535,E,051057,A,[2024/10/02, 13:10:59.634]D*4E
$GPBOD,,T,,M,,*47
$GPBWC,051057,,,,,,T,,M,,N,,D*78
$GPVTG,[2024/10/02, 13:10:59.775]294.02,T,293.86,M,4.39,N,8.12,K,D*28
$PGRME,14.04,M,21.65,M,25.81,[2024/10/02, 13:10:59.915]M*21
$PGRMZ,-15,f,3*02
$PGRMM,WGS 84*06
$HCHDM,,M*07
$WIMWV,,R[2024/10/02, 13:11:00.056],,,A*6D
$GPAPB,V,V,,,N,V,V,,,,,,,,N*68
$GPZDA,051057,02,10,2024,-[2024/10/02, 13:11:00.166]08,00*6C
[2024/10/02, 13:11:00.244]$GPRMC,051059,A,0114.2012,N,10339.0510,E,4.31,292.66[2024/10/02, 13:11:00.509],021024,0.16,E,D*22
$GPRMB,A,,,,,,,,,,,,V,D*19
$GPGGA,051059,0114[2024/10/02, 13:11:00.650].2012,N,10339.0510,E,2,18,0.67,-5.98,M,9.61,M,,*6F
$GPGSA,A,3,10,[2024/10/02, 13:11:00.790]12,18,23,25,28,29,32,,,,,1.34,0.67,1.16*0E
$GPGSV,5,1,19,10,28,352[2024/10/02, 13:11:00.931],26,12,20,074,18,18,54,174,28,23,49,038,18*7B
$GPGSV,5,2,19,25,45,[2024/10/02, 13:11:01.071]109,25,28,56,250,25,29,12,152,18,32,23,325,24*73
$GPGSV,5,3,19,45,[2024/10/02, 13:11:01.212]00,000,29,,34,104,24,,44,147,24,,66,336,23*7A
$GPGSV,5,4,19,,55,03[2024/10/02, 13:11:01.353]5,21,,50,010,21,,59,354,25,,73,173,23*7B
$GPGSV,5,5,19,,45,048,21,,[2024/10/02, 13:11:01.493]28,272,26,,41,217,33*47
$GPGLL,0114.2012,N,10339.0510,E,051059,A,D[2024/10/02, 13:11:01.634]*43
$GPBOD,,T,,M,,*47
$GPBWC,051059,,,,,,T,,M,,N,,D*76
$GPVTG,2[2024/10/02, 13:11:01.774]92.66,T,292.50,M,4.31,N,7.97,K,D*2C
$PGRME,14.00,M,21.44,M,25.60,M[2024/10/02, 13:11:01.915]*29
$PGRMZ,-20,f,3*04
$PGRMM,WGS 84*06
$HCHDM,,M*07
$WIMWV,,R,[2024/10/02, 13:11:02.056],,A*6D
$GPAPB,V,V,,,N,V,V,,,,,,,,N*68
$GPZDA,051059,02,10,2024,-[2024/10/02, 13:11:02.165]08,00*62
[2024/10/02, 13:11:02.243]$GPRMC,051101,A,0114.2021,N,10339.0494,E,4.16,288.61[2024/10/02, 13:11:02.509],021024,0.16,E,D*2A
$GPRMB,A,,,,,,,,,,,,V,D*19
$GPGGA,051101,011[2024/10/02, 13:11:02.649]4.2021,N,10339.0494,E,2,18,0.63,-5.86,M,9.61,M,,*65
$GPGSA,A,3,10,[2024/10/02, 13:11:02.790]12,18,23,25,28,29,32,,,,,1.28,0.63,1.12*03
$GPGSV,5,1,19,10,28,352[2024/10/02, 13:11:02.930],27,12,20,074,19,18,54,174,29,23,49,038,18*7A
$GPGSV,5,2,19,25,45,[2024/10/02, 13:11:03.071]109,23,28,56,250,24,29,12,152,19,32,23,325,23*72
$GPGSV,5,3,19,45,[2024/10/02, 13:11:03.212]00,000,28,,34,104,25,,44,147,22,,66,336,24*7B
$GPGSV,5,4,19,,55,03[2024/10/02, 13:11:03.352]5,19,,50,010,22,,59,354,25,,73,173,24*74
$GPGSV,5,5,19,,45,048,19,[2024/10/02, 13:11:03.493],28,272,25,,41,217,32*4E
$GPGLL,0114.2021,N,10339.0494,E,051101,A,[2024/10/02, 13:11:03.633]D*42
$GPBOD,,T,,M,,*47
$GPBWC,051101,,,,,,T,,M,,N,,D*7A
$GPVTG,[2024/10/02, 13:11:03.774]288.61,T,288.45,M,4.16,N,7.71,K,D*22
$PGRME,13.56,M,20.94,M,24.95,[2024/10/02, 13:11:03.915]M*2A
$PGRMZ,-19,f,3*0E
$PGRMM,WGS 84*06
$HCHDM,,M*07
$WIMWV,,R[2024/10/02, 13:11:04.055],,,A*6D
$GPAPB,V,V,,,N,V,V,,,,,,,,N*68
$GPZDA,051101,02,10,2024,-[2024/10/02, 13:11:04.164]08,00*6E
[2024/10/02, 13:11:04.243]$GPRMC,051103,A,0114.2026,N,10339.0477,E,4.14,279.1[2024/10/02, 13:11:04.508]2,021024,0.16,E,D*2A
$GPRMB,A,,,,,,,,,,,,V,D*19
$GPGGA,051103,011[2024/10/02, 13:11:04.649]4.2026,N,10339.0477,E,2,19,0.63,-5.14,M,9.61,M,,*67
$GPGSA,A,3,10,[2024/10/02, 13:11:04.789]12,18,23,25,28,29,31,32,,,,1.28,0.63,1.11*02
$GPGSV,5,1,20,10,28,3[2024/10/02, 13:11:04.930]52,26,12,20,074,22,18,54,174,29,23,49,038,18*79
$GPGSV,5,2,20,25,4[2024/10/02, 13:11:05.071]5,109,23,28,56,250,25,29,12,152,19,31,23,226,30*7A
$GPGSV,5,3,20,3[2024/10/02, 13:11:05.211]2,23,325,24,45,00,000,28,,34,104,25,,44,147,23*72
$GPGSV,5,4,20,,6[2024/10/02, 13:11:05.352]6,336,22,,55,035,20,,50,010,19,,59,354,24*7C
$GPGSV,5,5,20,,73,173[2024/10/02, 13:11:05.492],22,,45,048,19,,28,272,26,,41,217,32*76
$GPGLL,0114.2026,N,10339.[2024/10/02, 13:11:05.633]0477,E,051103,A,D*4A
$GPBOD,,T,,M,,*47
$GPBWC,051103,,,,,,T,,M,,N[2024/10/02, 13:11:05.773],,D*78
$GPVTG,279.12,T,278.95,M,4.14,N,7.67,K,D*2F
$PGRME,13.08,[2024/10/02, 13:11:05.914]M,20.45,M,24.27,M*24
$PGRMZ,-17,f,3*00
$PGRMM,WGS 84*06
$HCHDM,,[2024/10/02, 13:11:06.055]M*07
$WIMWV,,R,,,A*6D
$GPAPB,V,V,,,N,V,V,,,,,,,,N*68
$GPZDA,051[2024/10/02, 13:11:06.195]103,02,10,2024,-08,00*6C
[2024/10/02, 13:11:06.336]$GPRMC,051105,A,0114.2032,N,10339.04[2024/10/02, 13:11:06.476]58,E,4.15,277.32,021024,0.16,E,D*29
$GPRMB,A,,,,,,,,,,,,V,D*19
$G[2024/10/02, 13:11:06.617]PGGA,051105,0114.2032,N,10339.0458,E,2,19,0.63,-4.46,M,9.61,M,,*6F[2024/10/02, 13:11:06.758]
$GPGSA,A,3,10,12,18,23,25,28,29,31,32,,,,1.28,0.63,1.12*01
$GPGS[2024/10/02, 13:11:06.898]V,5,1,20,10,28,352,26,12,20,074,20,18,54,174,29,23,49,038,15*76
$G[2024/10/02, 13:11:07.039]PGSV,5,2,20,25,45,109,20,28,56,250,26,29,12,152,19,31,23,226,30*7A
[2024/10/02, 13:11:07.179]$GPGSV,5,3,20,32,23,325,25,45,00,000,28,,34,104,24,,44,147,24*75
$[2024/10/02, 13:11:07.320]GPGSV,5,4,20,,66,336,23,,55,035,18,,50,010,20,,59,354,24*7C
$GPGSV[2024/10/02, 13:11:07.461],5,5,20,,73,173,25,,45,048,17,,28,272,27,,41,217,32*7E
$GPGLL,0114[2024/10/02, 13:11:07.601].2032,N,10339.0458,E,051105,A,D*44
$GPBOD,,T,,M,,*47
$GPBWC,05110[2024/10/02, 13:11:07.742]5,,,,,,T,,M,,N,,D*7E
$GPVTG,277.32,T,277.16,M,4.15,N,7.68,K,D*29[2024/10/02, 13:11:07.882]
$PGRME,12.75,M,19.95,M,23.67,M*2B
$PGRMZ,-15,f,3*02
$PGRMM,WGS [2024/10/02, 13:11:08.023]84*06
$HCHDM,,M*07
$WIMWV,,R,,,A*6D
$GPAPB,V,V,,,N,V,V,,,,,,,,N*[2024/10/02, 13:11:08.132]68
$GPZDA,051105,02,10,2024,-08,00*6A
[2024/10/02, 13:11:08.210]$GPRMC,051107,A,0114.2039,N,10339.04[2024/10/02, 13:11:08.476]41,E,3.90,279.34,021024,0.16,E,D*2A
$GPRMB,A,,,,,,,,,,,,V,D*19
$G[2024/10/02, 13:11:08.616]PGGA,051107,0114.2039,N,10339.0441,E,2,19,0.63,-4.14,M,9.61,M,,*69[2024/10/02, 13:11:08.757]
$GPGSA,A,3,10,12,18,23,25,28,29,31,32,,,,1.28,0.63,1.12*01
$GPGSV[2024/10/02, 13:11:08.898],5,1,20,10,28,352,26,12,20,074,19,18,54,174,29,23,49,038,20*7A
$GP[2024/10/02, 13:11:09.038]GSV,5,2,20,25,45,109,23,28,56,250,26,29,12,152,19,31,23,226,29*71
[2024/10/02, 13:11:09.179]$GPGSV,5,3,20,32,23,325,25,45,00,000,28,,34,104,23,,44,147,25*73
$[2024/10/02, 13:11:09.319]GPGSV,5,4,20,,66,336,23,,55,035,17,,50,010,20,,59,354,24*73
$GPGSV[2024/10/02, 13:11:09.460],5,5,20,,73,173,24,,45,048,17,,28,272,26,,41,217,30*7C
$GPGLL,0114[2024/10/02, 13:11:09.601].2039,N,10339.0441,E,051107,A,D*45
$GPBOD,,T,,M,,*47
$GPBWC,05110[2024/10/02, 13:11:09.741]7,,,,,,T,,M,,N,,D*7C
$GPVTG,279.34,T,279.18,M,3.90,N,7.22,K,D*25[2024/10/02, 13:11:09.882]
$PGRME,12.65,M,19.80,M,23.50,M*2A
$PGRMZ,-14,f,3*03
$PGRMM,WGS 8[2024/10/02, 13:11:10.022]4*06
$HCHDM,,M*07
$WIMWV,,R,,,A*6D
$GPAPB,V,V,,,N,V,V,,,,,,,,N*[2024/10/02, 13:11:10.132]68
$GPZDA,051107,02,10,2024,-08,00*68
[2024/10/02, 13:11:10.210]$GPRMC,051109,A,0114.2042,N,10339.04[2024/10/02, 13:11:10.475]21,E,3.92,272.86,021024,0.16,E,D*2E
$GPRMB,A,,,,,,,,,,,,V,D*19
$G[2024/10/02, 13:11:10.616]PGGA,051109,0114.2042,N,10339.0421,E,2,19,0.63,-4.29,M,9.61,M,,*63[2024/10/02, 13:11:10.757]
$GPGSA,A,3,10,12,18,23,25,28,29,31,32,,,,1.28,0.63,1.12*01
$GPGS[2024/10/02, 13:11:10.897]V,5,1,20,10,28,352,22,12,20,074,21,18,54,174,30,23,49,038,18*76
$G[2024/10/02, 13:11:11.038]PGSV,5,2,20,25,45,109,19,28,56,250,27,29,12,152,21,31,23,226,29*72[2024/10/02, 13:11:11.178]
$GPGSV,5,3,20,32,23,325,25,45,00,000,28,,34,104,17,,44,147,26*77
[2024/10/02, 13:11:11.319]$GPGSV,5,4,20,,66,336,24,,55,035,17,,50,010,19,,59,354,23*79
$GPGS[2024/10/02, 13:11:11.460]V,5,5,20,,73,173,24,,45,048,17,,28,272,28,,41,217,30*72
$GPGLL,011[2024/10/02, 13:11:11.600]4.2042,N,10339.0421,E,051109,A,D*41
$GPBOD,,T,,M,,*47
$GPBWC,0511[2024/10/02, 13:11:11.741]09,,,,,,T,,M,,N,,D*72
$GPVTG,272.86,T,272.70,M,3.92,N,7.27,K,D*25[2024/10/02, 13:11:11.881]
$PGRME,12.63,M,19.55,M,23.27,M*24
$PGRMZ,-14,f,3*03
$PGRMM,WGS [2024/10/02, 13:11:12.022]84*06
$HCHDM,,M*07
$WIMWV,,R,,,A*6D
$GPAPB,V,V,,,N,V,V,,,,,,,,N*[2024/10/02, 13:11:12.131]68
$GPZDA,051109,02,10,2024,-08,00*66
[2024/10/02, 13:11:12.210]$GPRMC,051111,A,0114.2044,N,10339.04[2024/10/02, 13:11:12.475]00,E,3.92,270.58,021024,0.16,E,D*23
$GPRMB,A,,,,,,,,,,,,V,D*19
$[2024/10/02, 13:11:12.616]GPGGA,051111,0114.2044,N,10339.0400,E,2,19,0.63,-4.21,M,9.61,M,,*67[2024/10/02, 13:11:12.756]
$GPGSA,A,3,10,12,18,23,25,28,29,31,32,,,,1.28,0.63,1.12*01
$GPGS[2024/10/02, 13:11:12.897]V,5,1,20,10,28,352,25,12,20,074,20,18,54,174,29,23,49,038,19*79
$G[2024/10/02, 13:11:13.037]PGSV,5,2,20,25,45,109,20,28,56,250,27,29,12,152,21,31,23,226,25*74[2024/10/02, 13:11:13.178]
$GPGSV,5,3,20,32,23,325,24,45,00,000,28,,34,104,17,,44,147,27*77
[2024/10/02, 13:11:13.319]$GPGSV,5,4,20,,66,336,24,,55,035,16,,50,010,19,,59,354,23*78
$GPGSV[2024/10/02, 13:11:13.459],5,5,20,,73,173,26,,45,048,19,,28,272,28,,41,217,31*7F
$GPGLL,0114[2024/10/02, 13:11:13.600].2044,N,10339.0400,E,051111,A,D*4D
$GPBOD,,T,,M,,*47
$GPBWC,0511[2024/10/02, 13:11:13.740]11,,,,,,T,,M,,N,,D*7B
$GPVTG,270.58,T,270.42,M,3.92,N,7.27,K,D*27[2024/10/02, 13:11:13.881]
$PGRME,12.57,M,19.37,M,23.09,M*2B
$PGRMZ,-14,f,3*03
$PGRMM,WGS [2024/10/02, 13:11:14.021]84*06
$HCHDM,,M*07
$WIMWV,,R,,,A*6D
$GPAPB,V,V,,,N,V,V,,,,,,,,N*[2024/10/02, 13:11:14.131]68
$GPZDA,051111,02,10,2024,-08,00*6F
[2024/10/02, 13:11:14.209]$GPRMC,051113,A,0114.2048,N,10339.0[2024/10/02, 13:11:14.475]381,E,3.61,272.81,021024,0.16,E,D*29
$GPRMB,A,,,,,,,,,,,,V,D*19
$[2024/10/02, 13:11:14.615]GPGGA,051113,0114.2048,N,10339.0381,E,2,19,0.63,-4.95,M,9.61,M,,*68[2024/10/02, 13:11:14.756]
$GPGSA,A,3,10,12,18,23,25,28,29,31,32,,,,1.28,0.63,1.12*01
$GPGS[2024/10/02, 13:11:14.896]V,5,1,20,10,28,352,24,12,20,074,19,18,54,174,30,23,49,038,19*7A
$G[2024/10/02, 13:11:15.037]PGSV,5,2,20,25,45,109,19,28,56,250,28,29,12,152,17,31,23,226,28*79[2024/10/02, 13:11:15.177]
$GPGSV,5,3,20,32,23,325,26,45,00,000,28,,34,104,20,,44,147,24*72
[2024/10/02, 13:11:15.318]$GPGSV,5,4,20,,66,336,23,,55,035,16,,50,010,20,,59,354,24*72
$GPGS[2024/10/02, 13:11:15.459]V,5,5,20,,73,173,23,,45,048,19,,28,272,28,,41,217,31*7A
$GPGLL,011[2024/10/02, 13:11:15.599]4.2048,N,10339.0381,E,051113,A,D*4D
$GPBOD,,T,,M,,*47
$GPBWC,0511[2024/10/02, 13:11:15.740]13,,,,,,T,,M,,N,,D*79
$GPVTG,272.81,T,272.65,M,3.61,N,6.68,K,D*20[2024/10/02, 13:11:15.880]
$PGRME,12.38,M,19.22,M,22.86,M*20
$PGRMZ,-16,f,3*01
$PGRMM,WGS [2024/10/02, 13:11:16.021]84*06
$HCHDM,,M*07
$WIMWV,,R,,,A*6D
$GPAPB,V,V,,,N,V,V,,,,,,,,N[2024/10/02, 13:11:16.131]*68
$GPZDA,051113,02,10,2024,-08,00*6D
[2024/10/02, 13:11:16.209]$GPRMC,051115,A,0114.2051,N,10339.0[2024/10/02, 13:11:16.474]363,E,3.61,278.37,021024,0.16,E,D*2C
$GPRMB,A,,,,,,,,,,,,V,D*19
$[2024/10/02, 13:11:16.615]GPGGA,051115,0114.2051,N,10339.0363,E,2,19,0.63,-5.19,M,9.61,M,,*6F[2024/10/02, 13:11:16.755]
$GPGSA,A,3,10,12,18,23,25,28,29,31,32,,,,1.28,0.63,1.12*01
$GPGS[2024/10/02, 13:11:16.896]V,5,1,20,10,28,352,27,12,20,074,21,18,54,174,29,23,49,038,17*74
$G[2024/10/02, 13:11:17.036]PGSV,5,2,20,25,45,109,19,28,56,250,25,29,12,152,18,31,23,226,27*74[2024/10/02, 13:11:17.177]
$GPGSV,5,3,20,32,23,325,26,45,00,000,28,,34,104,20,,44,147,24*72
[2024/10/02, 13:11:17.318]$GPGSV,5,4,20,,66,336,23,,55,035,19,,50,010,19,,59,354,24*77
$GPGS[2024/10/02, 13:11:17.458]V,5,5,20,,73,173,24,,45,048,19,,28,272,28,,41,217,31*7D
$GPGLL,011[2024/10/02, 13:11:17.599]4.2051,N,10339.0363,E,051115,A,D*4F
$GPBOD,,T,,M,,*47
$GPBWC,0511[2024/10/02, 13:11:17.739]15,,,,,,T,,M,,N,,D*7F
$GPVTG,278.37,T,278.21,M,3.61,N,6.69,K,D*2C[2024/10/02, 13:11:17.880]
$PGRME,12.38,M,19.29,M,22.92,M*2E
$PGRMZ,-17,f,3*00
$PGRMM,WGS [2024/10/02, 13:11:18.021]84*06
$HCHDM,,M*07
$WIMWV,,R,,,A*6D
$GPAPB,V,V,,,N,V,V,,,,,,,,N[2024/10/02, 13:11:18.130]*68
$GPZDA,051115,02,10,2024,-08,00*6B
[2024/10/02, 13:11:18.208]$GPRMC,051117,A,0114.2054,N,10339.0[2024/10/02, 13:11:18.474]344,E,3.64,278.72,021024,0.16,E,D*2A
$GPRMB,A,,,,,,,,,,,,V,D*19
$[2024/10/02, 13:11:18.614]GPGGA,051117,0114.2054,N,10339.0344,E,2,19,0.63,-5.95,M,9.61,M,,*69[2024/10/02, 13:11:18.755]
$GPGSA,A,3,10,12,18,23,25,28,29,31,32,,,,1.28,0.63,1.12*01
$GPGS[2024/10/02, 13:11:18.895]V,5,1,20,10,28,352,26,12,20,074,22,18,54,174,29,23,49,038,17*76
$G[2024/10/02, 13:11:19.036]PGSV,5,2,20,25,45,109,23,28,56,250,26,29,12,152,19,31,23,226,28*70[2024/10/02, 13:11:19.177]
$GPGSV,5,3,20,32,23,325,24,45,00,000,28,,34,104,23,,44,147,24*73
[2024/10/02, 13:11:19.317]$GPGSV,5,4,20,,66,336,23,,55,035,17,,50,010,20,,59,354,23*74
$GPGS[2024/10/02, 13:11:19.458]V,5,5,20,,73,173,23,,45,048,18,,28,272,28,,41,217,32*78
$GPGLL,011[2024/10/02, 13:11:19.598]4.2054,N,10339.0344,E,051117,A,D*4D
$GPBOD,,T,,M,,*47
$GPBWC,0511[2024/10/02, 13:11:19.739]17,,,,,,T,,M,,N,,D*7D
$GPVTG,278.72,T,278.56,M,3.64,N,6.74,K,D*24[2024/10/02, 13:11:19.880]
$PGRME,12.38,M,19.32,M,22.94,M*22
$PGRMZ,-20,f,3*04
$PGRMM,WGS [2024/10/02, 13:11:20.020]84*06
$HCHDM,,M*07
$WIMWV,,R,,,A*6D
$GPAPB,V,V,,,N,V,V,,,,,,,,N[2024/10/02, 13:11:20.129]*68
$GPZDA,051117,02,10,2024,-08,00*69
[2024/10/02, 13:11:20.208]$GPRMC,051119,A,0114.2062,N,10339.0[2024/10/02, 13:11:20.473]327,E,3.50,289.79,021024,0.16,E,D*26
$GPRMB,A,,,,,,,,,,,,V,D*19
$[2024/10/02, 13:11:20.614]GPGGA,051119,0114.2062,N,10339.0327,E,2,19,0.63,-6.51,M,9.61,M,,*6C[2024/10/02, 13:11:20.754]
$GPGSA,A,3,10,12,18,23,25,28,29,31,32,,,,1.28,0.63,1.12*01
$GPG[2024/10/02, 13:11:20.895]SV,5,1,20,10,29,352,26,12,20,074,20,18,54,174,27,23,49,038,18*74
$G[2024/10/02, 13:11:21.036]PGSV,5,2,20,25,45,109,22,28,56,250,25,29,12,152,21,31,23,226,28*79[2024/10/02, 13:11:21.176]
$GPGSV,5,3,20,32,23,325,25,45,00,000,28,,34,104,24,,44,147,24*75
[2024/10/02, 13:11:21.317]$GPGSV,5,4,20,,66,336,23,,55,035,19,,50,010,20,,59,354,25*7C
$GPGS[2024/10/02, 13:11:21.457]V,5,5,20,,73,173,25,,45,048,15,,28,272,25,,41,217,32*7E
$GPGLL,011[2024/10/02, 13:11:21.598]4.2062,N,10339.0327,E,051119,A,D*43
$GPBOD,,T,,M,,*47
$GPBWC,051[2024/10/02, 13:11:21.738]119,,,,,,T,,M,,N,,D*73
$GPVTG,289.79,T,289.63,M,3.50,N,6.48,K,D*21[2024/10/02, 13:11:21.879]
$PGRME,12.37,M,19.27,M,22.90,M*2D
$PGRMZ,-21,f,3*05
$PGRMM,WGS [2024/10/02, 13:11:22.020]84*06
$HCHDM,,M*07
$WIMWV,,R,,,A*6D
$GPAPB,V,V,,,N,V,V,,,,,,,,N[2024/10/02, 13:11:22.129]*68
$GPZDA,051119,02,10,2024,-08,00*67
[2024/10/02, 13:11:22.207]$GPRMC,051121,A,0114.2065,N,10339.0[2024/10/02, 13:11:22.473]307,E,3.56,287.90,021024,0.16,E,D*27
$GPRMB,A,,,,,,,,,,,,V,D*19
[2024/10/02, 13:11:22.613]$GPGGA,051121,0114.2065,N,10339.0307,E,2,19,0.63,-6.68,M,9.61,M,,*6[2024/10/02, 13:11:22.754]8
$GPGSA,A,3,10,12,18,23,25,28,29,31,32,,,,1.28,0.63,1.12*01
$GPG[2024/10/02, 13:11:22.894]SV,5,1,20,10,29,352,27,12,19,073,23,18,54,174,28,23,49,038,18*74
$[2024/10/02, 13:11:23.035]GPGSV,5,2,20,25,45,109,20,28,56,250,26,29,12,152,20,31,23,226,29*78[2024/10/02, 13:11:23.176]
$GPGSV,5,3,20,32,23,325,26,45,00,000,28,,34,104,24,,44,147,23*71[2024/10/02, 13:11:23.316]
$GPGSV,5,4,20,,66,336,23,,55,035,19,,50,010,21,,59,354,25*7D
$GPGS[2024/10/02, 13:11:23.457]V,5,5,20,,73,173,25,,45,048,15,,28,272,25,,41,217,32*7E
$GPGLL,01[2024/10/02, 13:11:23.597]14.2065,N,10339.0307,E,051121,A,D*4D
$GPBOD,,T,,M,,*47
$GPBWC,051[2024/10/02, 13:11:23.738]121,,,,,,T,,M,,N,,D*78
$GPVTG,287.90,T,287.74,M,3.56,N,6.60,K,D*2C[2024/10/02, 13:11:23.879]
$PGRME,12.19,M,19.21,M,22.75,M*2C
$PGRMZ,-22,f,3*06
$PGRMM,WGS[2024/10/02, 13:11:24.019] 84*06
$HCHDM,,M*07
$WIMWV,,R,,,A*6D
$GPAPB,V,V,,,N,V,V,,,,,,,,[2024/10/02, 13:11:24.129]N*68
$GPZDA,051121,02,10,2024,-08,00*6C
[2024/10/02, 13:11:24.207]$GPRMC,051123,A,0114.2070,N,10339.[2024/10/02, 13:11:24.472]0287,E,3.71,289.60,021024,0.16,E,D*2C
$GPRMB,A,,,,,,,,,,,,V,D*19
[2024/10/02, 13:11:24.613]$GPGGA,051123,0114.2070,N,10339.0287,E,2,19,0.63,-6.82,M,9.61,M,,*6[2024/10/02, 13:11:24.753]3
$GPGSA,A,3,10,12,18,23,25,28,29,31,32,,,,1.28,0.63,1.12*01
$GPG[2024/10/02, 13:11:24.894]SV,5,1,20,10,29,352,27,12,19,073,23,18,54,174,28,23,49,038,17*7B
$[2024/10/02, 13:11:25.034]GPGSV,5,2,20,25,45,109,24,28,56,250,26,29,12,152,19,31,23,226,30*7E[2024/10/02, 13:11:25.175]
$GPGSV,5,3,20,32,23,325,25,45,00,000,28,,34,104,25,,44,147,21*71[2024/10/02, 13:11:25.316]
$GPGSV,5,4,20,,66,336,24,,55,035,20,,50,010,21,,59,354,24*71
$GPG[2024/10/02, 13:11:25.456]SV,5,5,20,,73,173,21,,45,048,19,,28,272,27,,41,217,32*74
$GPGLL,01[2024/10/02, 13:11:25.597]14.2070,N,10339.0287,E,051123,A,D*42
$GPBOD,,T,,M,,*47
$GPBWC,051[2024/10/02, 13:11:25.737]123,,,,,,T,,M,,N,,D*7A
$GPVTG,289.60,T,289.44,M,3.71,N,6.88,K,D*23[2024/10/02, 13:11:25.878]
$PGRME,12.11,M,19.29,M,22.78,M*21
$PGRMZ,-22,f,3*06
$PGRMM,WGS[2024/10/02, 13:11:26.019] 84*06
$HCHDM,,M*07
$WIMWV,,R,,,A*6D
$GPAPB,V,V,,,N,V,V,,,,,,,,N[2024/10/02, 13:11:26.128]*68
$GPZDA,051123,02,10,2024,-08,00*6E
[2024/10/02, 13:11:26.206]$GPRMC,051125,A,0114.2077,N,10339.[2024/10/02, 13:11:26.472]0272,E,3.50,297.46,021024,0.16,E,D*2F
$GPRMB,A,,,,,,,,,,,,V,D*19
[2024/10/02, 13:11:26.612]$GPGGA,051125,0114.2077,N,10339.0272,E,2,19,0.63,-7.11,M,9.61,M,,*6[2024/10/02, 13:11:26.753]3
$GPGSA,A,3,10,12,18,23,25,28,29,31,32,,,,1.28,0.63,1.12*01
$GPG[2024/10/02, 13:11:26.894]SV,5,1,20,10,29,352,25,12,19,073,20,18,54,174,27,23,49,038,16*74
$[2024/10/02, 13:11:27.034]GPGSV,5,2,20,25,45,109,21,28,56,250,26,29,12,152,18,31,23,226,29*72[2024/10/02, 13:11:27.175]
$GPGSV,5,3,20,32,23,325,25,45,00,000,28,,34,104,23,,44,147,24*72[2024/10/02, 13:11:27.315]
$GPGSV,5,4,20,,66,336,23,,55,035,20,,50,010,21,,59,354,25*77
$GPG[2024/10/02, 13:11:27.456]SV,5,5,20,,73,173,24,,45,048,22,,28,272,27,,41,217,32*79
$GPGLL,01[2024/10/02, 13:11:27.596]14.2077,N,10339.0272,E,051125,A,D*49
$GPBOD,,T,,M,,*47
$GPBWC,05[2024/10/02, 13:11:27.737]1125,,,,,,T,,M,,N,,D*7C
$GPVTG,297.46,T,297.30,M,3.50,N,6.48,K,D*2[2024/10/02, 13:11:27.878]B
$PGRME,12.11,M,19.28,M,22.77,M*2F
$PGRMZ,-23,f,3*07
$PGRMM,WG[2024/10/02, 13:11:28.018]S 84*06
$HCHDM,,M*07
$WIMWV,,R,,,A*6D
$GPAPB,V,V,,,N,V,V,,,,,,,,[2024/10/02, 13:11:28.127]N*68
$GPZDA,051125,02,10,2024,-08,00*68
[2024/10/02, 13:11:28.206]$GPRMC,051127,A,0114.2083,N,10339.[2024/10/02, 13:11:28.471]0256,E,3.45,294.60,021024,0.16,E,D*23
$GPRMB,A,,,,,,,,,,,,V,D*19
[2024/10/02, 13:11:28.612]$GPGGA,051127,0114.2083,N,10339.0256,E,2,19,0.63,-6.91,M,9.61,M,,*6[2024/10/02, 13:11:28.753]5
$GPGSA,A,3,10,12,18,23,25,28,29,31,32,,,,1.28,0.63,1.12*01
$GP[2024/10/02, 13:11:28.893]GSV,5,1,20,10,29,352,25,12,19,073,21,18,53,174,28,23,49,038,18*73
[2024/10/02, 13:11:29.034]$GPGSV,5,2,20,25,45,109,24,28,56,250,26,29,12,152,21,31,23,226,30*7[2024/10/02, 13:11:29.174]5
$GPGSV,5,3,20,32,23,325,23,45,00,000,28,,34,104,22,,44,147,23*72[2024/10/02, 13:11:29.315]
$GPGSV,5,4,20,,66,336,24,,55,035,18,,50,010,23,,59,354,25*79
$GP[2024/10/02, 13:11:29.455]GSV,5,5,20,,73,173,19,,45,048,19,,28,272,27,,41,217,32*7F
$GPGLL,0[2024/10/02, 13:11:29.596]114.2083,N,10339.0256,E,051127,A,D*46
$GPBOD,,T,,M,,*47
