[2024/10/02, 12:24:36.983],26,,30,113,27,,50,141,27,,77,336,19*76
$GPGSV,5,4,17,,08,154,20,,[2024/10/02, 12:24:37.123]70,003,23,,51,182,29,,24,294,16*7B
$GPGSV,5,5,17,,50,245,27*4C
$G[2024/10/02, 12:24:37.264]PGLL,0114.4919,N,10338.4868,E,042425,A,D*4D
$GPBOD,,T,,M,,*47
$G[2024/10/02, 12:24:37.404]PBWC,042425,,,,,,T,,M,,N,,D*7B
$GPVTG,179.34,T,179.18,M,2.54,N,4.7[2024/10/02, 12:24:37.545]0,K,D*28
$PGRME,16.70,M,18.26,M,24.75,M*27
$PGRMZ,-21,f,3*05
$P[2024/10/02, 12:24:37.686]GRMM,WGS 84*06
$HCHDM,,M*07
$WIMWV,,R,,,A*6D
$GPAPB,V,V,,,N,V,V,[2024/10/02, 12:24:37.811],,,,,,,N*68
$GPZDA,042425,02,10,2024,-08,00*6F
[2024/10/02, 12:24:38.014]$GPRMC,042427,A,0114.4904,N,10338.4872,E,2.53,177.41,0210[2024/10/02, 12:24:38.279]24,0.16,E,D*26
$GPRMB,A,,,,,,,,,,,,V,D*19
$GPGGA,042427,0114.490[2024/10/02, 12:24:38.420]4,N,10338.4872,E,2,16,0.73,-6.58,M,9.56,M,,*64
$GPGSA,A,3,10,12,18[2024/10/02, 12:24:38.560],23,25,28,29,32,,,,,1.23,0.73,1.00*0A
$GPGSV,5,1,17,10,14,339,20,1[2024/10/02, 12:24:38.701]2,22,096,29,18,78,179,29,23,35,015,14*77
$GPGSV,5,2,17,25,38,138,2[2024/10/02, 12:24:38.842]9,28,41,223,21,29,19,169,24,32,26,303,15*70
$GPGSV,5,3,17,41,65,266[2024/10/02, 12:24:38.982],26,,30,113,28,,50,141,28,,77,336,18*77
$GPGSV,5,4,17,,08,154,22,,[2024/10/02, 12:24:39.123]70,003,20,,51,182,29,,24,294,16*7A
$GPGSV,5,5,17,,50,245,25*4E
$[2024/10/02, 12:24:39.263]GPGLL,0114.4904,N,10338.4872,E,042427,A,D*48
$GPBOD,,T,,M,,*47
$G[2024/10/02, 12:24:39.404]PBWC,042427,,,,,,T,,M,,N,,D*79
$GPVTG,177.41,T,177.25,M,2.53,N,4.6[2024/10/02, 12:24:39.545]9,K,D*2B
$PGRME,16.69,M,18.55,M,24.96,M*26
$PGRMZ,-22,f,3*06
$P[2024/10/02, 12:24:39.685]GRMM,WGS 84*06
$HCHDM,,M*07
$WIMWV,,R,,,A*6D
$GPAPB,V,V,,,N,V,V,[2024/10/02, 12:24:39.810],,,,,,,N*68
$GPZDA,042427,02,10,2024,-08,00*6D
[2024/10/02, 12:24:40.013]$GPRMC,042429,A,0114.4886,N,10338.4873,E,2.70,183.71,0210[2024/10/02, 12:24:40.279]24,0.16,E,D*2B
$GPRMB,A,,,,,,,,,,,,V,D*19
$GPGGA,042429,0114.488[2024/10/02, 12:24:40.420]6,N,10338.4873,E,2,16,0.73,-7.00,M,9.56,M,,*6C
$GPGSA,A,3,10,12,18[2024/10/02, 12:24:40.560],23,25,28,29,32,,,,,1.23,0.73,1.00*0A
$GPGSV,5,1,17,10,14,339,18,1[2024/10/02, 12:24:40.701]2,22,096,29,18,78,179,29,23,35,015,14*7C
$GPGSV,5,2,17,25,38,138,2[2024/10/02, 12:24:40.841]9,28,41,223,19,29,19,169,25,32,26,303,13*7C
$GPGSV,5,3,17,41,65,26[2024/10/02, 12:24:40.982]6,26,,30,113,26,,50,141,29,,77,336,19*79
$GPGSV,5,4,17,,08,154,23,[2024/10/02, 12:24:41.122],70,003,20,,51,182,29,,24,294,15*78
$GPGSV,5,5,17,,50,245,26*4D
$[2024/10/02, 12:24:41.263]GPGLL,0114.4886,N,10338.4873,E,042429,A,D*4C
$GPBOD,,T,,M,,*47
$[2024/10/02, 12:24:41.404]GPBWC,042429,,,,,,T,,M,,N,,D*77
$GPVTG,183.71,T,183.55,M,2.70,N,5.[2024/10/02, 12:24:41.544]00,K,D*20
$PGRME,16.70,M,18.29,M,24.76,M*2B
$PGRMZ,-23,f,3*07
$P[2024/10/02, 12:24:41.685]GRMM,WGS 84*06
$HCHDM,,M*07
$WIMWV,,R,,,A*6D
$GPAPB,V,V,,,N,V,V[2024/10/02, 12:24:41.810],,,,,,,,N*68
$GPZDA,042429,02,10,2024,-08,00*63
[2024/10/02, 12:24:42.013]$GPRMC,042431,A,0114.4867,N,10338.4877,E,3.01,179.09,021[2024/10/02, 12:24:42.278]024,0.16,E,D*24
$GPRMB,A,,,,,,,,,,,,V,D*19
$GPGGA,042431,0114.486[2024/10/02, 12:24:42.419]7,N,10338.4877,E,2,16,0.73,-7.51,M,9.56,M,,*6A
$GPGSA,A,3,10,12,18[2024/10/02, 12:24:42.560],23,25,28,29,32,,,,,1.23,0.73,1.00*0A
$GPGSV,5,1,17,10,14,339,18,1[2024/10/02, 12:24:42.700]2,22,096,29,18,78,179,29,23,35,015,15*7D
$GPGSV,5,2,17,25,38,138,2[2024/10/02, 12:24:42.841]9,28,41,223,20,29,19,169,24,32,26,303,15*71
$GPGSV,5,3,17,41,65,26[2024/10/02, 12:24:42.981]6,26,,30,113,27,,50,141,28,,77,336,20*73
$GPGSV,5,4,17,,08,154,19,[2024/10/02, 12:24:43.122],70,002,20,,51,182,29,,24,294,19*7C
$GPGSV,5,5,17,,50,245,27*4C
$[2024/10/02, 12:24:43.262]GPGLL,0114.4867,N,10338.4877,E,042431,A,D*4E
$GPBOD,,T,,M,,*47
$G[2024/10/02, 12:24:43.403]PBWC,042431,,,,,,T,,M,,N,,D*7E
$GPVTG,179.09,T,178.93,M,3.01,N,5.[2024/10/02, 12:24:43.544]58,K,D*2E
$PGRME,16.70,M,17.71,M,24.34,M*2F
$PGRMZ,-25,f,3*01
$P[2024/10/02, 12:24:43.684]GRMM,WGS 84*06
$HCHDM,,M*07
$WIMWV,,R,,,A*6D
$GPAPB,V,V,,,N,V,V[2024/10/02, 12:24:43.809],,,,,,,,N*68
$GPZDA,042431,02,10,2024,-08,00*6A
[2024/10/02, 12:24:44.013]$GPRMC,042433,A,0114.4848,N,10338.4874,E,3.29,185.87,021[2024/10/02, 12:24:44.278]024,0.16,E,D*27
$GPRMB,A,,,,,,,,,,,,V,D*19
$GPGGA,042433,0114.484[2024/10/02, 12:24:44.418]8,N,10338.4874,E,2,16,0.73,-7.67,M,9.56,M,,*63
$GPGSA,A,3,10,12,18[2024/10/02, 12:24:44.559],23,25,28,29,32,,,,,1.23,0.73,1.00*0A
$GPGSV,5,1,17,10,14,339,17,1[2024/10/02, 12:24:44.700]2,22,096,30,18,78,179,29,23,35,015,15*7A
$GPGSV,5,2,17,25,38,138,3[2024/10/02, 12:24:44.840]0,28,41,223,22,29,19,169,24,32,26,303,15*7B
$GPGSV,5,3,17,41,65,26[2024/10/02, 12:24:44.981]6,26,,30,113,28,,50,141,25,,77,336,19*7B
$GPGSV,5,4,17,,08,154,19,[2024/10/02, 12:24:45.121],70,002,18,,51,182,29,,24,294,20*7D
$GPGSV,5,5,17,,50,245,27*4C
$[2024/10/02, 12:24:45.262]GPGLL,0114.4848,N,10338.4874,E,042433,A,D*42
$GPBOD,,T,,M,,*47
$[2024/10/02, 12:24:45.403]GPBWC,042433,,,,,,T,,M,,N,,D*7C
$GPVTG,185.87,T,185.71,M,3.29,N,6.[2024/10/02, 12:24:45.543]09,K,D*28
$PGRME,16.70,M,17.73,M,24.35,M*2C
$PGRMZ,-25,f,3*01
$P[2024/10/02, 12:24:45.684]GRMM,WGS 84*06
$HCHDM,,M*07
$WIMWV,,R,,,A*6D
$GPAPB,V,V,,,N,V,V[2024/10/02, 12:24:45.809],,,,,,,,N*68
$GPZDA,042433,02,10,2024,-08,00*68
[2024/10/02, 12:24:46.012]$GPRMC,042435,A,0114.4829,N,10338.4872,E,3.49,190.11,021[2024/10/02, 12:24:46.277]024,0.16,E,D*2D
$GPRMB,A,,,,,,,,,,,,V,D*19
$GPGGA,042435,0114.482[2024/10/02, 12:24:46.418]9,N,10338.4872,E,2,16,0.73,-7.53,M,9.56,M,,*63
$GPGSA,A,3,10,12,18[2024/10/02, 12:24:46.559],23,25,28,29,32,,,,,1.23,0.73,1.00*0A
$GPGSV,5,1,17,10,14,339,19,1[2024/10/02, 12:24:46.699]2,22,096,30,18,78,179,29,23,35,015,14*75
$GPGSV,5,2,17,25,38,138,3[2024/10/02, 12:24:46.840]0,28,41,223,22,29,19,169,26,32,26,303,15*79
$GPGSV,5,3,17,41,65,26[2024/10/02, 12:24:46.980]6,26,,30,113,26,,50,141,25,,77,336,21*7E
$GPGSV,5,4,17,,08,154,20,[2024/10/02, 12:24:47.121],70,002,24,,51,182,29,,24,294,17*7C
$GPGSV,5,5,17,,50,245,28*43
[2024/10/02, 12:24:47.262]$GPGLL,0114.4829,N,10338.4872,E,042435,A,D*45
$GPBOD,,T,,M,,*47
$[2024/10/02, 12:24:47.402]GPBWC,042435,,,,,,T,,M,,N,,D*7A
$GPVTG,190.11,T,189.95,M,3.49,N,6.[2024/10/02, 12:24:47.543]47,K,D*29
$PGRME,16.71,M,18.02,M,24.57,M*20
$PGRMZ,-25,f,3*01
$[2024/10/02, 12:24:47.683]PGRMM,WGS 84*06
$HCHDM,,M*07
$WIMWV,,R,,,A*6D
$GPAPB,V,V,,,N,V,V[2024/10/02, 12:24:47.808],,,,,,,,N*68
$GPZDA,042435,02,10,2024,-08,00*6E
[2024/10/02, 12:24:48.011]$GPRMC,042437,A,0114.4813,N,10338.4872,E,3.51,188.61,021[2024/10/02, 12:24:48.277]024,0.16,E,D*21
$GPRMB,A,,,,,,,,,,,,V,D*19
$GPGGA,042437,0114.48[2024/10/02, 12:24:48.417]13,N,10338.4872,E,2,16,0.73,-8.35,M,9.56,M,,*67
$GPGSA,A,3,10,12,1[2024/10/02, 12:24:48.558]8,23,25,28,29,32,,,,,1.23,0.73,1.00*0A
$GPGSV,5,1,17,10,14,339,19,[2024/10/02, 12:24:48.699]12,22,096,29,18,78,179,29,23,35,015,14*7D
$GPGSV,5,2,17,25,38,138,[2024/10/02, 12:24:48.839]29,28,41,223,20,29,19,169,25,32,26,303,15*70
$GPGSV,5,3,17,41,65,2[2024/10/02, 12:24:48.980]66,26,,30,113,27,,50,141,25,,77,336,20*7E
$GPGSV,5,4,17,,08,154,19,[2024/10/02, 12:24:49.120],70,002,19,,52,182,29,,24,294,17*7B
$GPGSV,5,5,17,,50,245,26*4D
[2024/10/02, 12:24:49.261]$GPGLL,0114.4813,N,10338.4872,E,042437,A,D*4E
$GPBOD,,T,,M,,*47
$[2024/10/02, 12:24:49.402]GPBWC,042437,,,,,,T,,M,,N,,D*78
$GPVTG,188.61,T,188.45,M,3.51,N,6.[2024/10/02, 12:24:49.542]51,K,D*25
$PGRME,16.71,M,17.51,M,24.21,M*28
$PGRMZ,-27,f,3*03
$[2024/10/02, 12:24:49.683]PGRMM,WGS 84*06
$HCHDM,,M*07
$WIMWV,,R,,,A*6D
$GPAPB,V,V,,,N,V,V[2024/10/02, 12:24:49.808],,,,,,,,N*68
$GPZDA,042437,02,10,2024,-08,00*6C
[2024/10/02, 12:24:50.011]$GPRMC,042439,A,0114.4798,N,10338.4870,E,3.47,188.02,021[2024/10/02, 12:24:50.276]024,0.16,E,D*23
$GPRMB,A,,,,,,,,,,,,V,D*19
$GPGGA,042439,0114.47[2024/10/02, 12:24:50.417]98,N,10338.4870,E,2,16,0.73,-7.52,M,9.56,M,,*69
$GPGSA,A,3,10,12,1[2024/10/02, 12:24:50.558]8,23,25,28,29,32,,,,,1.23,0.73,1.00*0A
$GPGSV,5,1,17,10,14,339,16,[2024/10/02, 12:24:50.698]12,22,096,30,18,78,179,29,23,35,015,14*7A
$GPGSV,5,2,17,25,38,138,[2024/10/02, 12:24:50.839]30,28,41,223,20,29,19,169,24,32,26,303,15*79
$GPGSV,5,3,17,41,65,2[2024/10/02, 12:24:50.979]66,26,,30,113,26,,50,141,27,,77,336,23*7E
$GPGSV,5,4,17,,08,154,18[2024/10/02, 12:24:51.120],,70,002,18,,52,182,30,,24,294,19*7D
$GPGSV,5,5,17,,50,245,27*4C
[2024/10/02, 12:24:51.261]$GPGLL,0114.4798,N,10338.4870,E,042439,A,D*4E
$GPBOD,,T,,M,,*47
$[2024/10/02, 12:24:51.401]GPBWC,042439,,,,,,T,,M,,N,,D*76
$GPVTG,188.02,T,187.86,M,3.47,N,6.[2024/10/02, 12:24:51.542]43,K,D*24
$PGRME,16.72,M,16.89,M,23.77,M*2B
$PGRMZ,-25,f,3*01
$[2024/10/02, 12:24:51.682]PGRMM,WGS 84*06
$HCHDM,,M*07
$WIMWV,,R,,,A*6D
$GPAPB,V,V,,,N,V,[2024/10/02, 12:24:51.807]V,,,,,,,,N*68
$GPZDA,042439,02,10,2024,-08,00*62
[2024/10/02, 12:24:52.010]$GPRMC,042441,A,0114.4781,N,10338.4872,E,3.29,182.62,02[2024/10/02, 12:24:52.276]1024,0.16,E,D*22
$GPRMB,A,,,,,,,,,,,,V,D*19
$GPGGA,042441,0114.47[2024/10/02, 12:24:52.417]81,N,10338.4872,E,2,16,0.73,-7.30,M,9.56,M,,*68
$GPGSA,A,3,10,12,1[2024/10/02, 12:24:52.557]8,23,25,28,29,32,,,,,1.23,0.73,1.00*0A
$GPGSV,5,1,17,10,14,339,17,[2024/10/02, 12:24:52.698]12,22,096,28,18,78,179,28,23,35,015,14*73
$GPGSV,5,2,17,25,38,138,[2024/10/02, 12:24:52.838]28,28,41,223,18,29,19,169,26,32,26,303,15*79
$GPGSV,5,3,17,41,65,2[2024/10/02, 12:24:52.979]66,26,,30,113,27,,50,141,27,,77,336,19*76
$GPGSV,5,4,17,,08,154,20[2024/10/02, 12:24:53.120],,70,002,20,,52,182,29,,24,294,19*75
$GPGSV,5,5,17,,50,245,25*4E
[2024/10/02, 12:24:53.260]$GPGLL,0114.4781,N,10338.4872,E,042441,A,D*4B
$GPBOD,,T,,M,,*47
$[2024/10/02, 12:24:53.401]GPBWC,042441,,,,,,T,,M,,N,,D*79
$GPVTG,182.62,T,182.46,M,3.29,N,6[2024/10/02, 12:24:53.541].09,K,D*27
$PGRME,16.72,M,16.49,M,23.49,M*2A
$PGRMZ,-24,f,3*00
$[2024/10/02, 12:24:53.682]PGRMM,WGS 84*06
$HCHDM,,M*07
$WIMWV,,R,,,A*6D
$GPAPB,V,V,,,N,V,[2024/10/02, 12:24:53.807]V,,,,,,,,N*68
$GPZDA,042441,02,10,2024,-08,00*6D
[2024/10/02, 12:24:54.010]$GPRMC,042443,A,0114.4761,N,10338.4875,E,3.23,180.06,02[2024/10/02, 12:24:54.275]1024,0.16,E,D*23
$GPRMB,A,,,,,,,,,,,,V,D*19
$GPGGA,042443,0114.47[2024/10/02, 12:24:54.416]61,N,10338.4875,E,2,16,0.73,-7.59,M,9.56,M,,*6C
$GPGSA,A,3,10,12,1[2024/10/02, 12:24:54.557]8,23,25,28,29,32,,,,,1.23,0.73,1.00*0A
$GPGSV,5,1,17,10,14,339,18,[2024/10/02, 12:24:54.697]12,22,096,28,18,78,179,29,23,35,015,14*7D
$GPGSV,5,2,17,25,38,138,[2024/10/02, 12:24:54.838]28,28,41,223,19,29,19,169,24,32,26,303,14*7B
$GPGSV,5,3,17,41,65,2[2024/10/02, 12:24:54.978]66,26,,30,113,28,,50,141,28,,77,336,19*76
$GPGSV,5,4,17,,08,154,22[2024/10/02, 12:24:55.119],,70,002,22,,52,182,29,,24,294,16*7A
$GPGSV,5,5,17,,50,244,26*4C
[2024/10/02, 12:24:55.260]$GPGLL,0114.4761,N,10338.4875,E,042443,A,D*40
$GPBOD,,T,,M,,*47
[2024/10/02, 12:24:55.400]$GPBWC,042443,,,,,,T,,M,,N,,D*7B
$GPVTG,180.06,T,179.90,M,3.23,N,5[2024/10/02, 12:24:55.541].99,K,D*28
$PGRME,16.73,M,16.77,M,23.69,M*24
$PGRMZ,-25,f,3*01
$[2024/10/02, 12:24:55.681]PGRMM,WGS 84*06
$HCHDM,,M*07
$WIMWV,,R,,,A*6D
$GPAPB,V,V,,,N,V,[2024/10/02, 12:24:55.806]V,,,,,,,,N*68
$GPZDA,042443,02,10,2024,-08,00*6F
[2024/10/02, 12:24:56.009]$GPRMC,042445,A,0114.4740,N,10338.4876,E,3.27,180.44,02[2024/10/02, 12:24:56.275]1024,0.16,E,D*27
$GPRMB,A,,,,,,,,,,,,V,D*19
$GPGGA,042445,0114.47[2024/10/02, 12:24:56.416]40,N,10338.4876,E,2,16,0.73,-7.83,M,9.56,M,,*6D
$GPGSA,A,3,10,12,1[2024/10/02, 12:24:56.556]8,23,25,28,29,32,,,,,1.23,0.73,1.00*0A
$GPGSV,5,1,17,10,14,339,19[2024/10/02, 12:24:56.697],12,22,096,28,18,78,179,29,23,35,015,14*7C
$GPGSV,5,2,17,25,38,138,[2024/10/02, 12:24:56.837]28,28,41,223,22,29,19,169,25,32,26,303,14*72
$GPGSV,5,3,17,41,65,2[2024/10/02, 12:24:56.978]66,26,,30,113,26,,50,141,28,,77,336,19*78
$GPGSV,5,4,17,,08,154,19[2024/10/02, 12:24:57.119],,70,002,21,,52,182,29,,24,294,16*71
$GPGSV,5,5,17,,50,244,26*4C
[2024/10/02, 12:24:57.259]$GPGLL,0114.4740,N,10338.4876,E,042445,A,D*46
$GPBOD,,T,,M,,*47
[2024/10/02, 12:24:57.400]$GPBWC,042445,,,,,,T,,M,,N,,D*7D
$GPVTG,180.44,T,180.28,M,3.27,N,6[2024/10/02, 12:24:57.540].05,K,D*29
$PGRME,16.75,M,17.22,M,24.02,M*29
$PGRMZ,-26,f,3*02
[2024/10/02, 12:24:57.681]$PGRMM,WGS 84*06
$HCHDM,,M*07
$WIMWV,,R,,,A*6D
$GPAPB,V,V,,,N,V,[2024/10/02, 12:24:57.806]V,,,,,,,,N*68
$GPZDA,042445,02,10,2024,-08,00*69
[2024/10/02, 12:24:58.009]$GPRMC,042447,A,0114.4717,N,10338.4874,E,3.34,188.28,02[2024/10/02, 12:24:58.275]1024,0.16,E,D*25
$GPRMB,A,,,,,,,,,,,,V,D*19
$GPGGA,042447,0114.4[2024/10/02, 12:24:58.415]717,N,10338.4874,E,2,16,0.73,-7.74,M,9.56,M,,*67
$GPGSA,A,3,10,12,[2024/10/02, 12:24:58.556]18,23,25,28,29,32,,,,,1.23,0.73,1.00*0A
$GPGSV,5,1,17,10,14,339,18[2024/10/02, 12:24:58.696],12,22,096,29,18,78,179,29,23,35,015,15*7D
$GPGSV,5,2,17,25,38,138[2024/10/02, 12:24:58.837],29,28,41,223,19,29,19,169,25,32,26,303,14*7B
$GPGSV,5,3,17,41,65,[2024/10/02, 12:24:58.978]266,26,,30,113,27,,50,141,29,,77,336,18*79
$GPGSV,5,4,17,,08,154,2[2024/10/02, 12:24:59.118]1,,70,002,19,,52,182,29,,24,294,17*70
$GPGSV,5,5,17,,50,244,27*4D[2024/10/02, 12:24:59.259]
$GPGLL,0114.4717,N,10338.4874,E,042447,A,D*44
$GPBOD,,T,,M,,*47
[2024/10/02, 12:24:59.399]$GPBWC,042447,,,,,,T,,M,,N,,D*7F
$GPVTG,188.28,T,188.12,M,3.34,N,6[2024/10/02, 12:24:59.540].19,K,D*25
$PGRME,16.76,M,17.71,M,24.38,M*25
$PGRMZ,-25,f,3*01
[2024/10/02, 12:24:59.680]$PGRMM,WGS 84*06
$HCHDM,,M*07
$WIMWV,,R,,,A*6D
$GPAPB,V,V,,,N,V,[2024/10/02, 12:24:59.806]V,,,,,,,,N*68
$GPZDA,042447,02,10,2024,-08,00*6B
[2024/10/02, 12:25:00.009]$GPRMC,042449,A,0114.4694,N,10338.4873,E,3.63,188.10,02[2024/10/02, 12:25:00.274]1024,0.16,E,D*2F
$GPRMB,A,,,,,,,,,,,,V,D*19
$GPGGA,042449,0114.4[2024/10/02, 12:25:00.415]694,N,10338.4873,E,2,16,0.73,-7.94,M,9.56,M,,*6A
$GPGSA,A,3,10,12,[2024/10/02, 12:25:00.555]18,23,25,28,29,32,,,,,1.23,0.73,1.00*0A
$GPGSV,5,1,17,10,14,339,17[2024/10/02, 12:25:00.696],12,22,096,29,18,78,179,28,23,35,015,14*72
$GPGSV,5,2,17,25,38,138[2024/10/02, 12:25:00.837],29,28,41,223,23,29,19,169,23,32,26,303,14*74
$GPGSV,5,3,17,41,65,[2024/10/02, 12:25:00.977]266,26,,30,113,28,,50,141,27,,77,336,21*72
$GPGSV,5,4,17,,08,154,1[2024/10/02, 12:25:01.118]7,,70,002,19,,52,182,29,,24,294,17*75
$GPGSV,5,5,17,,50,244,27*4D[2024/10/02, 12:25:01.258]
$GPGLL,0114.4694,N,10338.4873,E,042449,A,D*47
$GPBOD,,T,,M,,*47
[2024/10/02, 12:25:01.399]$GPBWC,042449,,,,,,T,,M,,N,,D*71
$GPVTG,188.10,T,187.95,M,3.63,N,6[2024/10/02, 12:25:01.539].72,K,D*21
$PGRME,16.78,M,18.29,M,24.82,M*28
$PGRMZ,-26,f,3*02
[2024/10/02, 12:25:01.680]$PGRMM,WGS 84*06
$HCHDM,,M*07
$WIMWV,,R,,,A*6D
$GPAPB,V,V,,,N,V[2024/10/02, 12:25:01.805],V,,,,,,,,N*68
$GPZDA,042449,02,10,2024,-08,00*65
[2024/10/02, 12:25:02.008]$GPRMC,042451,A,0114.4669,N,10338.4873,E,3.83,185.07,0[2024/10/02, 12:25:02.274]21024,0.16,E,D*21
$GPRMB,A,,,,,,,,,,,,V,D*19
$GPGGA,042451,0114.4[2024/10/02, 12:25:02.414]669,N,10338.4873,E,2,16,0.73,-7.66,M,9.56,M,,*6C
$GPGSA,A,3,10,12,[2024/10/02, 12:25:02.555]18,23,25,28,29,32,,,,,1.23,0.73,1.00*0A
$GPGSV,5,1,17,10,14,339,16[2024/10/02, 12:25:02.695],12,22,096,29,18,78,179,29,23,35,015,14*72
$GPGSV,5,2,17,25,38,138[2024/10/02, 12:25:02.836],29,28,41,223,22,29,19,169,21,32,26,303,13*70
$GPGSV,5,3,17,41,65,[2024/10/02, 12:25:02.977]266,26,,30,113,28,,50,141,25,,77,336,20*71
$GPGSV,5,4,17,,08,154,1[2024/10/02, 12:25:03.117]7,,70,002,19,,52,182,29,,24,294,18*7A
$GPGSV,5,5,17,,50,244,27*4D[2024/10/02, 12:25:03.258]
$GPGLL,0114.4669,N,10338.4873,E,042451,A,D*4C
$GPBOD,,T,,M,,*47
[2024/10/02, 12:25:03.398]$GPBWC,042451,,,,,,T,,M,,N,,D*78
$GPVTG,185.07,T,184.91,M,3.83,N,[2024/10/02, 12:25:03.539]7.10,K,D*26
$PGRME,16.80,M,18.74,M,25.17,M*2A
$PGRMZ,-25,f,3*01
[2024/10/02, 12:25:03.680]$PGRMM,WGS 84*06
$HCHDM,,M*07
$WIMWV,,R,,,A*6D
$GPAPB,V,V,,,N,V[2024/10/02, 12:25:03.805],V,,,,,,,,N*68
$GPZDA,042451,02,10,2024,-08,00*6C
[2024/10/02, 12:25:04.008]$GPRMC,042453,A,0114.4645,N,10338.4876,E,4.03,178.34,0[2024/10/02, 12:25:04.273]21024,0.16,E,D*25
$GPRMB,A,,,,,,,,,,,,V,D*19
$GPGGA,042453,0114.4[2024/10/02, 12:25:04.414]645,N,10338.4876,E,2,16,0.73,-7.50,M,9.56,M,,*60
$GPGSA,A,3,10,12,[2024/10/02, 12:25:04.554]18,23,25,28,29,32,,,,,1.23,0.73,1.00*0A
$GPGSV,5,1,17,10,14,339,17[2024/10/02, 12:25:04.695],12,22,096,28,18,78,179,29,23,35,015,14*72
$GPGSV,5,2,17,25,38,138[2024/10/02, 12:25:04.836],29,28,41,223,21,29,19,169,21,32,26,303,15*75
$GPGSV,5,3,17,41,65,[2024/10/02, 12:25:04.976]266,26,,30,113,28,,50,141,26,,77,336,21*73
$GPGSV,5,4,17,,08,154,1[2024/10/02, 12:25:05.117]7,,70,002,22,,52,182,29,,24,294,18*72
$GPGSV,5,5,17,,50,244,27*4D[2024/10/02, 12:25:05.257]
$GPGLL,0114.4645,N,10338.4876,E,042453,A,D*45
$GPBOD,,T,,M,,*47[2024/10/02, 12:25:05.398]
$GPBWC,042453,,,,,,T,,M,,N,,D*7A
$GPVTG,178.34,T,178.18,M,4.03,N,[2024/10/02, 12:25:05.538]7.46,K,D*2A
$PGRME,16.82,M,19.26,M,25.57,M*2A
$PGRMZ,-25,f,3*01
[2024/10/02, 12:25:05.679]$PGRMM,WGS 84*06
$HCHDM,,M*07
$WIMWV,,R,,,A*6D
$GPAPB,V,V,,,N,V[2024/10/02, 12:25:05.804],V,,,,,,,,N*68
$GPZDA,042453,02,10,2024,-08,00*6E
[2024/10/02, 12:25:06.007]$GPRMC,042455,A,0114.4620,N,10338.4876,E,4.20,179.10,0[2024/10/02, 12:25:06.273]21024,0.16,E,D*26
$GPRMB,A,,,,,,,,,,,,V,D*19
$GPGGA,042455,0114.4[2024/10/02, 12:25:06.413]620,N,10338.4876,E,2,16,0.73,-7.80,M,9.56,M,,*68
$GPGSA,A,3,10,12,[2024/10/02, 12:25:06.554]18,23,25,28,29,32,,,,,1.23,0.73,1.00*0A
$GPGSV,5,1,17,10,14,339,1[2024/10/02, 12:25:06.694]7,12,22,096,29,18,78,179,28,23,35,015,14*72
$GPGSV,5,2,17,25,38,13[2024/10/02, 12:25:06.835]8,29,28,41,223,22,29,19,169,22,32,26,303,15*75
$GPGSV,5,3,17,41,65,[2024/10/02, 12:25:06.976]266,26,,30,113,28,,50,141,26,,77,336,22*70
$GPGSV,5,4,17,,08,154,1[2024/10/02, 12:25:07.116]8,,70,002,20,,52,182,29,,24,294,20*74
$GPGSV,5,5,17,,50,244,27*4D[2024/10/02, 12:25:07.257]
$GPGLL,0114.4620,N,10338.4876,E,042455,A,D*40
$GPBOD,,T,,M,,*47[2024/10/02, 12:25:07.397]
$GPBWC,042455,,,,,,T,,M,,N,,D*7C
$GPVTG,179.10,T,178.94,M,4.20,N,[2024/10/02, 12:25:07.538]7.79,K,D*24
$PGRME,16.85,M,19.79,M,25.99,M*25
$PGRMZ,-26,f,3*02[2024/10/02, 12:25:07.679]
$PGRMM,WGS 84*06
$HCHDM,,M*07
$WIMWV,,R,,,A*6D
$GPAPB,V,V,,,N,V[2024/10/02, 12:25:07.819],V,,,,,,,,N*68
$GPZDA,042455,02,10,2024,-08,00*68
[2024/10/02, 12:25:08.007]$GPRMC,042457,A,0114.4597,N,10338.4872,E,4.29,182.93,0[2024/10/02, 12:25:08.272]21024,0.16,E,D*29
$GPRMB,A,,,,,,,,,,,,V,D*19
$GPGGA,042457,0114.[2024/10/02, 12:25:08.413]4597,N,10338.4872,E,2,16,0.73,-8.38,M,9.56,M,,*6D
$GPGSA,A,3,10,12[2024/10/02, 12:25:08.553],18,23,25,28,29,32,,,,,1.23,0.73,1.00*0A
$GPGSV,5,1,17,10,14,339,1[2024/10/02, 12:25:08.694]8,12,22,096,30,18,78,179,29,23,35,015,15*75
$GPGSV,5,2,17,25,38,13[2024/10/02, 12:25:08.835]8,29,28,41,223,19,29,19,169,21,32,26,303,17*7C
$GPGSV,5,3,17,41,65[2024/10/02, 12:25:08.975],266,26,,30,113,28,,50,141,25,,77,336,19*7B
$GPGSV,5,4,17,,08,154,[2024/10/02, 12:25:09.116]16,,70,002,21,,52,182,29,,24,294,20*7B
$GPGSV,5,5,17,,50,244,27*4D[2024/10/02, 12:25:09.256]
$GPGLL,0114.4597,N,10338.4872,E,042457,A,D*49
$GPBOD,,T,,M,,*47[2024/10/02, 12:25:09.397]
$GPBWC,042457,,,,,,T,,M,,N,,D*7E
$GPVTG,182.93,T,182.77,M,4.29,N,[2024/10/02, 12:25:09.537]7.95,K,D*28
$PGRME,16.88,M,19.07,M,25.47,M*22
$PGRMZ,-27,f,3*03[2024/10/02, 12:25:09.678]
$PGRMM,WGS 84*06
$HCHDM,,M*07
$WIMWV,,R,,,A*6D
$GPAPB,V,V,,,N,V[2024/10/02, 12:25:09.819],V,,,,,,,,N*68
$GPZDA,042457,02,10,2024,-08,00*6A
[2024/10/02, 12:25:10.006]$GPRMC,042459,A,0114.4573,N,103[2024/10/02, 12:25:10.225]38.4872,E,4.39,182.71,021024,0.16,E,D*20
$GPRMB,A,,,,,,,,,,,,V,D*1[2024/10/02, 12:25:10.365]9
$GPGGA,042459,0114.4573,N,10338.4872,E,2,16,0.73,-8.67,M,9.56,M,[2024/10/02, 12:25:10.506],*63
$GPGSA,A,3,10,12,18,23,25,28,29,32,,,,,1.23,0.73,1.00*0A
$GP[2024/10/02, 12:25:10.647]GSV,5,1,17,10,14,339,17,12,22,096,30,18,78,179,29,23,35,015,14*7B
[2024/10/02, 12:25:10.787]$GPGSV,5,2,17,25,38,138,29,28,41,223,20,29,19,169,23,32,26,303,14*7[2024/10/02, 12:25:10.928]7
$GPGSV,5,3,17,41,65,266,26,,30,113,28,,50,141,25,,77,336,20*71
[2024/10/02, 12:25:11.068]$GPGSV,5,4,17,,08,154,18,,70,002,19,,52,182,30,,24,294,19*7C
$GPGS[2024/10/02, 12:25:11.209]V,5,5,17,,50,244,28*42
$GPGLL,0114.4573,N,10338.4872,E,042459,A,D*[2024/10/02, 12:25:11.345]4D
$GPBOD,,T,,M,,*47
$GPBWC,042459,,,,,,T,,M,,N,,D*70
$GPVTG,[2024/10/02, 12:25:11.485]182.71,T,182.55,M,4.39,N,8.13,K,D*24
$PGRME,16.90,M,19.10,M,25.50[2024/10/02, 12:25:11.626],M*2B
$PGRMZ,-28,f,3*0C
$PGRMM,WGS 84*06
$HCHDM,,M*07
$WIMWV,,R[2024/10/02, 12:25:11.766],,,A*6D
$GPAPB,V,V,,,N,V,V,,,,,,,,N*68
$GPZDA,042459,02,10,2024,[2024/10/02, 12:25:11.876]-08,00*64
[2024/10/02, 12:25:12.016]$GPRMC,042501,A,0114.4546,N,10338.4871,E,4.52,183.24,02102[2024/10/02, 12:25:12.282]4,0.16,E,D*25
$GPRMB,A,,,,,,,,,,,,V,D*19
$GPGGA,042501,0114.4546,[2024/10/02, 12:25:12.423]N,10338.4871,E,2,16,0.73,-8.93,M,9.56,M,,*61
$GPGSA,A,3,10,12,18,2[2024/10/02, 12:25:12.563]3,25,28,29,32,,,,,1.23,0.73,1.00*0A
$GPGSV,5,1,17,10,14,339,17,12,[2024/10/02, 12:25:12.704]22,096,30,18,78,179,29,23,35,015,14*7B
$GPGSV,5,2,17,25,38,138,30,[2024/10/02, 12:25:12.844]28,41,223,19,29,19,169,23,32,26,303,14*75
$GPGSV,5,3,17,41,65,266,[2024/10/02, 12:25:12.985]26,,30,113,28,,50,141,27,,77,336,18*78
$GPGSV,5,4,17,,08,154,16,,7[2024/10/02, 12:25:13.125]0,002,19,,52,182,30,,24,294,18*73
$GPGSV,5,5,17,,50,244,28*42
$GP[2024/10/02, 12:25:13.266]GLL,0114.4546,N,10338.4871,E,042501,A,D*44
$GPBOD,,T,,M,,*47
$GPB[2024/10/02, 12:25:13.407]WC,042501,,,,,,T,,M,,N,,D*7C
$GPVTG,183.24,T,183.09,M,4.52,N,8.37[2024/10/02, 12:25:13.547],K,D*26
$PGRME,16.92,M,18.72,M,25.23,M*28
$PGRMZ,-29,f,3*0D
$PG[2024/10/02, 12:25:13.688]RMM,WGS 84*06
$HCHDM,,M*07
$WIMWV,,R,,,A*6D
$GPAPB,V,V,,,N,V,V,,[2024/10/02, 12:25:13.813],,,,,,N*68
$GPZDA,042501,02,10,2024,-08,00*68
[2024/10/02, 12:25:14.016]$GPRMC,042503,A,0114.4522,N,10338.4869,E,4.51,184.94,02102[2024/10/02, 12:25:14.281]4,0.16,E,D*23
$GPRMB,A,,,,,,,,,,,,V,D*19
$GPGGA,042503,0114.4522,[2024/10/02, 12:25:14.422]N,10338.4869,E,2,16,0.73,-9.08,M,9.56,M,,*6B
$GPGSA,A,3,10,12,18,2[2024/10/02, 12:25:14.563]3,25,28,29,32,,,,,1.23,0.73,1.00*0A
$GPGSV,5,1,17,10,14,339,18,12,[2024/10/02, 12:25:14.703]22,096,30,18,78,179,28,23,35,015,16*77
$GPGSV,5,2,17,25,38,138,29,[2024/10/02, 12:25:14.844]28,41,223,21,29,19,169,24,32,26,303,14*71
$GPGSV,5,3,17,41,65,266,[2024/10/02, 12:25:14.984]26,,30,113,28,,50,141,27,,77,336,20*73
$GPGSV,5,4,17,,08,154,16,,7[2024/10/02, 12:25:15.125]0,002,17,,52,182,30,,24,294,19*7C
$GPGSV,5,5,17,,50,244,28*42
$GP[2024/10/02, 12:25:15.266]GLL,0114.4522,N,10338.4869,E,042503,A,D*4D
$GPBOD,,T,,M,,*47
$GP[2024/10/02, 12:25:15.406]BWC,042503,,,,,,T,,M,,N,,D*7E
$GPVTG,184.94,T,184.78,M,4.51,N,8.36[2024/10/02, 12:25:15.547],K,D*29
$PGRME,16.93,M,18.25,M,24.89,M*2A
$PGRMZ,-30,f,3*05
$PG[2024/10/02, 12:25:15.693]RMM,WGS 84*06
$HCHDM,,M*07
$WIMWV,,R,,,A*6D
$GPAPB,V,V,,,N,V,V,,,,[2024/10/02, 12:25:15.818],,,,N*68
$GPZDA,042503,02,10,2024,-08,00*6A
[2024/10/02, 12:25:16.006]$GPRMC,042505,A,0114.4497,N,103[2024/10/02, 12:25:16.225]38.4869,E,4.47,184.59,021024,0.16,E,D*2C
$GPRMB,A,,,,,,,,,,,,V,D*[2024/10/02, 12:25:16.365]19
$GPGGA,042505,0114.4497,N,10338.4869,E,2,16,0.73,-8.96,M,9.56,M[2024/10/02, 12:25:16.506],,*64
$GPGSA,A,3,10,12,18,23,25,28,29,32,,,,,1.23,0.73,1.00*0A
$G[2024/10/02, 12:25:16.646]PGSV,5,1,17,10,14,339,18,12,22,096,29,18,78,179,29,23,35,015,16*7E[2024/10/02, 12:25:16.787]
$GPGSV,5,2,17,25,38,138,29,28,41,223,21,29,19,169,21,32,26,303,14*[2024/10/02, 12:25:16.927]74
$GPGSV,5,3,17,41,65,266,26,,30,113,28,,50,141,27,,77,336,19*79[2024/10/02, 12:25:17.068]
$GPGSV,5,4,17,,08,154,16,,70,002,17,,52,182,30,,24,294,18*7D
$GPG[2024/10/02, 12:25:17.209]SV,5,5,17,,50,244,28*42
$GPGLL,0114.4497,N,10338.4869,E,042505,A,D[2024/10/02, 12:25:17.349]*44
$GPBOD,,T,,M,,*47
$GPBWC,042505,,,,,,T,,M,,N,,D*78
$GPVTG,18[2024/10/02, 12:25:17.490]4.59,T,184.43,M,4.47,N,8.28,K,D*28
$PGRME,16.95,M,18.26,M,24.91,M[2024/10/02, 12:25:17.630]*26
$PGRMZ,-29,f,3*0D
$PGRMM,WGS 84*06
$HCHDM,,M*07
$WIMWV,,R,[2024/10/02, 12:25:17.771],,A*6D
$GPAPB,V,V,,,N,V,V,,,,,,,,N*68
$GPZDA,042505,02,10,2024,-0[2024/10/02, 12:25:17.880]8,00*6C
[2024/10/02, 12:25:17.958]$GPRMC,042507,A,0114.4472,N,103[2024/10/02, 12:25:18.224]38.4866,E,4.52,184.67,021024,0.16,E,D*23
$GPRMB,A,,,,,,,,,,,,V,D*1[2024/10/02, 12:25:18.365]9
$GPGGA,042507,0114.4472,N,10338.4866,E,2,16,0.73,-8.68,M,9.56,M,[2024/10/02, 12:25:18.505],*63
$GPGSA,A,3,10,12,18,23,25,28,29,32,,,,,1.23,0.73,1.00*0A
$G[2024/10/02, 12:25:18.646]PGSV,5,1,17,10,15,339,18,12,22,096,30,18,78,179,28,23,35,015,16*76[2024/10/02, 12:25:18.786]
$GPGSV,5,2,17,25,38,138,29,28,41,223,21,29,19,169,23,32,26,303,14*[2024/10/02, 12:25:18.927]76
$GPGSV,5,3,17,41,65,266,26,,30,113,26,,50,141,27,,77,336,20*7D[2024/10/02, 12:25:19.068]
$GPGSV,5,4,17,,08,154,15,,70,002,17,,52,182,30,,24,294,21*74
$GPGS[2024/10/02, 12:25:19.208]V,5,5,17,,50,244,28*42
$GPGLL,0114.4472,N,10338.4866,E,042507,A,D[2024/10/02, 12:25:19.349]*42
$GPBOD,,T,,M,,*47
$GPBWC,042507,,,,,,T,,M,,N,,D*7A
$GPVTG,18[2024/10/02, 12:25:19.489]4.67,T,184.51,M,4.52,N,8.36,K,D*2D
$PGRME,16.96,M,17.91,M,24.67,M[2024/10/02, 12:25:19.630]*2F
$PGRMZ,-28,f,3*0C
$PGRMM,WGS 84*06
$HCHDM,,M*07
$WIMWV,,R,,[2024/10/02, 12:25:19.771],A*6D
$GPAPB,V,V,,,N,V,V,,,,,,,,N*68
$GPZDA,042507,02,10,2024,-0[2024/10/02, 12:25:19.880]8,00*6E
[2024/10/02, 12:25:19.958]$GPRMC,042509,A,0114.4447,N,10[2024/10/02, 12:25:20.224]338.4864,E,4.51,185.09,021024,0.16,E,D*23
$GPRMB,A,,,,,,,,,,,,V,D*[2024/10/02, 12:25:20.364]19
$GPGGA,042509,0114.4447,N,10338.4864,E,2,16,0.73,-8.67,M,9.56,M[2024/10/02, 12:25:20.505],,*66
$GPGSA,A,3,10,12,18,23,25,28,29,32,,,,,1.23,0.73,1.00*0A
$G[2024/10/02, 12:25:20.645]PGSV,5,1,17,10,15,339,18,12,22,096,30,18,78,179,28,23,35,015,16*76[2024/10/02, 12:25:20.786]
$GPGSV,5,2,17,25,38,138,30,28,41,223,21,29,19,169,22,32,26,303,14*[2024/10/02, 12:25:20.927]7F
$GPGSV,5,3,17,41,65,266,26,,30,113,27,,50,141,27,,77,336,20*7C[2024/10/02, 12:25:21.067]
$GPGSV,5,4,17,,08,154,17,,70,002,20,,52,182,30,,24,294,19*79
$GPG[2024/10/02, 12:25:21.208]SV,5,5,17,,50,244,28*42
$GPGLL,0114.4447,N,10338.4864,E,042509,A,D[2024/10/02, 12:25:21.348]*48
$GPBOD,,T,,M,,*47
$GPBWC,042509,,,,,,T,,M,,N,,D*74
$GPVTG,18[2024/10/02, 12:25:21.489]5.09,T,184.93,M,4.51,N,8.36,K,D*29
$PGRME,16.97,M,18.14,M,24.84,M[2024/10/02, 12:25:21.629]*21
$PGRMZ,-28,f,3*0C
$PGRMM,WGS 84*06
$HCHDM,,M*07
$WIMWV,,R,,[2024/10/02, 12:25:21.770],A*6D
$GPAPB,V,V,,,N,V,V,,,,,,,,N*68
$GPZDA,042509,02,10,2024,-0[2024/10/02, 12:25:21.879]8,00*60
[2024/10/02, 12:25:21.958]$GPRMC,042511,A,0114.4421,N,10[2024/10/02, 12:25:22.223]338.4857,E,4.61,187.05,021024,0.16,E,D*27
$GPRMB,A,,,,,,,,,,,,V,D*[2024/10/02, 12:25:22.364]19
$GPGGA,042511,0114.4421,N,10338.4857,E,2,16,0.73,-8.68,M,9.56,M[2024/10/02, 12:25:22.504],,*60
$GPGSA,A,3,10,12,18,23,25,28,29,32,,,,,1.23,0.73,1.00*0A
$G[2024/10/02, 12:25:22.645]PGSV,5,1,17,10,15,339,18,12,22,096,30,18,78,179,28,23,35,015,13*73[2024/10/02, 12:25:22.786]
$GPGSV,5,2,17,25,38,138,29,28,41,223,21,29,19,169,23,32,26,303,13*[2024/10/02, 12:25:22.926]71
$GPGSV,5,3,17,41,65,266,26,,30,113,27,,50,141,25,,77,336,19*74[2024/10/02, 12:25:23.067]
$GPGSV,5,4,17,,08,154,15,,70,002,18,,52,182,30,,24,294,20*7A
$GPG[2024/10/02, 12:25:23.207]SV,5,5,17,,50,244,28*42
$GPGLL,0114.4421,N,10338.4857,E,042511,A,D[2024/10/02, 12:25:23.348]*41
$GPBOD,,T,,M,,*47
$GPBWC,042511,,,,,,T,,M,,N,,D*7D
$GPVTG,1[2024/10/02, 12:25:23.488]87.05,T,186.90,M,4.61,N,8.54,K,D*21
$PGRME,16.99,M,18.55,M,25.16,M[2024/10/02, 12:25:23.629]*20
$PGRMZ,-28,f,3*0C
$PGRMM,WGS 84*06
$HCHDM,,M*07
$WIMWV,,R,[2024/10/02, 12:25:23.770],,A*6D
$GPAPB,V,V,,,N,V,V,,,,,,,,N*68
$GPZDA,042511,02,10,2024,-0[2024/10/02, 12:25:23.879]8,00*69
[2024/10/02, 12:25:24.019]$GPRMC,042513,A,0114.4396,N,10338.4856,E,4.62,187.26,021024,[2024/10/02, 12:25:24.285]0.16,E,D*2D
$GPRMB,A,,,,,,,,,,,,V,D*19
$GPGGA,042513,0114.4396,N,[2024/10/02, 12:25:24.426]10338.4856,E,2,16,0.73,-8.51,M,9.56,M,,*62
$GPGSA,A,3,10,12,18,23,[2024/10/02, 12:25:24.566]25,28,29,32,,,,,1.23,0.73,1.00*0A
$GPGSV,5,1,17,10,15,339,19,12,2[2024/10/02, 12:25:24.707]2,096,30,18,78,179,28,23,35,015,15*74
$GPGSV,5,2,17,25,38,138,29,28[2024/10/02, 12:25:24.847],41,223,20,29,19,169,22,32,26,303,14*76
$GPGSV,5,3,17,41,65,266,26[2024/10/02, 12:25:24.988],,30,113,26,,50,141,27,,77,336,19*77
$GPGSV,5,4,17,,08,154,15,,70,[2024/10/02, 12:25:25.129]002,17,,52,182,30,,24,294,18*7E
$GPGSV,5,5,17,,50,244,28*42
$GPG[2024/10/02, 12:25:25.269]LL,0114.4396,N,10338.4856,E,042513,A,D*49
$GPBOD,,T,,M,,*47
$GPBW[2024/10/02, 12:25:25.410]C,042513,,,,,,T,,M,,N,,D*7F
$GPVTG,187.26,T,187.10,M,4.62,N,8.55,K[2024/10/02, 12:25:25.550],D*2B
$PGRME,17.01,M,18.17,M,24.89,M*21
$PGRMZ,-28,f,3*0C
$PGRM[2024/10/02, 12:25:25.691]M,WGS 84*06
$HCHDM,,M*07
$WIMWV,,R,,,A*6D
$GPAPB,V,V,,,N,V,V,,,,[2024/10/02, 12:25:25.816],,,,N*68
$GPZDA,042513,02,10,2024,-08,00*6B
[2024/10/02, 12:25:26.019]$GPRMC,042515,A,0114.4371,N,10338.4853,E,4.63,186.71,021024,[2024/10/02, 12:25:26.285]0.16,E,D*25
$GPRMB,A,,,,,,,,,,,,V,D*19
$GPGGA,042515,0114.4371,N[2024/10/02, 12:25:26.425],10338.4853,E,2,16,0.73,-8.83,M,9.56,M,,*67
$GPGSA,A,3,10,12,18,23[2024/10/02, 12:25:26.566],25,28,29,32,,,,,1.23,0.73,1.00*0A
$GPGSV,5,1,17,10,15,339,19,12,[2024/10/02, 12:25:26.706]22,096,29,18,77,179,29,23,35,015,17*70
$GPGSV,5,2,17,25,38,138,29,[2024/10/02, 12:25:26.847]28,41,223,20,29,19,169,25,32,26,303,13*76
$GPGSV,5,3,17,41,65,266,[2024/10/02, 12:25:26.988]26,,30,113,26,,50,141,27,,77,336,19*77
$GPGSV,5,4,17,,08,154,17,,70[2024/10/02, 12:25:27.128],002,18,,52,182,30,,24,294,18*73
$GPGSV,5,5,17,,50,244,28*42
$GP[2024/10/02, 12:25:27.269]GLL,0114.4371,N,10338.4853,E,042515,A,D*43
$GPBOD,,T,,M,,*47
$GPB[2024/10/02, 12:25:27.409]WC,042515,,,,,,T,,M,,N,,D*79
$GPVTG,186.71,T,186.55,M,4.63,N,8.58,[2024/10/02, 12:25:27.550]K,D*24
$PGRME,17.02,M,18.23,M,24.94,M*29
$PGRMZ,-29,f,3*0D
$PGR[2024/10/02, 12:25:27.691]MM,WGS 84*06
$HCHDM,,M*07
$WIMWV,,R,,,A*6D
$GPAPB,V,V,,,N,V,V,,,[2024/10/02, 12:25:27.815],,,,,N*68
$GPZDA,042515,02,10,2024,-08,00*6D
[2024/10/02, 12:25:28.019]$GPRMC,042517,A,0114.4348,N,10338.4852,E,4.61,185.52,021024,[2024/10/02, 12:25:28.284]0.16,E,D*2C
$GPRMB,A,,,,,,,,,,,,V,D*19
$GPGGA,042517,0114.4348,N[2024/10/02, 12:25:28.425],10338.4852,E,2,16,0.73,-9.07,M,9.56,M,,*63
$GPGSA,A,3,10,12,18,23[2024/10/02, 12:25:28.565],25,28,29,32,,,,,1.23,0.73,1.00*0A
$GPGSV,5,1,17,10,15,339,20,12,2[2024/10/02, 12:25:28.706]2,096,29,18,77,179,28,23,35,015,15*79
$GPGSV,5,2,17,25,38,138,29,2[2024/10/02, 12:25:28.847]8,41,223,18,29,19,169,24,32,26,303,13*7C
$GPGSV,5,3,17,41,65,266,2[2024/10/02, 12:25:28.987]6,,30,113,27,,50,141,28,,77,336,19*79
$GPGSV,5,4,17,,08,154,17,,70[2024/10/02, 12:25:29.128],002,19,,52,182,30,,24,294,16*7C
$GPGSV,5,5,17,,50,244,27*4D
$GPG[2024/10/02, 12:25:29.268]LL,0114.4348,N,10338.4852,E,042517,A,D*4A
$GPBOD,,T,,M,,*47
$GPBW[2024/10/02, 12:25:29.409]C,042517,,,,,,T,,M,,N,,D*7B
$GPVTG,185.52,T,185.37,M,4.61,N,8.54,K[2024/10/02, 12:25:29.549],D*2F
$PGRME,17.04,M,18.53,M,25.17,M*22
$PGRMZ,-30,f,3*05
$PGRM[2024/10/02, 12:25:29.690]M,WGS 84*06
$HCHDM,,M*07
$WIMWV,,R,,,A*6D
$GPAPB,V,V,,,N,V,V,,,[2024/10/02, 12:25:29.815],,,,,N*68
$GPZDA,042517,02,10,2024,-08,00*6F
[2024/10/02, 12:25:30.018]$GPRMC,042519,A,0114.4320,N,10338.4854,E,4.55,182.40,021024[2024/10/02, 12:25:30.284],0.16,E,D*29
$GPRMB,A,,,,,,,,,,,,V,D*19
$GPGGA,042519,0114.4320,N[2024/10/02, 12:25:30.424],10338.4854,E,2,16,0.73,-9.17,M,9.56,M,,*64
$GPGSA,A,3,10,12,18,23[2024/10/02, 12:25:30.565],25,28,29,32,,,,,1.23,0.73,1.00*0A
$GPGSV,5,1,17,10,15,339,18,12,2[2024/10/02, 12:25:30.705]2,096,29,18,77,179,29,23,36,015,15*70
$GPGSV,5,2,17,25,38,138,29,2[2024/10/02, 12:25:30.846]8,41,223,19,29,19,169,22,32,26,303,13*7B
$GPGSV,5,3,17,41,65,266,2[2024/10/02, 12:25:30.987]6,,30,113,25,,50,141,28,,77,336,21*70
$GPGSV,5,4,17,,08,154,18,,70[2024/10/02, 12:25:31.127],002,21,,52,182,30,,24,294,16*78
$GPGSV,5,5,17,,50,244,27*4D
$GPG[2024/10/02, 12:25:31.268]LL,0114.4320,N,10338.4854,E,042519,A,D*4C
$GPBOD,,T,,M,,*47
$GPB[2024/10/02, 12:25:31.408]WC,042519,,,,,,T,,M,,N,,D*75
$GPVTG,182.40,T,182.24,M,4.55,N,8.43,[2024/10/02, 12:25:31.549]K,D*2F
$PGRME,17.05,M,18.94,M,25.48,M*22
$PGRMZ,-30,f,3*05
$PGR[2024/10/02, 12:25:31.690]MM,WGS 84*06
$HCHDM,,M*07
$WIMWV,,R,,,A*6D
$GPAPB,V,V,,,N,V,V,,,[2024/10/02, 12:25:31.815],,,,,N*68
$GPZDA,042519,02,10,2024,-08,00*61
[2024/10/02, 12:25:32.018]$GPRMC,042521,A,0114.4295,N,10338.4852,E,4.57,181.81,021024[2024/10/02, 12:25:32.283],0.16,E,D*27
$GPRMB,A,,,,,,,,,,,,V,D*19
$GPGGA,042521,0114.4295,N[2024/10/02, 12:25:32.424],10338.4852,E,2,16,0.73,-8.90,M,9.56,M,,*68
$GPGSA,A,3,10,12,18,23[2024/10/02, 12:25:32.564],25,28,29,32,,,,,1.23,0.73,1.00*0A
$GPGSV,5,1,17,10,15,339,21,12,2[2024/10/02, 12:25:32.705]2,096,29,18,77,179,29,23,36,015,15*7A
$GPGSV,5,2,17,25,38,137,30,2[2024/10/02, 12:25:32.846]8,41,223,20,29,19,169,23,32,26,303,14*70
$GPGSV,5,3,17,41,65,266,2[2024/10/02, 12:25:32.986]6,,30,113,27,,50,141,28,,77,336,19*79
$GPGSV,5,4,17,,08,154,18,,70[2024/10/02, 12:25:33.127],002,20,,52,182,29,,24,294,17*70
$GPGSV,5,5,17,,50,244,27*4D
$GPG[2024/10/02, 12:25:33.267]LL,0114.4295,N,10338.4852,E,042521,A,D*4E
$GPBOD,,T,,M,,*47
$GPB[2024/10/02, 12:25:33.408]WC,042521,,,,,,T,,M,,N,,D*7E
$GPVTG,181.81,T,181.65,M,4.57,N,8.46,[2024/10/02, 12:25:33.548]K,D*20
$PGRME,17.06,M,18.44,M,25.12,M*23
$PGRMZ,-29,f,3*0D
$PGR[2024/10/02, 12:25:33.689]MM,WGS 84*06
$HCHDM,,M*07
$WIMWV,,R,,,A*6D
$GPAPB,V,V,,,N,V,V,,,[2024/10/02, 12:25:33.814],,,,,N*68
$GPZDA,042521,02,10,2024,-08,00*6A
[2024/10/02, 12:25:34.017]$GPRMC,042523,A,0114.4271,N,10338.4849,E,4.50,181.68,021024[2024/10/02, 12:25:34.283],0.16,E,D*25
$GPRMB,A,,,,,,,,,,,,V,D*19
$GPGGA,042523,0114.4271,N[2024/10/02, 12:25:34.423],10338.4849,E,2,16,0.73,-8.05,M,9.56,M,,*66
$GPGSA,A,3,10,12,18,2[2024/10/02, 12:25:34.564]3,25,28,29,32,,,,,1.23,0.73,1.00*0A
$GPGSV,5,1,17,10,15,339,16,12,[2024/10/02, 12:25:34.704]22,096,30,18,77,179,29,23,36,015,15*76
$GPGSV,5,2,17,25,38,137,30,[2024/10/02, 12:25:34.845]28,41,223,20,29,19,169,24,32,26,303,14*77
$GPGSV,5,3,17,41,65,266,2[2024/10/02, 12:25:34.986]6,,30,113,27,,50,141,28,,77,336,20*73
$GPGSV,5,4,17,,08,154,16,,70[2024/10/02, 12:25:35.126],002,18,,52,182,29,,24,294,17*75
$GPGSV,5,5,17,,50,244,27*4D
$GP[2024/10/02, 12:25:35.267]GLL,0114.4271,N,10338.4849,E,042523,A,D*4C
$GPBOD,,T,,M,,*47
$GPB[2024/10/02, 12:25:35.407]WC,042523,,,,,,T,,M,,N,,D*7C
$GPVTG,181.68,T,181.52,M,4.50,N,8.33,[2024/10/02, 12:25:35.548]K,D*26
$PGRME,17.07,M,18.49,M,25.17,M*2A
$PGRMZ,-26,f,3*02
$PGR[2024/10/02, 12:25:35.689]MM,WGS 84*06
$HCHDM,,M*07
$WIMWV,,R,,,A*6D
$GPAPB,V,V,,,N,V,V,,,[2024/10/02, 12:25:35.814],,,,,N*68
$GPZDA,042523,02,10,2024,-08,00*68
[2024/10/02, 12:25:36.017]$GPRMC,042525,A,0114.4245,N,10338.4849,E,4.50,181.21,021024[2024/10/02, 12:25:36.282],0.16,E,D*29
$GPRMB,A,,,,,,,,,,,,V,D*19
$GPGGA,042525,0114.4245,[2024/10/02, 12:25:36.423]N,10338.4849,E,2,16,0.73,-7.99,M,9.56,M,,*6D
$GPGSA,A,3,10,12,18,2[2024/10/02, 12:25:36.563]3,25,28,29,32,,,,,1.23,0.73,1.00*0A
$GPGSV,5,1,17,10,15,339,16,12,[2024/10/02, 12:25:36.704]22,096,30,18,77,179,29,23,36,015,15*76
$GPGSV,5,2,17,25,38,137,30,[2024/10/02, 12:25:36.845]28,42,223,21,29,19,169,24,32,26,303,14*75
$GPGSV,5,3,17,41,65,266,[2024/10/02, 12:25:36.986]26,,30,113,28,,50,141,28,,77,336,19*76
$GPGSV,5,4,17,,08,154,15,,70[2024/10/02, 12:25:37.127],002,18,,52,182,29,,24,294,19*78
$GPGSV,5,5,17,,50,244,28*42
$GPG[2024/10/02, 12:25:37.268]LL,0114.4245,N,10338.4849,E,042525,A,D*4D
$GPBOD,,T,,M,,*47
$GPB[2024/10/02, 12:25:37.408]WC,042525,,,,,,T,,M,,N,,D*7A
$GPVTG,181.21,T,181.05,M,4.50,N,8.34,[2024/10/02, 12:25:37.549]K,D*2E
$PGRME,17.07,M,18.12,M,24.89,M*22
$PGRMZ,-26,f,3*02
$PGRM[2024/10/02, 12:25:37.689]M,WGS 84*06
$HCHDM,,M*07
$WIMWV,,R,,,A*6D
$GPAPB,V,V,,,N,V,V,,,[2024/10/02, 12:25:37.814],,,,,N*68
$GPZDA,042525,02,10,2024,-08,00*6E
[2024/10/02, 12:25:38.017]$GPRMC,042527,A,0114.4221,N,10338.4847,E,4.50,181.24,021024[2024/10/02, 12:25:38.297],0.16,E,D*22
$GPRMB,A,,,,,,,,,,,,V,D*19
$GPGGA,042527,0114.4221,N,10338[2024/10/02, 12:25:38.438].4847,E,2,16,0.73,-7.99,M,9.56,M,,*63
$GPGSA,A,3,10,12,18,23,25,28[2024/10/02, 12:25:38.578],29,32,,,,,1.23,0.73,1.00*0A
$GPGSV,5,1,17,10,15,339,18,12,22,096,[2024/10/02, 12:25:38.719]30,18,77,179,29,23,36,015,16*7B
$GPGSV,5,2,17,25,38,137,30,28,42,2[2024/10/02, 12:25:38.860]23,22,29,19,169,21,32,26,303,14*73
$GPGSV,5,3,17,41,65,266,27,,30,[2024/10/02, 12:25:39.000]113,27,,50,141,27,,77,336,19*77
$GPGSV,5,4,17,,08,154,15,,70,002,1[2024/10/02, 12:25:39.141]8,,52,182,30,,24,294,19*70
$GPGSV,5,5,17,,50,244,28*42
$GPGLL,011[2024/10/02, 12:25:39.281]4.4221,N,10338.4847,E,042527,A,D*43
$GPBOD,,T,,M,,*47
$GPBWC,0425[2024/10/02, 12:25:39.422]27,,,,,,T,,M,,N,,D*78
$GPVTG,181.24,T,181.08,M,4.50,N,8.33,K,D*21[2024/10/02, 12:25:39.563]
$PGRME,17.08,M,17.83,M,24.69,M*24
$PGRMZ,-26,f,3*02
$PGRMM,WGS [2024/10/02, 12:25:39.703]84*06
$HCHDM,,M*07
$WIMWV,,R,,,A*6D
$GPAPB,V,V,,,N,V,V,,,,,,,,N[2024/10/02, 12:25:39.813]*68
$GPZDA,042527,02,10,2024,-08,00*6C
[2024/10/02, 12:25:40.016]$GPRMC,042529,A,0114.4197,N,10338.4847,E,4.59,181.41,02102[2024/10/02, 12:25:40.281]4,0.16,E,D*28
$GPRMB,A,,,,,,,,,,,,V,D*19
$GPGGA,042529,0114.4197,[2024/10/02, 12:25:40.424]N,10338.4847,E,2,16,0.73,-7.98,M,9.56,M,,*62
$GPGSA,A,3,10,12,18,23[2024/10/02, 12:25:40.565],25,28,29,32,,,,,1.23,0.73,1.00*0A
$GPGSV,5,1,17,10,15,339,17,12,2[2024/10/02, 12:25:40.705]2,096,30,18,77,179,29,23,36,015,14*76
$GPGSV,5,2,17,25,38,137,29,2[2024/10/02, 12:25:40.846]8,42,223,21,29,19,169,23,32,26,304,14*7D
$GPGSV,5,3,17,41,65,266,2[2024/10/02, 12:25:40.987]7,,30,113,28,,50,141,26,,77,336,19*79
$GPGSV,5,4,17,,08,154,16,,70[2024/10/02, 12:25:41.127],002,18,,52,182,30,,24,294,16*7C
$GPGSV,5,5,17,,50,244,28*42
$GPG[2024/10/02, 12:25:41.268]LL,0114.4197,N,10338.4847,E,042529,A,D*43
$GPBOD,,T,,M,,*47
$GPBW[2024/10/02, 12:25:41.408]C,042529,,,,,,T,,M,,N,,D*76
$GPVTG,181.41,T,181.25,M,4.59,N,8.49,[2024/10/02, 12:25:41.540]K,D*29
$PGRME,17.09,M,17.94,M,24.78,M*23
$PGRMZ,-26,f,3*02
[2024/10/02, 12:25:41.680]$PGRMM,WGS 84*06
$HCHDM,,M*07
$WIMWV,,R,,,A*6D
$GPAPB,V,V,,,N,V,[2024/10/02, 12:25:41.806]V,,,,,,,,N*68
$GPZDA,042529,02,10,2024,-08,00*62
[2024/10/02, 12:25:42.008]$GPRMC,042531,A,0114.4173,N,10338.4847,E,4.56,181.20,02[2024/10/02, 12:25:42.274]1024,0.16,E,D*23
$GPRMB,A,,,,,,,,,,,,V,D*19
$GPGGA,042531,0114.4[2024/10/02, 12:25:42.415]173,N,10338.4847,E,2,16,0.73,-7.77,M,9.56,M,,*60
$GPGSA,A,3,10,12,[2024/10/02, 12:25:42.555]18,23,25,28,29,32,,,,,1.23,0.73,1.00*0A
$GPGSV,5,1,17,10,15,339,17[2024/10/02, 12:25:42.696],12,22,096,29,18,77,179,28,23,36,015,14*7F
$GPGSV,5,2,17,25,38,137[2024/10/02, 12:25:42.836],29,28,42,223,19,29,19,169,25,32,26,304,14*70
$GPGSV,5,3,17,41,65,[2024/10/02, 12:25:42.977]266,27,,30,113,28,,50,141,27,,77,336,20*72
$GPGSV,5,4,17,,08,154,1[2024/10/02, 12:25:43.118]6,,70,002,20,,52,182,30,,24,294,15*74
$GPGSV,5,5,17,,50,244,28*42
[2024/10/02, 12:25:43.258]$GPGLL,0114.4173,N,10338.4847,E,042531,A,D*40
$GPBOD,,T,,M,,*47
[2024/10/02, 12:25:43.399]$GPBWC,042531,,,,,,T,,M,,N,,D*7F
$GPVTG,181.20,T,181.04,M,4.56,N,8[2024/10/02, 12:25:43.539].44,K,D*2F
$PGRME,17.11,M,18.35,M,25.09,M*29
$PGRMZ,-25,f,3*01
[2024/10/02, 12:25:43.680]$PGRMM,WGS 84*06
$HCHDM,,M*07
$WIMWV,,R,,,A*6D
$GPAPB,V,V,,,N,V,[2024/10/02, 12:25:43.805]V,,,,,,,,N*68
$GPZDA,042531,02,10,2024,-08,00*6B
[2024/10/02, 12:25:44.008]$GPRMC,042533,A,0114.4149,N,10338.4847,E,4.52,181.19,02[2024/10/02, 12:25:44.274]1024,0.16,E,D*26
$GPRMB,A,,,,,,,,,,,,V,D*19
$GPGGA,042533,0114.4[2024/10/02, 12:25:44.414]149,N,10338.4847,E,2,16,0.73,-8.06,M,9.56,M,,*62
$GPGSA,A,3,10,12,[2024/10/02, 12:25:44.555]18,23,25,28,29,32,,,,,1.23,0.73,1.00*0A
$GPGSV,5,1,17,10,15,339,16[2024/10/02, 12:25:44.695],12,22,096,29,18,77,179,28,23,36,015,15*7F
$GPGSV,5,2,17,25,38,137[2024/10/02, 12:25:44.836],29,28,42,223,19,29,19,169,25,32,26,304,14*70
$GPGSV,5,3,17,41,65,[2024/10/02, 12:25:44.977]266,26,,30,113,26,,50,141,27,,77,336,23*7E
$GPGSV,5,4,17,,08,154,1[2024/10/02, 12:25:45.117]5,,70,002,19,,52,182,30,,24,294,17*7F
$GPGSV,5,5,17,,50,244,27*4D[2024/10/02, 12:25:45.258]
$GPGLL,0114.4149,N,10338.4847,E,042533,A,D*4B
$GPBOD,,T,,M,,*47
[2024/10/02, 12:25:45.398]$GPBWC,042533,,,,,,T,,M,,N,,D*7D
$GPVTG,181.19,T,181.03,M,4.52,N,8[2024/10/02, 12:25:45.539].38,K,D*2D
$PGRME,17.13,M,18.14,M,24.95,M*2C
$PGRMZ,-26,f,3*02
[2024/10/02, 12:25:45.679]$PGRMM,WGS 84*06
$HCHDM,,M*07
$WIMWV,,R,,,A*6D
$GPAPB,V,V,,,N,V[2024/10/02, 12:25:45.805],V,,,,,,,,N*68
$GPZDA,042533,02,10,2024,-08,00*69
[2024/10/02, 12:25:46.007]$GPRMC,042535,A,0114.4119,N,10338.4850,E,4.61,180.74,0[2024/10/02, 12:25:46.273]21024,0.16,E,D*29
$GPRMB,A,,,,,,,,,,,,V,D*19
$GPGGA,042535,0114.4[2024/10/02, 12:25:46.414]119,N,10338.4850,E,2,16,0.73,-7.86,M,9.56,M,,*60
$GPGSA,A,3,10,12,[2024/10/02, 12:25:46.554]18,23,25,28,29,32,,,,,1.23,0.73,1.00*0A
$GPGSV,5,1,17,10,15,339,19[2024/10/02, 12:25:46.695],12,22,096,29,18,77,179,29,23,36,015,14*70
$GPGSV,5,2,17,25,38,137[2024/10/02, 12:25:46.836],29,28,42,223,21,29,19,169,22,32,26,304,14*7C
$GPGSV,5,3,17,41,65,[2024/10/02, 12:25:46.976]266,26,,30,113,27,,50,141,26,,77,336,20*7D
$GPGSV,5,4,17,,08,154,1[2024/10/02, 12:25:47.117]5,,70,002,21,,52,182,30,,24,294,17*74
$GPGSV,5,5,17,,50,244,27*4D[2024/10/02, 12:25:47.257]
$GPGLL,0114.4119,N,10338.4850,E,042535,A,D*4E
$GPBOD,,T,,M,,*47
[2024/10/02, 12:25:47.398]$GPBWC,042535,,,,,,T,,M,,N,,D*7B
$GPVTG,180.74,T,180.58,M,4.61,N,[2024/10/02, 12:25:47.538]8.54,K,D*22
$PGRME,17.15,M,18.25,M,25.04,M*21
$PGRMZ,-26,f,3*02
[2024/10/02, 12:25:47.679]$PGRMM,WGS 84*06
$HCHDM,,M*07
$WIMWV,,R,,,A*6D
$GPAPB,V,V,,,N,V[2024/10/02, 12:25:47.804],V,,,,,,,,N*68
$GPZDA,042535,02,10,2024,-08,00*6F
[2024/10/02, 12:25:48.007]$GPRMC,042537,A,0114.4090,N,10338.4850,E,4.74,180.34,0[2024/10/02, 12:25:48.273]21024,0.16,E,D*2B
$GPRMB,A,,,,,,,,,,,,V,D*19
$GPGGA,042537,0114.4[2024/10/02, 12:25:48.413]090,N,10338.4850,E,2,16,0.73,-8.08,M,9.56,M,,*6B
$GPGSA,A,3,10,12,[2024/10/02, 12:25:48.554]18,23,25,28,29,32,,,,,1.23,0.73,1.00*0A
$GPGSV,5,1,17,10,15,339,16[2024/10/02, 12:25:48.694],12,22,096,29,18,77,179,29,23,36,015,14*7F
$GPGSV,5,2,17,25,38,137[2024/10/02, 12:25:48.835],29,28,42,223,21,29,19,169,24,32,26,304,14*7A
$GPGSV,5,3,17,41,65,[2024/10/02, 12:25:48.976]266,26,,30,113,27,,50,141,27,,77,336,19*76
$GPGSV,5,4,17,,08,154,1[2024/10/02, 12:25:49.116]5,,70,002,20,,52,182,30,,24,294,17*75
$GPGSV,5,5,17,,50,244,28*42[2024/10/02, 12:25:49.257]
$GPGLL,0114.4090,N,10338.4850,E,042537,A,D*4C
$GPBOD,,T,,M,,*47
[2024/10/02, 12:25:49.397]$GPBWC,042537,,,,,,T,,M,,N,,D*79
$GPVTG,180.34,T,180.18,M,4.74,N,[2024/10/02, 12:25:49.538]8.77,K,D*27
$PGRME,17.17,M,18.04,M,24.90,M*2C
$PGRMZ,-27,f,3*03
[2024/10/02, 12:25:49.679]$PGRMM,WGS 84*06
$HCHDM,,M*07
$WIMWV,,R,,,A*6D
$GPAPB,V,V,,,N,V[2024/10/02, 12:25:49.804],V,,,,,,,,N*68
$GPZDA,042537,02,10,2024,-08,00*6D
[2024/10/02, 12:25:50.007]$GPRMC,042539,A,0114.4063,N,10338.4851,E,4.95,180.88,0[2024/10/02, 12:25:50.272]21024,0.16,E,D*20
$GPRMB,A,,,,,,,,,,,,V,D*19
$GPGGA,042539,0114.4[2024/10/02, 12:25:50.413]063,N,10338.4851,E,2,16,0.73,-8.29,M,9.56,M,,*6B
$GPGSA,A,3,10,12,[2024/10/02, 12:25:50.553]18,23,25,28,29,32,,,,,1.23,0.73,1.00*0A
$GPGSV,5,1,17,10,15,339,1[2024/10/02, 12:25:50.694]6,12,22,096,29,18,77,179,29,23,36,015,15*7E
$GPGSV,5,2,17,25,38,137[2024/10/02, 12:25:50.834],30,28,42,223,21,29,19,169,24,32,26,304,14*72
$GPGSV,5,3,17,41,65,[2024/10/02, 12:25:50.975]266,27,,30,113,28,,50,141,27,,77,336,19*78
$GPGSV,5,4,17,,08,154,1[2024/10/02, 12:25:51.116]5,,70,002,20,,52,182,30,,24,294,20*71
$GPGSV,5,5,17,,50,244,28*42[2024/10/02, 12:25:51.256]
$GPGLL,0114.4063,N,10338.4851,E,042539,A,D*4F
$GPBOD,,T,,M,,*47[2024/10/02, 12:25:51.397]
$GPBWC,042539,,,,,,T,,M,,N,,D*77
$GPVTG,180.88,T,180.72,M,4.95,N,[2024/10/02, 12:25:51.538]9.17,K,D*24
$PGRME,17.18,M,18.20,M,25.03,M*2E
$PGRMZ,-27,f,3*03[2024/10/02, 12:25:51.678]
$PGRMM,WGS 84*06
$HCHDM,,M*07
$WIMWV,,R,,,A*6D
$GPAPB,V,V,,,N,V[2024/10/02, 12:25:51.803],V,,,,,,,,N*68
$GPZDA,042539,02,10,2024,-08,00*63
[2024/10/02, 12:25:52.006]$GPRMC,042541,A,0114.4038,N,10338.4849,E,5.06,181.19,0[2024/10/02, 12:25:52.272]21024,0.16,E,D*2A
$GPRMB,A,,,,,,,,,,,,V,D*19
$GPGGA,042541,0114.[2024/10/02, 12:25:52.412]4038,N,10338.4849,E,2,16,0.73,-8.32,M,9.56,M,,*69
$GPGSA,A,3,10,12[2024/10/02, 12:25:52.553],18,23,25,28,29,32,,,,,1.23,0.73,1.00*0A
$GPGSV,5,1,17,10,15,339,1[2024/10/02, 12:25:52.694]8,12,22,096,30,18,77,179,29,23,36,015,15*78
$GPGSV,5,2,17,25,38,13[2024/10/02, 12:25:52.834]7,29,28,42,223,21,29,19,169,24,32,26,304,14*7A
$GPGSV,5,3,17,41,65[2024/10/02, 12:25:52.975],266,27,,30,113,28,,50,141,28,,77,336,19*77
$GPGSV,5,4,17,,08,154,[2024/10/02, 12:25:53.115]15,,70,002,22,,52,182,30,,24,294,16*76
$GPGSV,5,5,17,,50,244,28*42[2024/10/02, 12:25:53.256]
$GPGLL,0114.4038,N,10338.4849,E,042541,A,D*47
$GPBOD,,T,,M,,*47[2024/10/02, 12:25:53.396]
$GPBWC,042541,,,,,,T,,M,,N,,D*78
$GPVTG,181.19,T,181.03,M,5.06,N,[2024/10/02, 12:25:53.537]9.37,K,D*23
$PGRME,17.20,M,17.77,M,24.73,M*2E
$PGRMZ,-27,f,3*03[2024/10/02, 12:25:53.678]
$PGRMM,WGS 84*06
$HCHDM,,M*07
$WIMWV,,R,,,A*6D
$GPAPB,V,V,,,N,V[2024/10/02, 12:25:53.818],V,,,,,,,,N*68
$GPZDA,042541,02,10,2024,-08,00*6C
[2024/10/02, 12:25:54.006]$GPRMC,042543,A,0114.4012,N,103[2024/10/02, 12:25:54.224]38.4852,E,4.97,181.13,021024,0.16,E,D*29
$GPRMB,A,,,,,,,,,,,,V,D*1[2024/10/02, 12:25:54.365]9
$GPGGA,042543,0114.4012,N,10338.4852,E,2,16,0.73,-8.04,M,9.56,M,[2024/10/02, 12:25:54.505],*6C
$GPGSA,A,3,10,12,18,23,25,28,29,32,,,,,1.23,0.73,1.00*0A
$GP[2024/10/02, 12:25:54.646]GSV,5,1,17,10,15,339,19,12,22,096,30,18,77,179,29,23,36,015,14*78
[2024/10/02, 12:25:54.787]$GPGSV,5,2,17,25,38,137,29,28,42,223,21,29,19,169,24,32,26,304,15*7[2024/10/02, 12:25:54.927]B
$GPGSV,5,3,17,41,65,266,27,,30,113,26,,50,141,28,,77,336,19*79
[2024/10/02, 12:25:55.068]$GPGSV,5,4,17,,08,154,19,,70,002,20,,52,182,30,,24,294,18*76
$GPGS[2024/10/02, 12:25:55.209]V,5,5,17,,50,244,27*4D
$GPGLL,0114.4012,N,10338.4852,E,042543,A,D*[2024/10/02, 12:25:55.349]47
$GPBOD,,T,,M,,*47
$GPBWC,042543,,,,,,T,,M,,N,,D*7A
$GPVTG,18[2024/10/02, 12:25:55.490]1.13,T,180.97,M,4.97,N,9.20,K,D*2A
$PGRME,17.21,M,17.81,M,24.76,M*[2024/10/02, 12:25:55.630]23
$PGRMZ,-26,f,3*02
$PGRMM,WGS 84*06
$HCHDM,,M*07
$WIMWV,,R,,[2024/10/02, 12:25:55.771],A*6D
$GPAPB,V,V,,,N,V,V,,,,,,,,N*68
$GPZDA,042543,02,10,2024,-08[2024/10/02, 12:25:55.880],00*6E
[2024/10/02, 12:25:55.958]$GPRMC,042545,A,0114.3987,N,10338.48[2024/10/02, 12:25:56.234]55,E,4.72,181.04,021024,0.16,E,D*27
$GPRMB,A,,,,,,,,,,,,V,D*19
$[2024/10/02, 12:25:56.374]GPGGA,042545,0114.3987,N,10338.4855,E,2,16,0.73,-7.91,M,9.56,M,,*6C[2024/10/02, 12:25:56.515]
$GPGSA,A,3,10,12,18,23,25,28,29,32,,,,,1.23,0.73,1.00*0A
$GPGSV,[2024/10/02, 12:25:56.656]5,1,17,10,15,339,20,12,22,096,29,18,77,179,29,23,36,015,15*7B
$GPG[2024/10/02, 12:25:56.796]SV,5,2,17,25,38,137,29,28,42,223,22,29,19,169,24,32,26,304,15*78
$[2024/10/02, 12:25:56.937]GPGSV,5,3,17,41,65,266,27,,30,113,26,,50,141,28,,77,336,19*79
$GPG[2024/10/02, 12:25:57.077]SV,5,4,17,,08,154,20,,70,002,20,,52,182,30,,24,294,15*71
$GPGSV,5,[2024/10/02, 12:25:57.218]5,17,,50,244,26*4C
$GPGLL,0114.3987,N,10338.4855,E,042545,A,D*44
[2024/10/02, 12:25:57.359]$GPBOD,,T,,M,,*47
$GPBWC,042545,,,,,,T,,M,,N,,D*7C
$GPVTG,181.04,[2024/10/02, 12:25:57.499]T,180.88,M,4.72,N,8.74,K,D*29
$PGRME,17.21,M,18.07,M,24.95,M*2F
[2024/10/02, 12:25:57.640]$PGRMZ,-26,f,3*02
$PGRMM,WGS 84*06
$HCHDM,,M*07
$WIMWV,,R,,,A*6D[2024/10/02, 12:25:57.780]
$GPAPB,V,V,,,N,V,V,,,,,,,,N*68
$GPZDA,042545,02,10,2024,-08,00*[2024/10/02, 12:25:57.874]68
[2024/10/02, 12:25:58.015]$GPRMC,042547,A,0114.3962,N,10338.4857,E,4.46,180.46,02102[2024/10/02, 12:25:58.280]4,0.16,E,D*2C
$GPRMB,A,,,,,,,,,,,,V,D*19
$GPGGA,042547,0114.3962[2024/10/02, 12:25:58.421],N,10338.4857,E,2,16,0.72,-7.60,M,9.56,M,,*68
$GPGSA,A,3,10,12,18,2[2024/10/02, 12:25:58.561]3,25,28,29,32,,,,,1.23,0.72,1.00*0B
$GPGSV,5,1,17,10,15,339,17,12[2024/10/02, 12:25:58.702],22,096,29,18,77,179,29,23,36,015,14*7E
$GPGSV,5,2,17,25,38,137,29[2024/10/02, 12:25:58.843],28,42,223,19,29,19,169,25,32,26,304,13*77
$GPGSV,5,3,17,41,65,266,[2024/10/02, 12:25:58.983]27,,30,113,27,,50,141,28,,77,336,19*78
$GPGSV,5,4,17,,08,154,17,,7[2024/10/02, 12:25:59.124]0,002,20,,52,182,30,,24,294,15*75
$GPGSV,5,5,17,,50,244,26*4C
$G[2024/10/02, 12:25:59.264]PGLL,0114.3962,N,10338.4857,E,042547,A,D*4F
$GPBOD,,T,,M,,*47
$GP[2024/10/02, 12:25:59.405]BWC,042547,,,,,,T,,M,,N,,D*7E
$GPVTG,180.46,T,180.30,M,4.46,N,8.25[2024/10/02, 12:25:59.545],K,D*2E
$PGRME,17.22,M,18.38,M,25.18,M*24
$PGRMZ,-25,f,3*01
$PG[2024/10/02, 12:25:59.686]RMM,WGS 84*06
$HCHDM,,M*07
$WIMWV,,R,,,A*6D
$GPAPB,V,V,,,N,V,V,,[2024/10/02, 12:25:59.811],,,,,,N*68
$GPZDA,042547,02,10,2024,-08,00*6A
[2024/10/02, 12:26:00.014]$GPRMC,042549,A,0114.3942,N,10338.4859,E,4.22,179.99,02102[2024/10/02, 12:26:00.280]4,0.16,E,D*28
$GPRMB,A,,,,,,,,,,,,V,D*19
$GPGGA,042549,0114.3942[2024/10/02, 12:26:00.420],N,10338.4859,E,2,16,0.72,-7.59,M,9.56,M,,*60
$GPGSA,A,3,10,12,18,[2024/10/02, 12:26:00.561]23,25,28,29,32,,,,,1.23,0.72,1.00*0B
$GPGSV,5,1,17,10,15,339,19,12[2024/10/02, 12:26:00.702],22,096,29,18,77,179,28,23,36,015,14*71
$GPGSV,5,2,17,25,38,137,29[2024/10/02, 12:26:00.842],28,42,223,19,29,19,169,24,32,26,304,14*71
$GPGSV,5,3,17,41,65,266[2024/10/02, 12:26:00.983],27,,30,113,25,,50,141,28,,77,336,18*7B
$GPGSV,5,4,17,,08,154,18,,[2024/10/02, 12:26:01.123]70,002,20,,52,182,30,,24,294,15*7A
$GPGSV,5,5,17,,50,244,27*4D
$G[2024/10/02, 12:26:01.264]PGLL,0114.3942,N,10338.4859,E,042549,A,D*4D
$GPBOD,,T,,M,,*47
$GP[2024/10/02, 12:26:01.404]BWC,042549,,,,,,T,,M,,N,,D*70
$GPVTG,179.99,T,179.83,M,4.22,N,7.81[2024/10/02, 12:26:01.545],K,D*27
$PGRME,17.23,M,18.71,M,25.43,M*26
$PGRMZ,-25,f,3*01
$PG[2024/10/02, 12:26:01.686]RMM,WGS 84*06
$HCHDM,,M*07
$WIMWV,,R,,,A*6D
$GPAPB,V,V,,,N,V,V,[2024/10/02, 12:26:01.811],,,,,,,N*68
$GPZDA,042549,02,10,2024,-08,00*64
[2024/10/02, 12:26:02.014]$GPRMC,042551,A,0114.3919,N,10338.4859,E,4.12,180.36,0210[2024/10/02, 12:26:02.279]24,0.16,E,D*2F
$GPRMB,A,,,,,,,,,,,,V,D*19
$GPGGA,042551,0114.3919[2024/10/02, 12:26:02.420],N,10338.4859,E,2,16,0.73,-7.43,M,9.56,M,,*6D
$GPGSA,A,3,10,12,18,[2024/10/02, 12:26:02.560]23,25,28,29,32,,,,,1.23,0.73,1.00*0A
$GPGSV,5,1,17,10,15,339,18,12[2024/10/02, 12:26:02.701],22,096,29,18,77,179,28,23,36,015,14*70
$GPGSV,5,2,17,25,38,137,29[2024/10/02, 12:26:02.842],28,42,223,19,29,19,169,23,32,26,304,13*71
$GPGSV,5,3,17,41,65,266[2024/10/02, 12:26:02.982],27,,30,113,26,,50,141,28,,77,336,18*78
$GPGSV,5,4,17,,08,154,16,,[2024/10/02, 12:26:03.123]70,002,19,,52,182,30,,24,294,17*7C
$GPGSV,5,5,17,,50,244,27*4D
$G[2024/10/02, 12:26:03.263]PGLL,0114.3919,N,10338.4859,E,042551,A,D*4A
$GPBOD,,T,,M,,*47
$GP[2024/10/02, 12:26:03.404]BWC,042551,,,,,,T,,M,,N,,D*79
$GPVTG,180.36,T,180.20,M,4.12,N,7.6[2024/10/02, 12:26:03.545]3,K,D*24
$PGRME,17.24,M,19.21,M,25.81,M*2B
$PGRMZ,-24,f,3*00
$PG[2024/10/02, 12:26:03.685]RMM,WGS 84*06
$HCHDM,,M*07
$WIMWV,,R,,,A*6D
$GPAPB,V,V,,,N,V,V,[2024/10/02, 12:26:03.810],,,,,,,N*68
$GPZDA,042551,02,10,2024,-08,00*6D
[2024/10/02, 12:26:04.013]$GPRMC,042553,A,0114.3894,N,10338.4858,E,4.18,180.55,0210[2024/10/02, 12:26:04.279]24,0.16,E,D*27
$GPRMB,A,,,,,,,,,,,,V,D*19
$GPGGA,042553,0114.3894[2024/10/02, 12:26:04.419],N,10338.4858,E,2,16,0.72,-7.35,M,9.56,M,,*6A
$GPGSA,A,3,10,12,18[2024/10/02, 12:26:04.560],23,25,28,29,32,,,,,1.23,0.72,1.00*0B
$GPGSV,5,1,17,10,15,339,18,1[2024/10/02, 12:26:04.701]2,22,096,29,18,77,179,28,23,36,015,15*71
$GPGSV,5,2,17,25,38,137,2[2024/10/02, 12:26:04.841]9,28,42,223,19,29,19,169,21,32,26,304,13*73
$GPGSV,5,3,17,41,65,26[2024/10/02, 12:26:04.982]6,27,,30,113,26,,50,141,28,,77,336,19*79
$GPGSV,5,4,17,,08,154,16,[2024/10/02, 12:26:05.122],70,002,19,,52,182,30,,24,294,16*7D
$GPGSV,5,5,17,,50,244,27*4D
$[2024/10/02, 12:26:05.263]GPGLL,0114.3894,N,10338.4858,E,042553,A,D*4D
$GPBOD,,T,,M,,*47
$G[2024/10/02, 12:26:05.403]PBWC,042553,,,,,,T,,M,,N,,D*7B
$GPVTG,180.55,T,180.39,M,4.18,N,7.7[2024/10/02, 12:26:05.544]4,K,D*25
$PGRME,17.26,M,19.66,M,26.16,M*27
$PGRMZ,-24,f,3*00
$P[2024/10/02, 12:26:05.685]GRMM,WGS 84*06
$HCHDM,,M*07
$WIMWV,,R,,,A*6D
$GPAPB,V,V,,,N,V,V[2024/10/02, 12:26:05.810],,,,,,,,N*68
$GPZDA,042553,02,10,2024,-08,00*6F
[2024/10/02, 12:26:06.013]$GPRMC,042555,A,0114.3870,N,10338.4858,E,4.27,180.79,0210[2024/10/02, 12:26:06.278]24,0.16,E,D*29
$GPRMB,A,,,,,,,,,,,,V,D*19
$GPGGA,042555,0114.387[2024/10/02, 12:26:06.419]0,N,10338.4858,E,2,16,0.73,-7.55,M,9.56,M,,*61
$GPGSA,A,3,10,12,18[2024/10/02, 12:26:06.560],23,25,28,29,32,,,,,1.23,0.73,1.00*0A
$GPGSV,5,1,17,10,15,339,21,1[2024/10/02, 12:26:06.700]2,22,096,29,18,77,179,28,23,36,015,14*7A
$GPGSV,5,2,17,25,38,137,2[2024/10/02, 12:26:06.841]9,28,42,223,19,29,19,169,24,32,26,304,13*76
$GPGSV,5,3,17,41,65,26[2024/10/02, 12:26:06.981]6,27,,30,113,27,,50,141,28,,77,336,18*79
$GPGSV,5,4,17,,08,154,16,[2024/10/02, 12:26:07.122],70,002,19,,52,182,30,,24,294,17*7C
$GPGSV,5,5,17,,50,244,28*42
$[2024/10/02, 12:26:07.262]GPGLL,0114.3870,N,10338.4858,E,042555,A,D*41
$GPBOD,,T,,M,,*47
$G[2024/10/02, 12:26:07.403]PBWC,042555,,,,,,T,,M,,N,,D*7D
$GPVTG,180.79,T,180.63,M,4.27,N,7.9[2024/10/02, 12:26:07.544]2,K,D*20
$PGRME,17.28,M,20.05,M,26.47,M*22
$PGRMZ,-25,f,3*01
$P[2024/10/02, 12:26:07.684]GRMM,WGS 84*06
$HCHDM,,M*07
$WIMWV,,R,,,A*6D
$GPAPB,V,V,,,N,V,V[2024/10/02, 12:26:07.809],,,,,,,,N*68
$GPZDA,042555,02,10,2024,-08,00*69
[2024/10/02, 12:26:08.012]$GPRMC,042557,A,0114.3847,N,10338.4854,E,4.39,180.35,0210[2024/10/02, 12:26:08.278]24,0.16,E,D*24
$GPRMB,A,,,,,,,,,,,,V,D*19
$GPGGA,042557,0114.384[2024/10/02, 12:26:08.418]7,N,10338.4854,E,2,16,0.72,-7.63,M,9.56,M,,*6F
$GPGSA,A,3,10,12,18[2024/10/02, 12:26:08.559],23,25,28,29,32,,,,,1.23,0.72,1.00*0B
$GPGSV,5,1,17,10,15,339,18,1[2024/10/02, 12:26:08.700]2,22,096,29,18,77,179,29,23,36,015,15*70
$GPGSV,5,2,17,25,38,137,2[2024/10/02, 12:26:08.840]9,28,42,223,21,29,19,169,26,32,26,304,13*7F
$GPGSV,5,3,17,41,65,26[2024/10/02, 12:26:08.981]6,27,,30,113,26,,50,141,29,,77,336,17*76
$GPGSV,5,4,17,,08,154,19,[2024/10/02, 12:26:09.121],70,002,20,,52,182,30,,24,294,16*78
$GPGSV,5,5,17,,50,244,26*4C
$[2024/10/02, 12:26:09.262]GPGLL,0114.3847,N,10338.4854,E,042557,A,D*4B
$GPBOD,,T,,M,,*47
$[2024/10/02, 12:26:09.403]GPBWC,042557,,,,,,T,,M,,N,,D*7F
$GPVTG,180.35,T,180.19,M,4.39,N,8.[2024/10/02, 12:26:09.543]13,K,D*2C
$PGRME,17.30,M,19.16,M,25.82,M*29
$PGRMZ,-25,f,3*01
$[2024/10/02, 12:26:09.684]PGRMM,WGS 84*06
$HCHDM,,M*07
$WIMWV,,R,,,A*6D
$GPAPB,V,V,,,N,V,V[2024/10/02, 12:26:09.809],,,,,,,,N*68
$GPZDA,042557,02,10,2024,-08,00*6B
[2024/10/02, 12:26:10.012]$GPRMC,042559,A,0114.3824,N,10338.4852,E,4.39,178.96,0210[2024/10/02, 12:26:10.277]24,0.16,E,D*27
$GPRMB,A,,,,,,,,,,,,V,D*19
$GPGGA,042559,0114.382[2024/10/02, 12:26:10.418]4,N,10338.4852,E,2,16,0.72,-7.06,M,9.56,M,,*61
$GPGSA,A,3,10,12,18[2024/10/02, 12:26:10.558],23,25,28,29,32,,,,,1.23,0.72,1.00*0B
$GPGSV,5,1,17,10,15,339,18,1[2024/10/02, 12:26:10.699]2,22,096,29,18,77,179,29,23,36,015,15*70
$GPGSV,5,2,17,25,38,137,2[2024/10/02, 12:26:10.840]9,28,42,223,21,29,19,169,25,32,26,304,14*7B
$GPGSV,5,3,17,41,65,26[2024/10/02, 12:26:10.980]6,27,,30,113,27,,50,141,29,,77,336,19*79
$GPGSV,5,4,17,,08,154,20,[2024/10/02, 12:26:11.121],70,002,22,,52,182,29,,24,293,15*7C
$GPGSV,5,5,17,,50,243,26*4B
$[2024/10/02, 12:26:11.262]GPGLL,0114.3824,N,10338.4852,E,042559,A,D*46
$GPBOD,,T,,M,,*47
$[2024/10/02, 12:26:11.402]GPBWC,042559,,,,,,T,,M,,N,,D*71
$GPVTG,178.96,T,178.80,M,4.39,N,8.[2024/10/02, 12:26:11.543]13,K,D*25
$PGRME,17.32,M,18.50,M,25.34,M*25
$PGRMZ,-23,f,3*07
$P[2024/10/02, 12:26:11.683]GRMM,WGS 84*06
$HCHDM,,M*07
$WIMWV,,R,,,A*6D
$GPAPB,V,V,,,N,V,V[2024/10/02, 12:26:11.808],,,,,,,,N*68
$GPZDA,042559,02,10,2024,-08,00*65
[2024/10/02, 12:26:12.011]$GPRMC,042601,A,0114.3800,N,10338.4851,E,4.40,177.92,021[2024/10/02, 12:26:12.277]024,0.16,E,D*29
$GPRMB,A,,,,,,,,,,,,V,D*19
$GPGGA,042601,0114.380[2024/10/02, 12:26:12.417]0,N,10338.4851,E,2,16,0.72,-6.39,M,9.56,M,,*67
$GPGSA,A,3,10,12,18[2024/10/02, 12:26:12.558],23,25,28,29,32,,,,,1.23,0.72,1.00*0B
$GPGSV,5,1,17,10,15,339,18,1[2024/10/02, 12:26:12.699]2,22,096,29,18,77,179,29,23,36,015,15*70
$GPGSV,5,2,17,25,38,137,2[2024/10/02, 12:26:12.839]9,28,42,223,19,29,19,169,25,32,26,304,14*70
$GPGSV,5,3,17,41,65,26[2024/10/02, 12:26:12.980]6,27,,30,113,27,,50,141,29,,77,336,18*78
$GPGSV,5,4,17,,08,154,17,[2024/10/02, 12:26:13.120],70,002,20,,52,182,30,,24,293,15*72
$GPGSV,5,5,17,,50,243,27*4A
$[2024/10/02, 12:26:13.261]GPGLL,0114.3800,N,10338.4851,E,042601,A,D*4D
$GPBOD,,T,,M,,*47
$G[2024/10/02, 12:26:13.402]PBWC,042601,,,,,,T,,M,,N,,D*7F
$GPVTG,177.92,T,177.76,M,4.40,N,8.[2024/10/02, 12:26:13.542]14,K,D*21
$PGRME,17.34,M,17.57,M,24.68,M*23
$PGRMZ,-21,f,3*05
$P[2024/10/02, 12:26:13.683]GRMM,WGS 84*06
$HCHDM,,M*07
$WIMWV,,R,,,A*6D
$GPAPB,V,V,,,N,V,V[2024/10/02, 12:26:13.808],,,,,,,,N*68
$GPZDA,042601,02,10,2024,-08,00*6B
[2024/10/02, 12:26:14.011]$GPRMC,042603,A,0114.3777,N,10338.4850,E,4.36,176.62,021[2024/10/02, 12:26:14.276]024,0.16,E,D*2A
$GPRMB,A,,,,,,,,,,,,V,D*19
$GPGGA,042603,0114.377[2024/10/02, 12:26:14.417]7,N,10338.4850,E,2,16,0.73,-5.87,M,9.56,M,,*6C
$GPGSA,A,3,10,12,18[2024/10/02, 12:26:14.558],23,25,28,29,32,,,,,1.23,0.73,1.00*0A
$GPGSV,5,1,17,10,15,339,18,1[2024/10/02, 12:26:14.698]2,22,096,29,18,77,179,29,23,36,015,15*70
$GPGSV,5,2,17,25,38,137,2[2024/10/02, 12:26:14.839]9,28,42,223,21,29,19,169,23,32,26,304,14*7D
$GPGSV,5,3,17,41,65,26[2024/10/02, 12:26:14.979]6,27,,30,113,28,,50,141,29,,77,336,19*76
$GPGSV,5,4,17,,08,154,16,[2024/10/02, 12:26:15.120],70,002,19,,52,182,30,,24,293,17*7B
$GPGSV,5,5,17,,50,243,28*45
$[2024/10/02, 12:26:15.261]GPGLL,0114.3777,N,10338.4850,E,042603,A,D*41
$GPBOD,,T,,M,,*47
$[2024/10/02, 12:26:15.401]GPBWC,042603,,,,,,T,,M,,N,,D*7D
$GPVTG,176.62,T,176.46,M,4.36,N,8.[2024/10/02, 12:26:15.542]07,K,D*2E
$PGRME,17.35,M,17.10,M,24.36,M*2A
$PGRMZ,-19,f,3*0E
$P[2024/10/02, 12:26:15.682]GRMM,WGS 84*06
$HCHDM,,M*07
$WIMWV,,R,,,A*6D
$GPAPB,V,V,,,N,V,V[2024/10/02, 12:26:15.807],,,,,,,,N*68
$GPZDA,042603,02,10,2024,-08,00*69
[2024/10/02, 12:26:16.010]$GPRMC,042605,A,0114.3756,N,10338.4845,E,4.28,185.58,021[2024/10/02, 12:26:16.276]024,0.16,E,D*21
$GPRMB,A,,,,,,,,,,,,V,D*19
$GPGGA,042605,0114.375[2024/10/02, 12:26:16.417]6,N,10338.4845,E,2,16,0.72,-6.15,M,9.56,M,,*64
$GPGSA,A,3,10,12,18[2024/10/02, 12:26:16.557],23,25,28,29,32,,,,,1.23,0.72,1.00*0B
$GPGSV,5,1,17,10,15,339,19,[2024/10/02, 12:26:16.698]12,22,096,29,18,77,179,29,23,36,015,16*72
$GPGSV,5,2,17,25,38,137,3[2024/10/02, 12:26:16.838]0,28,42,223,19,29,19,169,25,32,26,304,13*7F
$GPGSV,5,3,17,41,65,26[2024/10/02, 12:26:16.979]6,27,,30,113,28,,50,141,29,,77,336,21*7D
$GPGSV,5,4,17,,08,154,16,[2024/10/02, 12:26:17.120],70,002,19,,52,182,30,,24,293,20*7F
$GPGSV,5,5,17,,50,243,28*45
[2024/10/02, 12:26:17.260]$GPGLL,0114.3756,N,10338.4845,E,042605,A,D*40
$GPBOD,,T,,M,,*47
$[2024/10/02, 12:26:17.401]GPBWC,042605,,,,,,T,,M,,N,,D*7B
$GPVTG,185.58,T,185.42,M,4.28,N,7.[2024/10/02, 12:26:17.541]92,K,D*2F
$PGRME,17.36,M,16.77,M,24.14,M*29
$PGRMZ,-20,f,3*04
$[2024/10/02, 12:26:17.682]PGRMM,WGS 84*06
$HCHDM,,M*07
$WIMWV,,R,,,A*6D
$GPAPB,V,V,,,N,V,V[2024/10/02, 12:26:17.807],,,,,,,,N*68
$GPZDA,042605,02,10,2024,-08,00*6F
[2024/10/02, 12:26:18.010]$GPRMC,042607,A,0114.3733,N,10338.4847,E,4.31,184.53,021[2024/10/02, 12:26:18.276]024,0.16,E,D*20
$GPRMB,A,,,,,,,,,,,,V,D*19
