[2024/10/02, 12:45:51.677],044549,,,,,,T,,M,,N,,A*73
$GPVTG,329.99,T,329.83,M,2.96,N,5.48,K,[2024/10/02, 12:45:51.817]A*2C
$PGRME,15.92,M,17.56,M,23.70,M*22
$PGRMZ,93,f,3*21
$PGRMM,[2024/10/02, 12:45:51.958]WGS 84*06
$HCHDM,,M*07
$WIMWV,,R,,,A*6D
$GPAPB,V,V,,,N,V,V,,,,,,[2024/10/02, 12:45:52.067],,N*68
$GPZDA,044549,02,10,2024,-08,00*62
[2024/10/02, 12:45:52.270]$GPRMC,044552,A,0114.3120,N,103[2024/10/02, 12:45:52.489]38.8380,E,3.23,350.02,021024,0.16,E,A*23
$GPRMB,A,,,,,,,,,,,,V,A*1[2024/10/02, 12:45:52.630]C
$GPGGA,044552,0114.3120,N,10338.8380,E,1,15,0.91,26.55,M,9.59,M,[2024/10/02, 12:45:52.770],*73
$GPGSA,A,3,10,12,18,23,25,28,29,32,,,,,1.89,0.91,1.65*05
$GP[2024/10/02, 12:45:52.911]GSV,5,1,17,05,02,124,17,10,20,345,24,12,22,085,15,18,66,176,21*7A
[2024/10/02, 12:45:53.052]$GPGSV,5,2,17,23,41,025,20,25,41,126,14,28,49,232,25,29,15,162,15*7[2024/10/02, 12:45:53.192]6
$GPGSV,5,3,17,32,25,313,24,,32,109,19,,47,144,16,,72,336,27*7A
[2024/10/02, 12:45:53.333]$GPGSV,5,4,17,,02,150,14,,65,357,24,,61,179,21,,26,284,30*7B
$GPGS[2024/10/02, 12:45:53.473]V,5,5,17,,47,231,23*4D
$GPGLL,0114.3120,N,10338.8380,E,044552,A,A*[2024/10/02, 12:45:53.614]4B
$GPBOD,,T,,M,,*47
$GPBWC,044552,,,,,,T,,M,,N,,A*79
$GPVTG,35[2024/10/02, 12:45:53.755]0.02,T,349.86,M,3.23,N,5.99,K,A*20
$PGRME,15.95,M,17.96,M,24.02,M*[2024/10/02, 12:45:53.895]2B
$PGRMZ,87,f,3*24
$PGRMM,WGS 84*06
$HCHDM,,M*07
$WIMWV,,R,,,[2024/10/02, 12:45:54.036]A*6D
$GPAPB,V,V,,,N,V,V,,,,,,,,N*68
$GPZDA,044552,02,10,2024,-08,[2024/10/02, 12:45:54.129]00*68
[2024/10/02, 12:45:54.270]$GPRMC,044553,A,0114.3137,N,103[2024/10/02, 12:45:54.489]38.8377,E,3.34,339.19,021024,0.16,E,A*2F
$GPRMB,A,,,,,,,,,,,,V,A*1[2024/10/02, 12:45:54.629]C
$GPGGA,044553,0114.3137,N,10338.8377,E,1,10,0.74,26.04,M,9.59,M,[2024/10/02, 12:45:54.770],*76
$GPGSA,A,3,10,12,18,23,25,28,29,32,,,,,1.40,0.74,1.19*00
$G[2024/10/02, 12:45:54.910]PGSV,5,1,17,05,02,124,17,10,20,345,22,12,22,085,15,18,66,176,22*7F[2024/10/02, 12:45:55.051]
$GPGSV,5,2,17,23,41,025,22,25,42,125,16,28,49,232,25,29,15,162,13*[2024/10/02, 12:45:55.192]70
$GPGSV,5,3,17,32,25,313,24,,32,109,17,,47,144,16,,72,336,27*74[2024/10/02, 12:45:55.332]
$GPGSV,5,4,17,,02,150,14,,65,357,23,,61,179,18,,26,284,30*76
$GPG[2024/10/02, 12:45:55.473]SV,5,5,17,,47,231,25*4B
$GPGLL,0114.3137,N,10338.8377,E,044553,A,A[2024/10/02, 12:45:55.613]*44
$GPBOD,,T,,M,,*47
$GPBWC,044553,,,,,,T,,M,,N,,A*78
$GPVTG,33[2024/10/02, 12:45:55.754]9.19,T,339.03,M,3.34,N,6.19,K,A*22
$PGRME,15.96,M,18.06,M,24.10,M[2024/10/02, 12:45:55.895]*2D
$PGRMZ,85,f,3*26
$PGRMM,WGS 84*06
$HCHDM,,M*07
$WIMWV,,R,,[2024/10/02, 12:45:56.035],A*6D
$GPAPB,V,V,,,N,V,V,,,,,,,,N*68
$GPZDA,044553,02,10,2024,-08[2024/10/02, 12:45:56.129],00*69
[2024/10/02, 12:45:56.270]$GPRMC,044555,A,0114.3157,N,103[2024/10/02, 12:45:56.488]38.8366,E,3.48,336.42,021024,0.16,E,A*25
$GPRMB,A,,,,,,,,,,,,V,A*1[2024/10/02, 12:45:56.629]C
$GPGGA,044555,0114.3157,N,10338.8366,E,1,15,0.74,24.38,M,9.59,M[2024/10/02, 12:45:56.769],,*7E
$GPGSA,A,3,10,12,18,23,25,28,29,32,,,,,1.40,0.74,1.19*00
$G[2024/10/02, 12:45:56.910]PGSV,5,1,17,05,02,124,13,10,20,345,21,12,22,085,15,18,66,176,19*70[2024/10/02, 12:45:57.051]
$GPGSV,5,2,17,23,41,025,20,25,42,125,16,28,49,232,26,29,15,162,13*[2024/10/02, 12:45:57.191]71
$GPGSV,5,3,17,32,25,313,24,,32,109,15,,47,144,15,,72,336,27*75[2024/10/02, 12:45:57.332]
$GPGSV,5,4,17,,02,150,14,,65,357,24,,61,179,19,,26,284,29*78
$GPG[2024/10/02, 12:45:57.472]SV,5,5,17,,47,231,25*4B
$GPGLL,0114.3157,N,10338.8366,E,044555,A,A[2024/10/02, 12:45:57.613]*44
$GPBOD,,T,,M,,*47
$GPBWC,044555,,,,,,T,,M,,N,,A*7E
$GPVTG,3[2024/10/02, 12:45:57.754]36.42,T,336.26,M,3.48,N,6.44,K,A*28
$PGRME,16.00,M,18.90,M,24.76,M[2024/10/02, 12:45:57.894]*2E
$PGRMZ,80,f,3*23
$PGRMM,WGS 84*06
$HCHDM,,M*07
$WIMWV,,R,,[2024/10/02, 12:45:58.035],A*6D
$GPAPB,V,V,,,N,V,V,,,,,,,,N*68
$GPZDA,044555,02,10,2024,-08[2024/10/02, 12:45:58.144],00*6F
[2024/10/02, 12:45:58.222]$GPRMC,044557,A,0114.3177,N,103[2024/10/02, 12:45:58.488]38.8359,E,3.43,356.73,021024,0.16,E,D*23
$GPRMB,A,,,,,,,,,,,,V,D*[2024/10/02, 12:45:58.628]19
$GPGGA,044557,0114.3177,N,10338.8359,E,2,15,0.74,23.74,M,9.59,M[2024/10/02, 12:45:58.769],,*7E
$GPGSA,A,3,10,12,18,23,25,28,29,32,,,,,1.40,0.74,1.19*00
$G[2024/10/02, 12:45:58.910]PGSV,5,1,18,05,02,124,13,10,20,345,22,12,22,085,14,18,66,176,21*76[2024/10/02, 12:45:59.050]
$GPGSV,5,2,18,23,41,025,19,25,42,125,16,28,49,233,26,29,15,161,13*[2024/10/02, 12:45:59.191]76
$GPGSV,5,3,18,32,25,313,24,45,00,000,27,,32,109,15,,47,144,15*7[2024/10/02, 12:45:59.331]8
$GPGSV,5,4,18,,72,336,26,,02,150,14,,65,357,24,,61,179,18*70
$G[2024/10/02, 12:45:59.472]PGSV,5,5,18,,26,284,30,,47,231,25*7D
$GPGLL,0114.3177,N,10338.8359[2024/10/02, 12:45:59.613],E,044557,A,D*4D
$GPBOD,,T,,M,,*47
$GPBWC,044557,,,,,,T,,M,,N,,D*[2024/10/02, 12:45:59.753]79
$GPVTG,356.73,T,356.57,M,3.43,N,6.36,K,D*27
$PGRME,16.04,M,18[2024/10/02, 12:45:59.894].42,M,24.42,M*22
$PGRMZ,78,f,3*24
$PGRMM,WGS 84*06
$HCHDM,,M*07[2024/10/02, 12:46:00.034]
$WIMWV,,R,,,A*6D
$GPAPB,V,V,,,N,V,V,,,,,,,,N*68
$GPZDA,044557,0[2024/10/02, 12:46:00.159]2,10,2024,-08,00*6D
[2024/10/02, 12:46:00.237]$GPRMC,044559,A,0114.3194,N,10338.8356[2024/10/02, 12:46:00.503],E,3.22,14.37,021024,0.16,E,D*1D
$GPRMB,A,,,,,,,,,,,,V,D*19
$GPG[2024/10/02, 12:46:00.644]GA,044559,0114.3194,N,10338.8356,E,2,15,0.74,21.91,M,9.59,M,,*7B
$[2024/10/02, 12:46:00.784]GPGSA,A,3,10,12,18,23,25,28,29,32,,,,,1.41,0.74,1.20*0B
$GPGSV,5,1[2024/10/02, 12:46:00.925],18,05,02,124,13,10,20,345,23,12,22,085,13,18,66,176,19*7B
$GPGSV,[2024/10/02, 12:46:01.065]5,2,18,23,41,025,20,25,42,125,16,28,49,233,23,29,15,161,13*79
$GPG[2024/10/02, 12:46:01.206]SV,5,3,18,32,25,313,23,45,00,000,27,,32,109,14,,47,144,13*78
$GPGS[2024/10/02, 12:46:01.346]V,5,4,18,,72,336,27,,02,150,14,,65,357,22,,61,179,18*77
$GPGSV,5,5,[2024/10/02, 12:46:01.487]18,,26,284,29,,47,231,25*75
$GPGLL,0114.3194,N,10338.8356,E,04455[2024/10/02, 12:46:01.628]9,A,D*41
$GPBOD,,T,,M,,*47
$GPBWC,044559,,,,,,T,,M,,N,,D*77
$GPV[2024/10/02, 12:46:01.768]TG,14.37,T,14.21,M,3.22,N,5.96,K,D*28
$PGRME,16.08,M,18.23,M,24.31[2024/10/02, 12:46:01.909],M*2D
$PGRMZ,72,f,3*2E
$PGRMM,WGS 84*06
$HCHDM,,M*07
$WIMWV,,R[2024/10/02, 12:46:02.049],,,A*6D
$GPAPB,V,V,,,N,V,V,,,,,,,,N*68
$GPZDA,044559,02,10,2024,[2024/10/02, 12:46:02.159]-08,00*63
[2024/10/02, 12:46:02.237]$GPRMC,044601,A,0114.3214,N,10338.8344[2024/10/02, 12:46:02.502],E,3.24,10.82,021024,0.16,E,D*17
$GPRMB,A,,,,,,,,,,,,V,D*19
$GPG[2024/10/02, 12:46:02.643]GA,044601,0114.3214,N,10338.8344,E,2,15,0.74,21.13,M,9.59,M,,*77
$[2024/10/02, 12:46:02.784]GPGSA,A,3,10,12,18,23,25,28,29,32,,,,,1.40,0.74,1.19*00
$GPGSV,5,1[2024/10/02, 12:46:02.924],18,05,02,124,13,10,20,345,23,12,22,085,13,18,66,176,19*7B
$GPGSV,[2024/10/02, 12:46:03.065]5,2,18,23,41,025,19,25,42,125,16,28,49,233,25,29,15,161,13*75
$GPG[2024/10/02, 12:46:03.205]SV,5,3,18,32,25,314,24,45,00,000,27,,32,109,15,,47,144,13*79
$GPGS[2024/10/02, 12:46:03.346]V,5,4,18,,72,336,27,,02,150,15,,65,357,21,,61,179,20*7E
$GPGSV,5,5[2024/10/02, 12:46:03.487],18,,26,284,30,,47,231,24*7C
$GPGLL,0114.3214,N,10338.8344,E,04460[2024/10/02, 12:46:03.627]1,A,D*47
$GPBOD,,T,,M,,*47
$GPBWC,044601,,,,,,T,,M,,N,,D*79
$GP[2024/10/02, 12:46:03.768]VTG,10.82,T,10.66,M,3.24,N,6.01,K,D*2E
$PGRME,16.14,M,18.10,M,24.2[2024/10/02, 12:46:03.908]5,M*25
$PGRMZ,69,f,3*24
$PGRMM,WGS 84*06
$HCHDM,,M*07
$WIMWV,,[2024/10/02, 12:46:04.049]R,,,A*6D
$GPAPB,V,V,,,N,V,V,,,,,,,,N*68
$GPZDA,044601,02,10,2024,[2024/10/02, 12:46:04.158]-08,00*6D
[2024/10/02, 12:46:04.236]$GPRMC,044603,A,0114.3234,N,10338.833[2024/10/02, 12:46:04.502]4,E,3.27,359.42,021024,0.16,E,D*21
$GPRMB,A,,,,,,,,,,,,V,D*19
$GP[2024/10/02, 12:46:04.643]GGA,044603,0114.3234,N,10338.8334,E,2,15,0.74,21.02,M,9.59,M,,*70
[2024/10/02, 12:46:04.783]$GPGSA,A,3,10,12,18,23,25,28,29,32,,,,,1.40,0.74,1.20*0A
$GPGSV,5,[2024/10/02, 12:46:04.924]1,18,05,02,124,13,10,20,345,25,12,22,085,14,18,66,176,21*71
$GPGSV[2024/10/02, 12:46:05.064],5,2,18,23,41,025,21,25,42,125,17,28,49,233,24,29,15,161,13*7E
$GP[2024/10/02, 12:46:05.205]GSV,5,3,18,32,25,314,24,45,00,000,27,,32,109,16,,47,144,17*7E
$GPG[2024/10/02, 12:46:05.346]SV,5,4,18,,72,336,27,,02,150,16,,65,357,22,,61,179,23*7D
$GPGSV,5,[2024/10/02, 12:46:05.486]5,18,,26,284,30,,47,231,26*7E
$GPGLL,0114.3234,N,10338.8334,E,0446[2024/10/02, 12:46:05.627]03,A,D*40
$GPBOD,,T,,M,,*47
$GPBWC,044603,,,,,,T,,M,,N,,D*7B
$G[2024/10/02, 12:46:05.767]PVTG,359.42,T,359.26,M,3.27,N,6.06,K,D*22
$PGRME,16.19,M,18.20,M,2[2024/10/02, 12:46:05.908]4.35,M*2A
$PGRMZ,69,f,3*24
$PGRMM,WGS 84*06
$HCHDM,,M*07
$WIMW[2024/10/02, 12:46:06.048]V,,R,,,A*6D
$GPAPB,V,V,,,N,V,V,,,,,,,,N*68
$GPZDA,044603,02,10,20[2024/10/02, 12:46:06.158]24,-08,00*6F
[2024/10/02, 12:46:06.236]$GPRMC,044605,A,0114.3256,N,10338.832[2024/10/02, 12:46:06.502]2,E,3.37,342.36,021024,0.16,E,D*2C
$GPRMB,A,,,,,,,,,,,,V,D*19
$GP[2024/10/02, 12:46:06.642]GGA,044605,0114.3256,N,10338.8322,E,2,15,0.74,21.54,M,9.59,M,,*76
[2024/10/02, 12:46:06.783]$GPGSA,A,3,10,12,18,23,25,28,29,32,,,,,1.40,0.74,1.19*00
$GPGSV,5,[2024/10/02, 12:46:06.923]1,17,10,20,345,25,12,22,085,14,18,66,176,20,23,41,025,24*78
$GPGSV[2024/10/02, 12:46:07.064],5,2,17,25,42,125,19,28,49,233,25,29,15,161,13,32,25,314,24*78
$GP[2024/10/02, 12:46:07.204]GSV,5,3,17,45,00,000,27,,32,109,13,,47,144,17,,72,336,27*74
$GPGSV[2024/10/02, 12:46:07.345],5,4,17,,02,150,16,,65,357,22,,61,179,23,,26,284,30*7D
$GPGSV,5,5,[2024/10/02, 12:46:07.486]17,,47,231,27*49
$GPGLL,0114.3256,N,10338.8322,E,044605,A,D*45
$[2024/10/02, 12:46:07.626]GPBOD,,T,,M,,*47
$GPBWC,044605,,,,,,T,,M,,N,,D*7D
$GPVTG,342.36,T[2024/10/02, 12:46:07.767],342.20,M,3.37,N,6.25,K,D*27
$PGRME,16.23,M,18.35,M,24.50,M*24
$P[2024/10/02, 12:46:07.908]GRMZ,71,f,3*2D
$PGRMM,WGS 84*06
$HCHDM,,M*07
$WIMWV,,R,,,A*6D
[2024/10/02, 12:46:08.048]$GPAPB,V,V,,,N,V,V,,,,,,,,N*68
$GPZDA,044605,02,10,2024,-08,00*69[2024/10/02, 12:46:08.142]
[2024/10/02, 12:46:08.282]$GPRMC,044608,A,0114.3285,N,10338.8316,E,3.72,352.92,021024[2024/10/02, 12:46:08.548],0.16,E,D*26
$GPRMB,A,,,,,,,,,,,,V,D*19
$GPGGA,044608,0114.3285,N[2024/10/02, 12:46:08.689],10338.8316,E,2,15,0.91,21.60,M,9.59,M,,*7E
$GPGSA,A,3,10,12,18,2[2024/10/02, 12:46:08.829]3,25,28,29,32,,,,,1.88,0.91,1.65*04
$GPGSV,5,1,17,10,20,345,24,12,[2024/10/02, 12:46:08.970]22,085,14,18,66,176,21,23,41,025,23*7F
$GPGSV,5,2,17,25,42,125,20,[2024/10/02, 12:46:09.110]28,49,233,21,29,15,161,13,32,25,314,21*73
$GPGSV,5,3,17,45,00,000,2[2024/10/02, 12:46:09.251]7,,32,109,13,,47,144,18,,72,336,27*7B
$GPGSV,5,4,17,,02,150,13,,65[2024/10/02, 12:46:09.391],357,22,,61,179,21,,26,284,30*7A
$GPGSV,5,5,17,,47,231,26*48
$GP[2024/10/02, 12:46:09.532]GLL,0114.3285,N,10338.8316,E,044608,A,D*41
$GPBOD,,T,,M,,*47
$GPB[2024/10/02, 12:46:09.673]WC,044608,,,,,,T,,M,,N,,D*70
$GPVTG,352.92,T,352.76,M,3.72,N,6.89,[2024/10/02, 12:46:09.813]K,D*2D
$PGRME,16.30,M,19.44,M,25.37,M*21
$PGRMZ,71,f,3*2D
$PGRM[2024/10/02, 12:46:09.954]M,WGS 84*06
$HCHDM,,M*07
$WIMWV,,R,,,A*6D
$GPAPB,V,V,,,N,V,V,,,,[2024/10/02, 12:46:10.079],,,,N*68
$GPZDA,044608,02,10,2024,-08,00*64
[2024/10/02, 12:46:10.282]$GPRMC,044610,A,0114.3307,N,10338.8318,E,3.75,0.83,021024,0[2024/10/02, 12:46:10.548].16,E,D*29
$GPRMB,A,,,,,,,,,,,,V,D*19
$GPGGA,044610,0114.3307,N,1[2024/10/02, 12:46:10.688]0338.8318,E,2,10,0.91,21.63,M,9.59,M,,*74
$GPGSA,A,3,10,12,18,23,2[2024/10/02, 12:46:10.829]5,28,29,32,,,,,1.89,0.91,1.65*05
$GPGSV,5,1,17,10,20,345,24,12,22,[2024/10/02, 12:46:10.969]085,14,18,66,176,20,23,41,025,23*7E
$GPGSV,5,2,17,25,42,125,20,28,[2024/10/02, 12:46:11.110]49,233,26,29,15,161,13,32,25,314,23*76
$GPGSV,5,3,17,45,00,000,27,[2024/10/02, 12:46:11.250],32,109,13,,47,144,18,,72,336,27*7B
$GPGSV,5,4,17,,02,150,13,,65,3[2024/10/02, 12:46:11.391]57,23,,61,179,21,,26,284,30*7B
$GPGSV,5,5,17,,47,231,27*49
$GPGL[2024/10/02, 12:46:11.532]L,0114.3307,N,10338.8318,E,044610,A,D*4D
$GPBOD,,T,,M,,*47
$GPBWC[2024/10/02, 12:46:11.672],044610,,,,,,T,,M,,N,,D*79
$GPVTG,0.83,T,0.67,M,3.75,N,6.94,K,D*26[2024/10/02, 12:46:11.813]
$PGRME,16.34,M,20.30,M,26.06,M*2D
$PGRMZ,71,f,3*2D
$PGRMM,WGS [2024/10/02, 12:46:11.953]84*06
$HCHDM,,M*07
$WIMWV,,R,,,A*6D
$GPAPB,V,V,,,N,V,V,,,,,,,,N*[2024/10/02, 12:46:12.063]68
$GPZDA,044610,02,10,2024,-08,00*6D
[2024/10/02, 12:46:12.281]$GPRMC,044611,A,0114.3329,N,10338.8307,E,3.86,1.71,021024,0[2024/10/02, 12:46:12.547].16,E,D*2A
$GPRMB,A,,,,,,,,,,,,V,D*19
$GPGGA,044611,0114.3329,N,[2024/10/02, 12:46:12.688]10338.8307,E,2,15,0.74,21.30,M,9.59,M,,*7F
$GPGSA,A,3,10,12,18,23,[2024/10/02, 12:46:12.828]25,28,29,32,,,,,1.40,0.74,1.19*00
$GPGSV,5,1,17,10,20,345,25,12,22[2024/10/02, 12:46:12.969],085,14,18,66,176,21,23,41,025,23*7E
$GPGSV,5,2,17,25,42,125,20,28[2024/10/02, 12:46:13.109],49,233,24,29,15,161,13,32,25,314,23*74
$GPGSV,5,3,17,45,00,000,27[2024/10/02, 12:46:13.250],,32,109,13,,47,144,19,,72,336,27*7A
$GPGSV,5,4,17,,02,150,14,,65,[2024/10/02, 12:46:13.391]357,23,,61,179,22,,26,284,31*7E
$GPGSV,5,5,17,,47,231,27*49
$GPGL[2024/10/02, 12:46:13.531]L,0114.3329,N,10338.8307,E,044611,A,D*4E
$GPBOD,,T,,M,,*47
$GPBWC[2024/10/02, 12:46:13.672],044611,,,,,,T,,M,,N,,D*78
$GPVTG,1.71,T,1.55,M,3.86,N,7.16,K,D*2D[2024/10/02, 12:46:13.812]
$PGRME,16.40,M,20.28,M,26.08,M*29
$PGRMZ,70,f,3*2C
$PGRMM,WGS [2024/10/02, 12:46:13.953]84*06
$HCHDM,,M*07
$WIMWV,,R,,,A*6D
$GPAPB,V,V,,,N,V,V,,,,,,,,N[2024/10/02, 12:46:14.062]*68
$GPZDA,044611,02,10,2024,-08,00*6C
[2024/10/02, 12:46:14.281]$GPRMC,044613,A,0114.3353,N,10338.8308,E,3.98,3.88,021024,[2024/10/02, 12:46:14.547]0.16,E,D*21
$GPRMB,A,,,,,,,,,,,,V,D*19
$GPGGA,044613,0114.3353,N,[2024/10/02, 12:46:14.687]10338.8308,E,2,15,0.74,20.42,M,9.59,M,,*7B
$GPGSA,A,3,10,12,18,23,[2024/10/02, 12:46:14.828]25,28,29,32,,,,,1.41,0.74,1.20*0B
$GPGSV,5,1,17,10,20,345,24,12,22[2024/10/02, 12:46:14.968],085,14,18,66,176,19,23,41,025,21*76
$GPGSV,5,2,17,25,42,125,20,28[2024/10/02, 12:46:15.109],49,233,24,29,15,161,13,32,25,314,23*74
$GPGSV,5,3,17,45,00,000,27[2024/10/02, 12:46:15.249],,32,109,16,,47,144,19,,72,336,27*7F
$GPGSV,5,4,17,,02,150,14,,65,[2024/10/02, 12:46:15.390]357,23,,61,179,21,,26,284,31*7D
$GPGSV,5,5,17,,47,231,27*49
$GPGL[2024/10/02, 12:46:15.531]L,0114.3353,N,10338.8308,E,044613,A,D*4E
$GPBOD,,T,,M,,*47
$GPBWC[2024/10/02, 12:46:15.671],044613,,,,,,T,,M,,N,,D*7A
$GPVTG,3.88,T,3.72,M,3.98,N,7.37,K,D*22[2024/10/02, 12:46:15.812]
$PGRME,16.46,M,20.32,M,26.15,M*28
$PGRMZ,67,f,3*2A
$PGRMM,WGS [2024/10/02, 12:46:15.952]84*06
$HCHDM,,M*07
$WIMWV,,R,,,A*6D
$GPAPB,V,V,,,N,V,V,,,,,,,,N[2024/10/02, 12:46:16.062]*68
$GPZDA,044613,02,10,2024,-08,00*6E
[2024/10/02, 12:46:16.281]$GPRMC,044615,A,0114.3374,N,10338.8300,E,3.98,348.38,02102[2024/10/02, 12:46:16.546]4,0.16,E,D*2D
$GPRMB,A,,,,,,,,,,,,V,D*19
$GPGGA,044615,0114.3374,[2024/10/02, 12:46:16.687]N,10338.8300,E,2,15,0.74,19.45,M,9.59,M,,*7D
$GPGSA,A,3,10,12,18,2[2024/10/02, 12:46:16.827]3,25,28,29,32,,,,,1.41,0.74,1.20*0B
$GPGSV,5,1,17,10,20,345,25,12[2024/10/02, 12:46:16.968],22,085,13,18,66,176,21,23,41,025,20*7A
$GPGSV,5,2,17,25,42,125,19,[2024/10/02, 12:46:17.108]28,49,233,23,29,15,161,13,32,25,314,23*79
$GPGSV,5,3,17,45,00,000,[2024/10/02, 12:46:17.249]27,,32,109,16,,47,144,20,,72,336,27*75
$GPGSV,5,4,17,,02,150,19,,6[2024/10/02, 12:46:17.390]5,357,22,,61,179,20,,26,284,30*71
$GPGSV,5,5,17,,47,231,27*49
$G[2024/10/02, 12:46:17.530]PGLL,0114.3374,N,10338.8300,E,044615,A,D*45
$GPBOD,,T,,M,,*47
$GP[2024/10/02, 12:46:17.671]BWC,044615,,,,,,T,,M,,N,,D*7C
$GPVTG,348.38,T,348.22,M,3.98,N,7.3[2024/10/02, 12:46:17.811]7,K,D*2C
$PGRME,16.51,M,20.41,M,26.25,M*29
$PGRMZ,64,f,3*29
$PGR[2024/10/02, 12:46:17.952]MM,WGS 84*06
$HCHDM,,M*07
$WIMWV,,R,,,A*6D
$GPAPB,V,V,,,N,V,V,,[2024/10/02, 12:46:18.077],,,,,,N*68
$GPZDA,044615,02,10,2024,-08,00*68
[2024/10/02, 12:46:18.280]$GPRMC,044617,A,0114.3394,N,10338.8288,E,4.03,338.15,02102[2024/10/02, 12:46:18.546]4,0.16,E,D*2D
$GPRMB,A,,,,,,,,,,,,V,D*19
$GPGGA,044617,0114.3394[2024/10/02, 12:46:18.686],N,10338.8288,E,2,15,0.74,17.82,M,9.59,M,,*75
$GPGSA,A,3,10,12,18,[2024/10/02, 12:46:18.827]23,25,28,29,32,,,,,1.40,0.74,1.19*00
$GPGSV,5,1,17,10,20,345,25,12[2024/10/02, 12:46:18.967],22,085,16,18,66,176,21,23,41,025,20*7F
$GPGSV,5,2,17,25,42,125,19[2024/10/02, 12:46:19.108],28,49,233,22,29,15,161,13,32,25,314,22*79
$GPGSV,5,3,17,45,00,000[2024/10/02, 12:46:19.248],27,,32,109,17,,47,144,19,,72,336,26*7F
$GPGSV,5,4,17,,02,150,20,,6[2024/10/02, 12:46:19.389]5,357,22,,61,179,20,,26,284,30*7B
$GPGSV,5,5,17,,47,231,26*48
$G[2024/10/02, 12:46:19.530]PGLL,0114.3394,N,10338.8288,E,044617,A,D*48
$GPBOD,,T,,M,,*47
$GP[2024/10/02, 12:46:19.670]BWC,044617,,,,,,T,,M,,N,,D*7E
$GPVTG,338.15,T,337.99,M,4.03,N,7.47[2024/10/02, 12:46:19.811],K,D*2E
$PGRME,16.56,M,20.27,M,26.18,M*20
$PGRMZ,58,f,3*26
$PGR[2024/10/02, 12:46:19.951]MM,WGS 84*06
$HCHDM,,M*07
$WIMWV,,R,,,A*6D
$GPAPB,V,V,,,N,V,V,,,[2024/10/02, 12:46:20.076],,,,,N*68
$GPZDA,044617,02,10,2024,-08,00*6A
[2024/10/02, 12:46:20.280]$GPRMC,044619,A,0114.3416,N,10338.8282,E,4.30,336.74,02102[2024/10/02, 12:46:20.545]4,0.16,E,D*2D
$GPRMB,A,,,,,,,,,,,,V,D*19
$GPGGA,044619,0114.3416[2024/10/02, 12:46:20.686],N,10338.8282,E,2,15,0.74,16.42,M,9.59,M,,*71
$GPGSA,A,3,10,12,18,[2024/10/02, 12:46:20.826]23,25,28,29,32,,,,,1.41,0.74,1.20*0B
$GPGSV,5,1,17,10,20,345,24,12[2024/10/02, 12:46:20.967],22,085,16,18,66,176,20,23,41,025,22*7D
$GPGSV,5,2,17,25,42,125,16[2024/10/02, 12:46:21.108],28,49,233,22,29,15,161,15,32,25,314,23*71
$GPGSV,5,3,17,45,00,000[2024/10/02, 12:46:21.248],27,,32,109,18,,47,144,17,,72,336,27*7F
$GPGSV,5,4,17,,02,150,20,,[2024/10/02, 12:46:21.389]65,357,23,,61,179,18,,26,284,30*71
$GPGSV,5,5,17,,47,231,26*48
$G[2024/10/02, 12:46:21.529]PGLL,0114.3416,N,10338.8282,E,044619,A,D*41
$GPBOD,,T,,M,,*47
$G[2024/10/02, 12:46:21.670]PBWC,044619,,,,,,T,,M,,N,,D*70
$GPVTG,336.74,T,336.58,M,4.30,N,7.9[2024/10/02, 12:46:21.810]6,K,D*27
$PGRME,16.61,M,20.07,M,26.05,M*2A
$PGRMZ,54,f,3*2A
$PG[2024/10/02, 12:46:21.951]RMM,WGS 84*06
$HCHDM,,M*07
$WIMWV,,R,,,A*6D
$GPAPB,V,V,,,N,V,V,,[2024/10/02, 12:46:22.076],,,,,,N*68
$GPZDA,044619,02,10,2024,-08,00*64
[2024/10/02, 12:46:22.279]$GPRMC,044621,A,0114.3438,N,10338.8271,E,4.43,332.36,02102[2024/10/02, 12:46:22.545]4,0.16,E,D*20
$GPRMB,A,,,,,,,,,,,,V,D*19
$GPGGA,044621,0114.3438,[2024/10/02, 12:46:22.685]N,10338.8271,E,2,15,0.74,15.53,M,9.59,M,,*79
$GPGSA,A,3,10,12,18,[2024/10/02, 12:46:22.826]23,25,28,29,32,,,,,1.41,0.74,1.20*0B
$GPGSV,5,1,17,10,20,345,24,12[2024/10/02, 12:46:22.966],22,085,14,18,66,176,21,23,41,025,22*7E
$GPGSV,5,2,17,25,42,125,14[2024/10/02, 12:46:23.107],28,49,233,25,29,15,161,16,32,25,314,26*72
$GPGSV,5,3,17,45,00,000[2024/10/02, 12:46:23.248],27,,32,109,18,,47,144,18,,72,336,27*70
$GPGSV,5,4,17,,02,150,15,,[2024/10/02, 12:46:23.388]65,357,23,,61,179,17,,26,284,30*78
$GPGSV,5,5,17,,47,231,25*4B
$G[2024/10/02, 12:46:23.529]PGLL,0114.3438,N,10338.8271,E,044621,A,D*4A
$GPBOD,,T,,M,,*47
$GP[2024/10/02, 12:46:23.669]BWC,044621,,,,,,T,,M,,N,,D*7B
$GPVTG,332.36,T,332.20,M,4.43,N,8.2[2024/10/02, 12:46:23.810]0,K,D*28
$PGRME,16.65,M,20.01,M,26.03,M*2E
$PGRMZ,51,f,3*2F
$PGR[2024/10/02, 12:46:23.951]MM,WGS 84*06
$HCHDM,,M*07
$WIMWV,,R,,,A*6D
$GPAPB,V,V,,,N,V,V,,[2024/10/02, 12:46:24.076],,,,,,N*68
$GPZDA,044621,02,10,2024,-08,00*6F
[2024/10/02, 12:46:24.279]$GPRMC,044624,A,0114.3458,N,10338.8283,E,4.23,11.35,02102[2024/10/02, 12:46:24.544]4,0.16,E,D*19
$GPRMB,A,,,,,,,,,,,,V,D*19
$GPGGA,044624,0114.3458,[2024/10/02, 12:46:24.685]N,10338.8283,E,2,15,0.91,13.44,M,9.59,M,,*7C
$GPGSA,A,3,10,12,18,2[2024/10/02, 12:46:24.825]3,25,28,29,32,,,,,1.88,0.91,1.65*04
$GPGSV,5,1,18,05,02,124,17,10,[2024/10/02, 12:46:24.966]20,345,25,12,22,085,15,18,66,176,20*75
$GPGSV,5,2,18,23,41,025,23,[2024/10/02, 12:46:25.107]25,42,125,13,28,49,233,24,29,15,161,14*7F
$GPGSV,5,3,18,32,25,314,[2024/10/02, 12:46:25.247]24,45,00,000,27,,32,109,18,,47,144,15*72
$GPGSV,5,4,18,,72,336,26,[2024/10/02, 12:46:25.388],02,150,14,,65,357,20,,61,179,17*7B
$GPGSV,5,5,18,,26,284,31,,47,2[2024/10/02, 12:46:25.528]31,25*7C
$GPGLL,0114.3458,N,10338.8283,E,044624,A,D*44
$GPBOD,,T,[2024/10/02, 12:46:25.669],M,,*47
$GPBWC,044624,,,,,,T,,M,,N,,D*7E
$GPVTG,11.35,T,11.19,M,4[2024/10/02, 12:46:25.809].23,N,7.83,K,D*21
$PGRME,16.71,M,20.85,M,26.72,M*21
$PGRMZ,44,f,[2024/10/02, 12:46:25.950]3*2B
$PGRMM,WGS 84*06
$HCHDM,,M*07
$WIMWV,,R,,,A*6D
$GPAPB,V,V,[2024/10/02, 12:46:26.091],,N,V,V,,,,,,,,N*68
$GPZDA,044624,02,10,2024,-08,00*6A
[2024/10/02, 12:46:26.278]$GPRMC,044625,A,0114.3479,N,10338.8291,E,4.12,15.76,02102[2024/10/02, 12:46:26.544]4,0.16,E,D*19
$GPRMB,A,,,,,,,,,,,,V,D*19
$GPGGA,044625,0114.3479,[2024/10/02, 12:46:26.684]N,10338.8291,E,2,10,0.74,12.15,M,9.59,M,,*76
$GPGSA,A,3,10,12,18,2[2024/10/02, 12:46:26.825]3,25,28,29,32,,,,,1.41,0.74,1.20*0B
$GPGSV,5,1,18,05,02,124,19,10,[2024/10/02, 12:46:26.965]20,345,24,12,22,085,15,18,66,176,21*7B
$GPGSV,5,2,18,23,41,025,21,[2024/10/02, 12:46:27.106]25,42,125,14,28,49,233,24,29,15,161,14*7A
$GPGSV,5,3,18,32,25,314,[2024/10/02, 12:46:27.247]24,45,00,000,27,,32,109,19,,47,144,15*73
$GPGSV,5,4,18,,72,336,27,[2024/10/02, 12:46:27.387],02,150,13,,65,357,21,,61,179,19*72
$GPGSV,5,5,18,,26,284,31,,47,2[2024/10/02, 12:46:27.528]31,24*7D
$GPGLL,0114.3479,N,10338.8291,E,044625,A,D*45
$GPBOD,,T,[2024/10/02, 12:46:27.668],M,,*47
$GPBWC,044625,,,,,,T,,M,,N,,D*7F
$GPVTG,15.76,T,15.60,M,4[2024/10/02, 12:46:27.809].12,N,7.62,K,D*25
$PGRME,16.73,M,20.82,M,26.71,M*27
$PGRMZ,40,f,[2024/10/02, 12:46:27.950]3*2F
$PGRMM,WGS 84*06
$HCHDM,,M*07
$WIMWV,,R,,,A*6D
$GPAPB,V,V[2024/10/02, 12:46:28.090],,,N,V,V,,,,,,,,N*68
$GPZDA,044625,02,10,2024,-08,00*6B
[2024/10/02, 12:46:28.278]$GPRMC,044628,A,0114.3500,N,10338.8284,E,3.78,344.50,0210[2024/10/02, 12:46:28.543]24,0.16,E,D*27
$GPRMB,A,,,,,,,,,,,,V,D*19
$GPGGA,044628,0114.350[2024/10/02, 12:46:28.684]0,N,10338.8284,E,2,15,0.91,9.66,M,9.59,M,,*40
$GPGSA,A,3,10,12,18,[2024/10/02, 12:46:28.824]23,25,28,29,32,,,,,1.89,0.91,1.65*05
$GPGSV,5,1,18,05,02,124,19,10[2024/10/02, 12:46:28.965],20,345,23,12,22,085,14,18,66,176,22*7E
$GPGSV,5,2,18,23,41,025,21[2024/10/02, 12:46:29.106],25,42,125,14,28,49,233,24,29,15,161,15*7B
$GPGSV,5,3,18,32,25,314[2024/10/02, 12:46:29.246],25,45,00,000,27,,32,109,18,,47,144,17*71
$GPGSV,5,4,18,,72,336,27[2024/10/02, 12:46:29.387],,02,150,14,,65,357,23,,61,178,21*7D
$GPGSV,5,5,18,,26,284,30,,47,[2024/10/02, 12:46:29.527]231,25*7D
$GPGLL,0114.3500,N,10338.8284,E,044628,A,D*43
$GPBOD,,T[2024/10/02, 12:46:29.668],,M,,*47
$GPBWC,044628,,,,,,T,,M,,N,,D*72
$GPVTG,344.50,T,344.34,[2024/10/02, 12:46:29.809]M,3.78,N,7.00,K,D*2F
$PGRME,16.80,M,21.27,M,27.10,M*23
$PGRMZ,32[2024/10/02, 12:46:29.949],f,3*2A
$PGRMM,WGS 84*06
$HCHDM,,M*07
$WIMWV,,R,,,A*6D
$GPAPB,V[2024/10/02, 12:46:30.090],V,,,N,V,V,,,,,,,,N*68
$GPZDA,044628,02,10,2024,-08,00*66
[2024/10/02, 12:46:30.277]$GPRMC,044630,A,0114.3523,N,10338.8285,E,3.81,342.33,0210[2024/10/02, 12:46:30.543]24,0.16,E,D*2B
$GPRMB,A,,,,,,,,,,,,V,D*19
$GPGGA,044630,0114.352[2024/10/02, 12:46:30.683]3,N,10338.8285,E,2,10,0.91,8.87,M,9.59,M,,*42
$GPGSA,A,3,10,12,18,[2024/10/02, 12:46:30.824]23,25,28,29,32,,,,,1.88,0.91,1.65*04
$GPGSV,5,1,18,05,02,124,19,10[2024/10/02, 12:46:30.965],20,345,24,12,22,085,13,18,66,176,21*7D
$GPGSV,5,2,18,23,41,025,21[2024/10/02, 12:46:31.105],25,42,125,15,28,49,233,24,29,15,161,13*7C
$GPGSV,5,3,18,32,25,314[2024/10/02, 12:46:31.246],25,45,00,000,28,,32,109,17,,47,144,19*7F
$GPGSV,5,4,18,,72,336,27[2024/10/02, 12:46:31.386],,02,150,14,,65,357,23,,61,178,21*7D
$GPGSV,5,5,18,,27,284,30,,47,[2024/10/02, 12:46:31.527]231,25*7C
$GPGLL,0114.3523,N,10338.8285,E,044630,A,D*4A
$GPBOD,,T[2024/10/02, 12:46:31.668],,M,,*47
$GPBWC,044630,,,,,,T,,M,,N,,D*7B
$GPVTG,342.33,T,342.17,[2024/10/02, 12:46:31.808]M,3.81,N,7.06,K,D*2B
$PGRME,16.86,M,22.97,M,28.50,M*26
$PGRMZ,29[2024/10/02, 12:46:31.949],f,3*20
$PGRMM,WGS 84*06
$HCHDM,,M*07
$WIMWV,,R,,,A*6D
$GPAPB,[2024/10/02, 12:46:32.089]V,V,,,N,V,V,,,,,,,,N*68
$GPZDA,044630,02,10,2024,-08,00*6F
[2024/10/02, 12:46:32.277]$GPRMC,044631,A,0114.3545,N,10338.8279,E,3.86,343.65,0210[2024/10/02, 12:46:32.542]24,0.16,E,D*2C
$GPRMB,A,,,,,,,,,,,,V,D*19
$GPGGA,044631,0114.3545[2024/10/02, 12:46:32.683],N,10338.8279,E,2,10,0.74,7.65,M,9.59,M,,*48
$GPGSA,A,3,10,12,18,[2024/10/02, 12:46:32.824]23,25,28,29,32,,,,,1.41,0.74,1.20*0B
$GPGSV,5,1,18,05,02,124,17,10[2024/10/02, 12:46:32.964],20,345,22,12,22,085,13,18,66,176,20*74
$GPGSV,5,2,18,23,41,025,21[2024/10/02, 12:46:33.105],25,42,125,15,28,49,233,25,29,15,161,13*7D
$GPGSV,5,3,18,32,25,314[2024/10/02, 12:46:33.245],24,45,00,000,28,,32,109,17,,47,144,17*70
$GPGSV,5,4,18,,72,336,27,[2024/10/02, 12:46:33.386],02,150,14,,65,357,22,,61,178,18*76
$GPGSV,5,5,18,,27,284,31,,46,[2024/10/02, 12:46:33.527]230,25*7D
$GPGLL,0114.3545,N,10338.8279,E,044631,A,D*48
$GPBOD,,T[2024/10/02, 12:46:33.667],,M,,*47
$GPBWC,044631,,,,,,T,,M,,N,,D*7A
$GPVTG,343.65,T,343.49,[2024/10/02, 12:46:33.808]M,3.86,N,7.15,K,D*26
$PGRME,16.89,M,22.61,M,28.23,M*24
$PGRMZ,25[2024/10/02, 12:46:33.948],f,3*2C
$PGRMM,WGS 84*06
$HCHDM,,M*07
$WIMWV,,R,,,A*6D
$GPAPB,V[2024/10/02, 12:46:34.089],V,,,N,V,V,,,,,,,,N*68
$GPZDA,044631,02,10,2024,-08,00*6E
[2024/10/02, 12:46:34.276]$GPRMC,044634,A,0114.3574,N,10338.8288,E,4.22,2.68,02102[2024/10/02, 12:46:34.542]4,0.16,E,D*27
$GPRMB,A,,,,,,,,,,,,V,D*19
$GPGGA,044634,0114.3574,[2024/10/02, 12:46:34.682]N,10338.8288,E,2,10,0.91,5.93,M,9.59,M,,*41
$GPGSA,A,3,10,12,18,23[2024/10/02, 12:46:34.823],25,28,29,32,,,,,1.89,0.91,1.65*05
$GPGSV,5,1,18,05,02,124,22,10,2[2024/10/02, 12:46:34.964]0,345,23,12,22,085,15,18,66,176,20*75
$GPGSV,5,2,18,23,41,025,23,2[2024/10/02, 12:46:35.104]5,42,125,13,28,49,233,25,29,15,161,14*7E
$GPGSV,5,3,18,32,25,314,2[2024/10/02, 12:46:35.245]1,45,00,000,28,,32,109,17,,47,144,20*71
$GPGSV,5,4,18,,72,336,27,,[2024/10/02, 12:46:35.385]02,150,13,,65,357,22,,61,178,22*78
$GPGSV,5,5,18,,27,284,31,,46,23[2024/10/02, 12:46:35.526]0,25*7D
$GPGLL,0114.3574,N,10338.8288,E,044634,A,D*41
$GPBOD,,T,,[2024/10/02, 12:46:35.667]M,,*47
$GPBWC,044634,,,,,,T,,M,,N,,D*7F
$GPVTG,2.68,T,2.52,M,4.2[2024/10/02, 12:46:35.807]2,N,7.82,K,D*26
$PGRME,17.00,M,23.92,M,29.35,M*2F
$PGRMZ,19,f,3*2[2024/10/02, 12:46:35.948]3
$PGRMM,WGS 84*06
$HCHDM,,M*07
$WIMWV,,R,,,A*6D
$GPAPB,V,V,,,[2024/10/02, 12:46:36.088]N,V,V,,,,,,,,N*68
$GPZDA,044634,02,10,2024,-08,00*6B
[2024/10/02, 12:46:36.276]$GPRMC,044636,A,0114.3598,N,10338.8290,E,4.24,2.10,02102[2024/10/02, 12:46:36.541]4,0.16,E,D*27
$GPRMB,A,,,,,,,,,,,,V,D*19
$GPGGA,044636,0114.3598,[2024/10/02, 12:46:36.682]N,10338.8290,E,2,10,0.91,5.16,M,9.59,M,,*45
$GPGSA,A,3,10,12,18,23[2024/10/02, 12:46:36.823],25,28,29,32,,,,,1.88,0.91,1.65*04
$GPGSV,5,1,18,05,02,124,18,10,2[2024/10/02, 12:46:36.963]0,345,23,12,22,085,14,18,66,176,23*7E
$GPGSV,5,2,18,23,41,025,20,2[2024/10/02, 12:46:37.104]5,42,125,13,28,49,233,25,29,15,161,14*7D
$GPGSV,5,3,18,32,25,314,2[2024/10/02, 12:46:37.244]4,45,00,000,28,,32,109,17,,47,144,17*70
$GPGSV,5,4,18,,72,336,27,,[2024/10/02, 12:46:37.385]02,150,13,,65,357,23,,61,178,19*71
$GPGSV,5,5,18,,27,284,31,,46,23[2024/10/02, 12:46:37.525]0,26*7E
$GPGLL,0114.3598,N,10338.8290,E,044636,A,D*48
$GPBOD,,T,,[2024/10/02, 12:46:37.666]M,,*47
$GPBWC,044636,,,,,,T,,M,,N,,D*7D
$GPVTG,2.10,T,1.94,M,4.2[2024/10/02, 12:46:37.807]4,N,7.85,K,D*21
$PGRME,17.04,M,24.83,M,30.12,M*21
$PGRMZ,17,f,3*[2024/10/02, 12:46:37.947]2D
$PGRMM,WGS 84*06
$HCHDM,,M*07
$WIMWV,,R,,,A*6D
$GPAPB,V,V,,,[2024/10/02, 12:46:38.088]N,V,V,,,,,,,,N*68
$GPZDA,044636,02,10,2024,-08,00*69
[2024/10/02, 12:46:38.275]$GPRMC,044637,A,0114.3619,N,10338.8285,E,4.21,8.04,02102[2024/10/02, 12:46:38.541]4,0.16,E,D*22
$GPRMB,A,,,,,,,,,,,,V,D*19
$GPGGA,044637,0114.3619,[2024/10/02, 12:46:38.681]N,10338.8285,E,2,15,0.74,4.02,M,9.59,M,,*40
$GPGSA,A,3,10,12,18,23[2024/10/02, 12:46:38.822],25,28,29,32,,,,,1.40,0.74,1.20*0A
$GPGSV,5,1,18,05,02,124,19,10,2[2024/10/02, 12:46:38.963]0,345,23,12,22,085,14,18,66,176,20*7C
$GPGSV,5,2,18,23,41,025,19,2[2024/10/02, 12:46:39.107]5,42,125,17,28,49,233,22,29,15,161,15*75
$GPGSV,5,3,18,32,25,314,21[2024/10/02, 12:46:39.247],45,00,000,28,,32,109,17,,47,144,18*7A
$GPGSV,5,4,18,,72,336,27,,0[2024/10/02, 12:46:39.388]2,150,13,,65,357,21,,61,178,19*73
$GPGSV,5,5,18,,27,284,31,,46,230[2024/10/02, 12:46:39.529],26*7E
$GPGLL,0114.3619,N,10338.8285,E,044637,A,D*47
$GPBOD,,T,,M[2024/10/02, 12:46:39.669],,*47
$GPBWC,044637,,,,,,T,,M,,N,,D*7C
$GPVTG,8.04,T,7.88,M,4.21,[2024/10/02, 12:46:39.810]N,7.79,K,D*23
$PGRME,17.12,M,23.85,M,29.36,M*29
$PGRMZ,13,f,3*29[2024/10/02, 12:46:39.950]
$PGRMM,WGS 84*06
$HCHDM,,M*07
$WIMWV,,R,,,A*6D
$GPAPB,V,V,,,N,[2024/10/02, 12:46:40.091]V,V,,,,,,,,N*68
$GPZDA,044637,02,10,2024,-08,00*68
[2024/10/02, 12:46:40.278]$GPRMC,044639,A,0114.3644,N,10338.8283,E,4.28,11.84,021024[2024/10/02, 12:46:40.544],0.16,E,D*1B
$GPRMB,A,,,,,,,,,,,,V,D*19
$GPGGA,044639,0114.3644,[2024/10/02, 12:46:40.685]N,10338.8283,E,2,15,0.74,1.98,M,9.59,M,,*46
$GPGSA,A,3,10,12,18,23[2024/10/02, 12:46:40.825],25,28,29,32,,,,,1.41,0.74,1.20*0B
$GPGSV,5,1,18,05,02,124,20,10,2[2024/10/02, 12:46:40.966]0,345,23,12,22,085,14,18,66,176,22*74
$GPGSV,5,2,18,23,41,025,20,2[2024/10/02, 12:46:41.106]5,42,125,15,28,49,233,23,29,15,161,16*7F
$GPGSV,5,3,18,32,25,314,2[2024/10/02, 12:46:41.247]3,45,00,000,28,,32,109,17,,47,144,19*79
$GPGSV,5,4,18,,72,336,27,,[2024/10/02, 12:46:41.388]02,150,13,,65,357,23,,61,178,20*7B
$GPGSV,5,5,18,,27,284,31,,46,23[2024/10/02, 12:46:41.528]0,26*7E
$GPGLL,0114.3644,N,10338.8283,E,044639,A,D*47
$GPBOD,,T,,[2024/10/02, 12:46:41.669]M,,*47
$GPBWC,044639,,,,,,T,,M,,N,,D*72
$GPVTG,11.84,T,11.68,M,4.[2024/10/02, 12:46:41.809]28,N,7.93,K,D*27
$PGRME,17.18,M,22.97,M,28.69,M*2A
$PGRMZ,6,f,3*[2024/10/02, 12:46:41.950]1D
$PGRMM,WGS 84*06
$HCHDM,,M*07
$WIMWV,,R,,,A*6D
$GPAPB,V,V,,[2024/10/02, 12:46:42.090],N,V,V,,,,,,,,N*68
$GPZDA,044639,02,10,2024,-08,00*66
[2024/10/02, 12:46:42.278]$GPRMC,044641,A,0114.3665,N,10338.8273,E,4.28,341.11,0210[2024/10/02, 12:46:42.543]24,0.16,E,D*22
$GPRMB,A,,,,,,,,,,,,V,D*19
$GPGGA,044641,0114.3665[2024/10/02, 12:46:42.684],N,10338.8273,E,2,15,0.74,1.02,M,9.59,M,,*46
$GPGSA,A,3,10,12,18,2[2024/10/02, 12:46:42.825]3,25,28,29,32,,,,,1.41,0.74,1.20*0B
$GPGSV,5,1,18,05,02,124,20,10,[2024/10/02, 12:46:42.965]20,345,22,12,22,085,13,18,66,176,22*72
$GPGSV,5,2,18,23,41,025,22,[2024/10/02, 12:46:43.106]25,42,125,15,28,49,233,25,29,15,161,16*7B
$GPGSV,5,3,18,32,25,314,[2024/10/02, 12:46:43.246]24,45,00,000,28,,32,109,17,,47,144,18*7F
$GPGSV,5,4,18,,72,336,28,[2024/10/02, 12:46:43.387],02,150,13,,65,357,21,,61,178,20*76
$GPGSV,5,5,18,,27,284,31,,46,2[2024/10/02, 12:46:43.528]30,25*7D
$GPGLL,0114.3665,N,10338.8273,E,044641,A,D*44
$GPBOD,,T,[2024/10/02, 12:46:43.668],M,,*47
$GPBWC,044641,,,,,,T,,M,,N,,D*7D
$GPVTG,341.11,T,340.94,[2024/10/02, 12:46:43.809]M,4.28,N,7.92,K,D*28
$PGRME,17.23,M,22.46,M,28.31,M*23
$PGRMZ,3,f[2024/10/02, 12:46:43.949],3*18
$PGRMM,WGS 84*06
$HCHDM,,M*07
$WIMWV,,R,,,A*6D
$GPAPB,V,[2024/10/02, 12:46:44.090]V,,,N,V,V,,,,,,,,N*68
$GPZDA,044641,02,10,2024,-08,00*69
[2024/10/02, 12:46:44.277]$GPRMC,044643,A,0114.3687,N,10338.8264,E,4.27,338.27,0210[2024/10/02, 12:46:44.543]24,0.16,E,D*2E
$GPRMB,A,,,,,,,,,,,,V,D*19
$GPGGA,044643,0114.3687[2024/10/02, 12:46:44.683],N,10338.8264,E,2,15,0.74,-0.13,M,9.59,M,,*62
$GPGSA,A,3,10,12,18,[2024/10/02, 12:46:44.824]23,25,28,29,32,,,,,1.41,0.74,1.20*0B
$GPGSV,5,1,18,05,02,124,14,10[2024/10/02, 12:46:44.965],20,345,24,12,22,085,13,18,66,176,21*70
$GPGSV,5,2,18,23,41,025,20[2024/10/02, 12:46:45.105],25,42,125,15,28,49,233,25,29,15,161,16*79
$GPGSV,5,3,18,32,25,314[2024/10/02, 12:46:45.246],22,45,00,000,28,,32,109,17,,47,144,18*79
$GPGSV,5,4,18,,72,336,27[2024/10/02, 12:46:45.386],,02,150,13,,65,357,22,,61,178,21*7B
$GPGSV,5,5,18,,27,284,31,,46,[2024/10/02, 12:46:45.527]230,25*7D
$GPGLL,0114.3687,N,10338.8264,E,044643,A,D*4C
$GPBOD,,T[2024/10/02, 12:46:45.668],,M,,*47
$GPBWC,044643,,,,,,T,,M,,N,,D*7F
$GPVTG,338.27,T,338.11[2024/10/02, 12:46:45.808],M,4.27,N,7.90,K,D*2C
$PGRME,17.28,M,21.97,M,27.95,M*26
$PGRMZ,0,[2024/10/02, 12:46:45.949]f,3*1B
$PGRMM,WGS 84*06
$HCHDM,,M*07
$WIMWV,,R,,,A*6D
$GPAPB,V[2024/10/02, 12:46:46.089],V,,,N,V,V,,,,,,,,N*68
$GPZDA,044643,02,10,2024,-08,00*6B
[2024/10/02, 12:46:46.277]$GPRMC,044646,A,0114.3709,N,10338.8274,E,4.25,4.11,021024[2024/10/02, 12:46:46.542],0.16,E,D*26
$GPRMB,A,,,,,,,,,,,,V,D*19
$GPGGA,044646,0114.3709,N[2024/10/02, 12:46:46.683],10338.8274,E,2,15,0.91,-2.99,M,9.59,M,,*6A
$GPGSA,A,3,10,12,18,23[2024/10/02, 12:46:46.824],25,28,29,32,,,,,1.88,0.91,1.65*04
$GPGSV,5,1,18,05,02,124,14,10,[2024/10/02, 12:46:46.964]20,345,21,12,22,085,14,18,66,176,21*72
$GPGSV,5,2,18,23,41,025,21,[2024/10/02, 12:46:47.105]25,42,125,21,28,49,233,22,29,15,161,15*7B
$GPGSV,5,3,18,32,25,314,[2024/10/02, 12:46:47.245]25,50,42,091,00,,32,109,17,,47,144,18*7E
$GPGSV,5,4,18,,72,336,28,,[2024/10/02, 12:46:47.386]02,150,13,,65,357,23,,61,178,23*77
$GPGSV,5,5,18,,27,284,31,,46,23[2024/10/02, 12:46:47.527]0,27*7F
$GPGLL,0114.3709,N,10338.8274,E,044646,A,D*4F
$GPBOD,,T,[2024/10/02, 12:46:47.667],M,,*47
$GPBWC,044646,,,,,,T,,M,,N,,D*7A
$GPVTG,4.11,T,3.94,M,4.2[2024/10/02, 12:46:47.808]5,N,7.86,K,D*26
$PGRME,17.33,M,22.16,M,28.13,M*27
$PGRMZ,-10,f,3[2024/10/02, 12:46:47.948]*07
$PGRMM,WGS 84*06
$HCHDM,,M*07
$WIMWV,,R,,,A*6D
$GPAPB,V,V,,[2024/10/02, 12:46:48.089],N,V,V,,,,,,,,N*68
$GPZDA,044646,02,10,2024,-08,00*6E
[2024/10/02, 12:46:48.276]$GPRMC,044648,A,0114.3732,N,10338.8279,E,4.09,3.01,021024[2024/10/02, 12:46:48.542],0.16,E,D*25
$GPRMB,A,,,,,,,,,,,,V,D*19
$GPGGA,044648,0114.3732,[2024/10/02, 12:46:48.682]N,10338.8279,E,2,10,0.91,-3.66,M,9.59,M,,*65
$GPGSA,A,3,10,12,18,2[2024/10/02, 12:46:48.823]3,25,28,29,32,,,,,1.89,0.91,1.65*05
$GPGSV,5,1,18,05,02,124,15,10,[2024/10/02, 12:46:48.964]20,345,25,12,22,085,13,18,66,176,21*70
$GPGSV,5,2,18,23,41,025,21,[2024/10/02, 12:46:49.104]25,42,125,21,28,49,233,21,29,15,161,15*78
$GPGSV,5,3,18,32,25,314,[2024/10/02, 12:46:49.245]23,50,42,091,00,,32,109,13,,47,144,19*7D
$GPGSV,5,4,18,,72,336,27,[2024/10/02, 12:46:49.386],02,150,13,,65,357,21,,61,178,25*7C
$GPGSV,5,5,18,,27,284,30,,46,2[2024/10/02, 12:46:49.526]30,27*7E
$GPGLL,0114.3732,N,10338.8279,E,044648,A,D*44
$GPBOD,,T,[2024/10/02, 12:46:49.667],M,,*47
$GPBWC,044648,,,,,,T,,M,,N,,D*74
$GPVTG,3.01,T,2.85,M,4.[2024/10/02, 12:46:49.807]09,N,7.57,K,D*23
$PGRME,17.38,M,23.83,M,29.50,M*27
$PGRMZ,-12,f,3[2024/10/02, 12:46:49.948]*05
$PGRMM,WGS 84*06
$HCHDM,,M*07
$WIMWV,,R,,,A*6D
$GPAPB,V,V,[2024/10/02, 12:46:50.088],,N,V,V,,,,,,,,N*68
$GPZDA,044648,02,10,2024,-08,00*60
[2024/10/02, 12:46:50.276]$GPRMC,044650,A,0114.3755,N,10338.8284,E,3.97,1.07,02102[2024/10/02, 12:46:50.542]4,0.16,E,D*2B
$GPRMB,A,,,,,,,,,,,,V,D*19
$GPGGA,044650,0114.3755,[2024/10/02, 12:46:50.682]N,10338.8284,E,2,10,0.91,-4.07,M,9.59,M,,*6F
$GPGSA,A,3,10,12,18,2[2024/10/02, 12:46:50.823]3,25,28,29,32,,,,,1.88,0.91,1.65*04
$GPGSV,5,1,18,05,02,124,14,10,[2024/10/02, 12:46:50.963]20,345,24,12,22,085,13,18,66,176,22*73
$GPGSV,5,2,18,23,41,025,24,[2024/10/02, 12:46:51.104]25,42,125,20,28,49,233,24,29,15,161,15*79
$GPGSV,5,3,18,32,25,314,[2024/10/02, 12:46:51.244]24,50,42,091,00,,32,109,13,,47,144,18*7B
$GPGSV,5,4,18,,72,336,27,[2024/10/02, 12:46:51.385],02,150,14,,65,357,23,,61,178,23*7F
$GPGSV,5,5,18,,27,284,30,,46,2[2024/10/02, 12:46:51.526]30,27*7E
$GPGLL,0114.3755,N,10338.8284,E,044650,A,D*4E
$GPBOD,,T,[2024/10/02, 12:46:51.666],M,,*47
$GPBWC,044650,,,,,,T,,M,,N,,D*7D
$GPVTG,1.07,T,0.91,M,3.[2024/10/02, 12:46:51.807]97,N,7.36,K,D*27
$PGRME,17.46,M,25.61,M,30.99,M*29
$PGRMZ,-13,f,[2024/10/02, 12:46:51.947]3*04
$PGRMM,WGS 84*06
$HCHDM,,M*07
$WIMWV,,R,,,A*6D
$GPAPB,V,V,[2024/10/02, 12:46:52.088],,N,V,V,,,,,,,,N*68
$GPZDA,044650,02,10,2024,-08,00*69
[2024/10/02, 12:46:52.275]$GPRMC,044652,A,0114.3778,N,10338.8291,E,3.86,10.12,0210[2024/10/02, 12:46:52.541]24,0.16,E,D*16
$GPRMB,A,,,,,,,,,,,,V,D*19
$GPGGA,044652,0114.377[2024/10/02, 12:46:52.682]8,N,10338.8291,E,2,10,0.91,-4.40,M,9.59,M,,*65
$GPGSA,A,3,10,12,18[2024/10/02, 12:46:52.822],23,25,28,29,32,,,,,1.88,0.91,1.65*04
$GPGSV,5,1,18,05,02,124,14,1[2024/10/02, 12:46:52.963]0,20,345,25,12,22,085,13,18,66,176,22*72
$GPGSV,5,2,18,23,41,025,2[2024/10/02, 12:46:53.103]2,25,42,125,21,28,49,233,24,29,15,161,15*7E
$GPGSV,5,3,18,32,25,31[2024/10/02, 12:46:53.244]4,25,50,42,091,00,,32,109,13,,47,144,18*7A
$GPGSV,5,4,18,,72,336,2[2024/10/02, 12:46:53.385]7,,02,150,14,,65,357,23,,61,178,24*78
$GPGSV,5,5,18,,27,284,30,,46,[2024/10/02, 12:46:53.525]230,27*7E
$GPGLL,0114.3778,N,10338.8291,E,044652,A,D*47
$GPBOD,,[2024/10/02, 12:46:53.666]T,,M,,*47
$GPBWC,044652,,,,,,T,,M,,N,,D*7F
$GPVTG,10.12,T,9.95,M[2024/10/02, 12:46:53.806],3.86,N,7.14,K,D*1E
$PGRME,17.56,M,27.49,M,32.62,M*26
$PGRMZ,-14,[2024/10/02, 12:46:53.947]f,3*03
$PGRMM,WGS 84*06
$HCHDM,,M*07
$WIMWV,,R,,,A*6D
$GPAPB,V[2024/10/02, 12:46:54.087],V,,,N,V,V,,,,,,,,N*68
$GPZDA,044652,02,10,2024,-08,00*6B
[2024/10/02, 12:46:54.275]$GPRMC,044654,A,0114.3801,N,10338.8297,E,3.85,9.43,02102[2024/10/02, 12:46:54.541]4,0.16,E,D*28
$GPRMB,A,,,,,,,,,,,,V,D*19
$GPGGA,044654,0114.3801,[2024/10/02, 12:46:54.681]N,10338.8297,E,2,10,0.91,-4.80,M,9.59,M,,*68
$GPGSA,A,3,10,12,18,2[2024/10/02, 12:46:54.822]3,25,28,29,32,,,,,1.89,0.91,1.65*05
$GPGSV,5,1,18,05,02,124,16,10,[2024/10/02, 12:46:54.962]20,345,25,12,22,085,13,18,66,176,20*72
$GPGSV,5,2,18,23,41,025,18,[2024/10/02, 12:46:55.103]25,42,125,19,28,49,233,22,29,15,161,15*7A
$GPGSV,5,3,18,32,25,314,[2024/10/02, 12:46:55.243]22,50,42,091,00,,32,109,13,,47,144,18*7D
$GPGSV,5,4,18,,72,336,28,[2024/10/02, 12:46:55.384],02,150,13,,65,357,22,,61,178,21*74
$GPGSV,5,5,18,,27,284,30,,46,2[2024/10/02, 12:46:55.525]30,27*7E
$GPGLL,0114.3801,N,10338.8297,E,044654,A,D*46
$GPBOD,,T[2024/10/02, 12:46:55.665],,M,,*47
$GPBWC,044654,,,,,,T,,M,,N,,D*79
$GPVTG,9.43,T,9.27,M,3.[2024/10/02, 12:46:55.806]85,N,7.14,K,D*28
$PGRME,17.69,M,29.49,M,34.39,M*2C
$PGRMZ,-16,f,[2024/10/02, 12:46:55.946]3*01
$PGRMM,WGS 84*06
$HCHDM,,M*07
$WIMWV,,R,,,A*6D
$GPAPB,V,V,[2024/10/02, 12:46:56.087],,N,V,V,,,,,,,,N*68
$GPZDA,044654,02,10,2024,-08,00*6D
[2024/10/02, 12:46:56.274]$GPRMC,044656,A,0114.3825,N,10338.8303,E,3.85,4.67,02102[2024/10/02, 12:46:56.540]4,0.16,E,D*2B
$GPRMB,A,,,,,,,,,,,,V,D*19
$GPGGA,044656,0114.3825[2024/10/02, 12:46:56.681],N,10338.8303,E,2,10,0.91,-5.17,M,9.59,M,,*6F
$GPGSA,A,3,10,12,18,2[2024/10/02, 12:46:56.821]3,25,28,29,32,,,,,1.89,0.91,1.65*05
$GPGSV,5,1,18,05,02,124,17,10[2024/10/02, 12:46:56.962],21,345,23,12,22,085,15,18,66,176,22*70
$GPGSV,5,2,18,23,41,025,21[2024/10/02, 12:46:57.102],25,42,125,19,28,49,233,24,29,15,161,15*76
$GPGSV,5,3,18,32,25,314[2024/10/02, 12:46:57.243],21,50,42,091,00,,32,109,16,,47,144,20*70
$GPGSV,5,4,18,,72,336,28,[2024/10/02, 12:46:57.384],02,150,13,,65,357,22,,61,178,23*76
$GPGSV,5,5,18,,27,284,30,,46,2[2024/10/02, 12:46:57.524]30,24*7D
$GPGLL,0114.3825,N,10338.8303,E,044656,A,D*4E
$GPBOD,,T[2024/10/02, 12:46:57.665],,M,,*47
$GPBWC,044656,,,,,,T,,M,,N,,D*7B
$GPVTG,4.67,T,4.51,M,3.[2024/10/02, 12:46:57.805]85,N,7.13,K,D*28
$PGRME,17.83,M,31.52,M,36.21,M*20
$PGRMZ,-17,f,[2024/10/02, 12:46:57.946]3*00
$PGRMM,WGS 84*06
$HCHDM,,M*07
$WIMWV,,R,,,A*6D
$GPAPB,V,V,[2024/10/02, 12:46:58.087],,N,V,V,,,,,,,,N*68
$GPZDA,044656,02,10,2024,-08,00*6F
[2024/10/02, 12:46:58.274]$GPRMC,044658,A,0114.3849,N,10338.8294,E,3.81,349.80,021[2024/10/02, 12:46:58.540]024,0.16,E,D*27
$GPRMB,A,,,,,,,,,,,,V,D*19
$GPGGA,044658,0114.38[2024/10/02, 12:46:58.680]49,N,10338.8294,E,2,15,0.91,-3.90,M,9.59,M,,*68
$GPGSA,A,3,10,12,1[2024/10/02, 12:46:58.821]8,23,25,28,29,32,,,,,1.88,0.91,1.65*04
$GPGSV,5,1,18,05,02,124,16,[2024/10/02, 12:46:58.961]10,21,345,23,12,22,085,14,18,66,176,21*73
$GPGSV,5,2,18,23,41,025,[2024/10/02, 12:46:59.102]21,25,42,125,15,28,49,233,23,29,15,161,15*7D
$GPGSV,5,3,18,32,25,3[2024/10/02, 12:46:59.243]14,24,50,42,091,00,,32,109,17,,47,144,17*70
$GPGSV,5,4,18,,72,336,[2024/10/02, 12:46:59.383]28,,02,150,13,,65,357,21,,61,178,18*7D
$GPGSV,5,5,18,,27,284,31,,4[2024/10/02, 12:46:59.524]6,230,25*7D
$GPGLL,0114.3849,N,10338.8294,E,044658,A,D*45
$GPBOD,[2024/10/02, 12:46:59.664],T,,M,,*47
$GPBWC,044658,,,,,,T,,M,,N,,D*75
$GPVTG,349.80,T,349.[2024/10/02, 12:46:59.805]64,M,3.81,N,7.05,K,D*24
$PGRME,17.97,M,31.48,M,36.24,M*2B
$PGRMZ,[2024/10/02, 12:46:59.946]-13,f,3*04
$PGRMM,WGS 84*06
$HCHDM,,M*07
$WIMWV,,R,,,A*6D
$GPA[2024/10/02, 12:47:00.086]PB,V,V,,,N,V,V,,,,,,,,N*68
$GPZDA,044658,02,10,2024,-08,00*61
[2024/10/02, 12:47:00.273]$GPRMC,044659,A,0114.3870,N,10338.8281,E,3.91,336.07,02102[2024/10/02, 12:47:00.544]4,0.16,E,D*2E
$GPRMB,A,,,,,,,,,,,,V,D*19
$GPGGA,044659,0114.3870[2024/10/02, 12:47:00.684],N,10338.8281,E,2,10,0.74,-3.47,M,9.59,M,,*63
$GPGSA,A,3,10,12,18,[2024/10/02, 12:47:00.825]23,25,28,29,32,,,,,1.41,0.74,1.20*0B
$GPGSV,5,1,18,05,02,124,16,10[2024/10/02, 12:47:00.965],21,345,23,12,22,085,14,18,66,176,22*70
$GPGSV,5,2,18,23,41,025,20[2024/10/02, 12:47:01.106],25,42,125,15,28,49,233,24,29,15,161,15*7B
$GPGSV,5,3,18,32,25,314[2024/10/02, 12:47:01.247],25,50,42,091,00,,32,109,18,,47,144,17*7E
$GPGSV,5,4,18,,72,336,26[2024/10/02, 12:47:01.387],,02,150,13,,65,357,22,,61,178,17*7F
$GPGSV,5,5,18,,27,284,31,,46,[2024/10/02, 12:47:01.528]230,25*7D
$GPGLL,0114.3870,N,10338.8281,E,044659,A,D*4A
$GPBOD,,T[2024/10/02, 12:47:01.668],,M,,*47
$GPBWC,044659,,,,,,T,,M,,N,,D*74
$GPVTG,336.07,T,335.91,[2024/10/02, 12:47:01.809]M,3.91,N,7.25,K,D*21
$PGRME,18.03,M,30.49,M,35.42,M*2A
$PGRMZ,-1[2024/10/02, 12:47:01.950]1,f,3*06
$PGRMM,WGS 84*06
$HCHDM,,M*07
$WIMWV,,R,,,A*6D
$GPAPB,[2024/10/02, 12:47:02.090]V,V,,,N,V,V,,,,,,,,N*68
$GPZDA,044659,02,10,2024,-08,00*60
[2024/10/02, 12:47:02.278]$GPRMC,044702,A,0114.3895,N,10338.8276,E,3.92,353.21,0210[2024/10/02, 12:47:02.543]24,0.16,E,D*26
$GPRMB,A,,,,,,,,,,,,V,D*19
$GPGGA,044702,0114.3895[2024/10/02, 12:47:02.684],N,10338.8276,E,2,10,0.91,-2.65,M,9.59,M,,*65
$GPGSA,A,3,10,12,18[2024/10/02, 12:47:02.824],23,25,28,29,32,,,,,1.89,0.91,1.65*05
$GPGSV,5,1,18,05,02,124,19,1[2024/10/02, 12:47:02.965]0,21,345,25,12,22,085,14,18,66,176,19*71
$GPGSV,5,2,18,23,41,025,1[2024/10/02, 12:47:03.106]8,25,42,125,15,28,49,233,23,29,15,161,14*76
$GPGSV,5,3,18,32,25,31[2024/10/02, 12:47:03.246]4,20,50,42,091,00,,32,109,17,,47,144,17*74
$GPGSV,5,4,18,,72,336,2[2024/10/02, 12:47:03.387]6,,02,150,13,,65,357,21,,61,178,21*79
$GPGSV,5,5,18,,27,284,31,,46[2024/10/02, 12:47:03.527],230,26*7E
$GPGLL,0114.3895,N,10338.8276,E,044702,A,D*46
$GPBOD,,[2024/10/02, 12:47:03.668]T,,M,,*47
$GPBWC,044702,,,,,,T,,M,,N,,D*7B
$GPVTG,353.21,T,353.05[2024/10/02, 12:47:03.808],M,3.92,N,7.27,K,D*2A
$PGRME,18.22,M,31.52,M,36.41,M*22
$PGRMZ,-[2024/10/02, 12:47:03.949]9,f,3*3F
$PGRMM,WGS 84*06
$HCHDM,,M*07
$WIMWV,,R,,,A*6D
$GPAPB[2024/10/02, 12:47:04.090],V,V,,,N,V,V,,,,,,,,N*68
$GPZDA,044702,02,10,2024,-08,00*6F
[2024/10/02, 12:47:04.277]$GPRMC,044704,A,0114.3917,N,10338.8275,E,3.91,350.42,0210[2024/10/02, 12:47:04.543]24,0.16,E,D*2D
$GPRMB,A,,,,,,,,,,,,V,D*19
$GPGGA,044704,0114.3917[2024/10/02, 12:47:04.683],N,10338.8275,E,2,10,0.91,-2.73,M,9.59,M,,*6C
$GPGSA,A,3,10,12,18,[2024/10/02, 12:47:04.824]23,25,28,29,32,,,,,1.89,0.91,1.65*05
$GPGSV,5,1,18,05,02,124,15,10[2024/10/02, 12:47:04.964],21,345,24,12,22,085,15,18,66,176,21*76
$GPGSV,5,2,18,23,41,025,18[2024/10/02, 12:47:05.105],25,42,125,21,28,49,233,26,29,15,161,14*74
$GPGSV,5,3,18,32,25,314[2024/10/02, 12:47:05.246],21,50,42,091,00,,32,109,17,,47,144,17*75
$GPGSV,5,4,18,,72,336,27[2024/10/02, 12:47:05.386],,02,150,14,,65,357,22,,61,178,22*7F
$GPGSV,5,5,18,,27,284,31,,46,[2024/10/02, 12:47:05.527]230,27*7F
$GPGLL,0114.3917,N,10338.8275,E,044704,A,D*48
$GPBOD,,T[2024/10/02, 12:47:05.667],,M,,*47
$GPBWC,044704,,,,,,T,,M,,N,,D*7D
$GPVTG,350.42,T,350.26[2024/10/02, 12:47:05.808],M,3.91,N,7.24,K,D*2E
$PGRME,18.30,M,32.51,M,37.31,M*27
$PGRMZ,-9[2024/10/02, 12:47:05.949],f,3*3F
$PGRMM,WGS 84*06
$HCHDM,,M*07
$WIMWV,,R,,,A*6D
$GPAPB,[2024/10/02, 12:47:06.089]V,V,,,N,V,V,,,,,,,,N*68
$GPZDA,044704,02,10,2024,-08,00*69
[2024/10/02, 12:47:06.277]$GPRMC,044706,A,0114.3940,N,10338.8260,E,3.93,339.25,0210[2024/10/02, 12:47:06.542]24,0.16,E,D*25
$GPRMB,A,,,,,,,,,,,,V,D*19
$GPGGA,044706,0114.3940[2024/10/02, 12:47:06.683],N,10338.8260,E,2,15,0.91,-4.86,M,9.59,M,,*61
$GPGSA,A,3,10,12,18,[2024/10/02, 12:47:06.823]23,25,28,29,32,,,,,1.89,0.91,1.65*05
$GPGSV,5,1,18,05,02,124,14,1[2024/10/02, 12:47:06.964]0,21,345,23,12,22,085,15,18,66,176,21*70
$GPGSV,5,2,18,23,41,025,20[2024/10/02, 12:47:07.105],25,42,125,19,28,49,233,24,29,15,161,13*71
$GPGSV,5,3,18,32,25,314[2024/10/02, 12:47:07.245],21,50,42,091,00,,32,109,16,,47,144,19*7A
$GPGSV,5,4,18,,72,336,27[2024/10/02, 12:47:07.386],,02,150,13,,65,357,22,,61,178,22*78
$GPGSV,5,5,18,,27,284,30,,46,[2024/10/02, 12:47:07.526]230,27*7E
$GPGLL,0114.3940,N,10338.8260,E,044706,A,D*4C
$GPBOD,,T[2024/10/02, 12:47:07.667],,M,,*47
$GPBWC,044706,,,,,,T,,M,,N,,D*7F
$GPVTG,339.25,T,339.09[2024/10/02, 12:47:07.807],M,3.93,N,7.28,K,D*2C
$PGRME,18.48,M,30.86,M,35.97,M*2E
$PGRMZ,-1[2024/10/02, 12:47:07.948]6,f,3*01
$PGRMM,WGS 84*06
$HCHDM,,M*07
$WIMWV,,R,,,A*6D
$GPAP[2024/10/02, 12:47:08.089]B,V,V,,,N,V,V,,,,,,,,N*68
$GPZDA,044706,02,10,2024,-08,00*6B
[2024/10/02, 12:47:08.276]$GPRMC,044707,A,0114.3961,N,10338.8249,E,3.95,336.71,0210[2024/10/02, 12:47:08.542]24,0.16,E,D*24
$GPRMB,A,,,,,,,,,,,,V,D*19
$GPGGA,044707,0114.396[2024/10/02, 12:47:08.682]1,N,10338.8249,E,2,10,0.74,-5.40,M,9.59,M,,*6D
$GPGSA,A,3,10,12,18[2024/10/02, 12:47:08.823],23,25,28,29,32,,,,,1.41,0.74,1.20*0B
$GPGSV,5,1,18,05,02,124,14,1[2024/10/02, 12:47:08.964]0,21,345,24,12,22,085,15,18,66,176,20*76
$GPGSV,5,2,18,23,41,025,2[2024/10/02, 12:47:09.104]0,25,42,125,17,28,49,233,24,29,15,161,14*78
$GPGSV,5,3,18,32,25,31[2024/10/02, 12:47:09.245]4,23,50,42,091,00,,32,109,16,,47,144,19*78
$GPGSV,5,4,18,,72,336,2[2024/10/02, 12:47:09.385]7,,02,150,13,,65,357,22,,61,178,21*7B
$GPGSV,5,5,18,,27,284,30,,46[2024/10/02, 12:47:09.526],230,26*7F
$GPGLL,0114.3961,N,10338.8249,E,044707,A,D*45
$GPBOD,,[2024/10/02, 12:47:09.667]T,,M,,*47
$GPBWC,044707,,,,,,T,,M,,N,,D*7E
$GPVTG,336.71,T,336.5[2024/10/02, 12:47:09.807]5,M,3.95,N,7.32,K,D*29
$PGRME,18.54,M,29.53,M,34.86,M*22
$PGRMZ,-[2024/10/02, 12:47:09.948]18,f,3*0F
$PGRMM,WGS 84*06
$HCHDM,,M*07
$WIMWV,,R,,,A*6D
$GPAP[2024/10/02, 12:47:10.088]B,V,V,,,N,V,V,,,,,,,,N*68
$GPZDA,044707,02,10,2024,-08,00*6A
[2024/10/02, 12:47:10.276]$GPRMC,044709,A,0114.3985,N,10338.8235,E,4.10,330.36,0210[2024/10/02, 12:47:10.541]24,0.16,E,D*24
$GPRMB,A,,,,,,,,,,,,V,D*19
$GPGGA,044709,0114.398[2024/10/02, 12:47:10.682]5,N,10338.8235,E,2,15,0.74,-5.97,M,9.59,M,,*6D
$GPGSA,A,3,10,12,18[2024/10/02, 12:47:10.822],23,25,28,29,32,,,,,1.41,0.74,1.20*0B
$GPGSV,5,1,18,05,02,124,13,1[2024/10/02, 12:47:10.963]0,21,345,22,12,22,085,14,18,66,176,19*7C
$GPGSV,5,2,18,23,42,025,1[2024/10/02, 12:47:11.104]9,25,42,125,17,28,49,233,24,29,15,161,14*71
$GPGSV,5,3,18,32,25,31[2024/10/02, 12:47:11.244]4,25,50,42,091,00,,32,109,21,,47,144,18*7B
$GPGSV,5,4,18,,72,336,2[2024/10/02, 12:47:11.385]7,,02,150,13,,65,357,19,,61,178,19*78
$GPGSV,5,5,18,,27,284,30,,46[2024/10/02, 12:47:11.525],230,26*7F
$GPGLL,0114.3985,N,10338.8235,E,044709,A,D*4A
$GPBOD,,[2024/10/02, 12:47:11.666]T,,M,,*47
$GPBWC,044709,,,,,,T,,M,,N,,D*70
$GPVTG,330.36,T,330.20[2024/10/02, 12:47:11.807],M,4.10,N,7.60,K,D*25
$PGRME,18.63,M,28.29,M,33.88,M*23
$PGRMZ,-[2024/10/02, 12:47:11.947]20,f,3*04
$PGRMM,WGS 84*06
$HCHDM,,M*07
$WIMWV,,R,,,A*6D
$GPAP[2024/10/02, 12:47:12.088]B,V,V,,,N,V,V,,,,,,,,N*68
$GPZDA,044709,02,10,2024,-08,00*64
[2024/10/02, 12:47:12.275]$GPRMC,044711,A,0114.4013,N,10338.8238,E,4.22,8.94,02102[2024/10/02, 12:47:12.541]4,0.16,E,D*20
$GPRMB,A,,,,,,,,,,,,V,D*19
$GPGGA,044711,0114.4013,[2024/10/02, 12:47:12.681]N,10338.8238,E,2,15,0.74,-7.28,M,9.59,M,,*6E
$GPGSA,A,3,10,12,18,2[2024/10/02, 12:47:12.822]3,25,28,29,32,,,,,1.41,0.74,1.20*0B
$GPGSV,5,1,18,05,02,124,13,10,[2024/10/02, 12:47:12.962]21,345,22,12,22,085,14,18,66,176,21*77
$GPGSV,5,2,18,23,42,025,20,[2024/10/02, 12:47:13.103]25,42,124,14,28,49,233,23,29,15,161,13*79
$GPGSV,5,3,18,32,25,314,[2024/10/02, 12:47:13.244]23,50,42,091,00,,32,109,15,,47,144,16*74
$GPGSV,5,4,18,,72,336,27,[2024/10/02, 12:47:13.384],02,150,13,,65,357,23,,61,178,19*71
$GPGSV,5,5,18,,27,284,30,,46,2[2024/10/02, 12:47:13.525]30,25*7C
$GPGLL,0114.4013,N,10338.8238,E,044711,A,D*4F
$GPBOD,,T,[2024/10/02, 12:47:13.665],M,,*47
$GPBWC,044711,,,,,,T,,M,,N,,D*79
$GPVTG,8.94,T,8.78,M,4.[2024/10/02, 12:47:13.806]22,N,7.81,K,D*2E
$PGRME,18.72,M,27.02,M,32.87,M*2B
$PGRMZ,-24,f,3[2024/10/02, 12:47:13.947]*00
$PGRMM,WGS 84*06
$HCHDM,,M*07
$WIMWV,,R,,,A*6D
$GPAPB,V,V,[2024/10/02, 12:47:14.087],,N,V,V,,,,,,,,N*68
$GPZDA,044711,02,10,2024,-08,00*6D
[2024/10/02, 12:47:14.275]$GPRMC,044713,A,0114.4039,N,10338.8229,E,4.32,351.74,021[2024/10/02, 12:47:14.540]024,0.16,E,D*2A
$GPRMB,A,,,,,,,,,,,,V,D*19
$GPGGA,044713,0114.403[2024/10/02, 12:47:14.681]9,N,10338.8229,E,2,15,0.74,-7.67,M,9.59,M,,*6F
$GPGSA,A,3,10,12,1[2024/10/02, 12:47:14.822]8,23,25,28,29,32,,,,,1.41,0.74,1.20*0B
$GPGSV,5,1,18,05,02,124,13,[2024/10/02, 12:47:14.962]10,21,345,24,12,22,085,14,18,66,176,22*72
$GPGSV,5,2,18,23,42,025,[2024/10/02, 12:47:15.103]22,25,42,124,14,28,50,234,23,29,15,161,16*71
$GPGSV,5,3,18,32,25,3[2024/10/02, 12:47:15.243]14,24,50,42,091,00,,32,109,17,,47,144,19*7E
$GPGSV,5,4,18,,72,336,[2024/10/02, 12:47:15.384]27,,02,150,14,,65,357,23,,61,178,21*7D
$GPGSV,5,5,18,,27,284,30,,4[2024/10/02, 12:47:15.524]6,230,26*7F
$GPGLL,0114.4039,N,10338.8229,E,044713,A,D*45
$GPBOD,[2024/10/02, 12:47:15.665],T,,M,,*47
$GPBWC,044713,,,,,,T,,M,,N,,D*7B
$GPVTG,351.74,T,351.[2024/10/02, 12:47:15.806]58,M,4.32,N,8.01,K,D*24
$PGRME,18.78,M,25.75,M,31.87,M*20
$PGRMZ,[2024/10/02, 12:47:15.946]-25,f,3*01
$PGRMM,WGS 84*06
$HCHDM,,M*07
$WIMWV,,R,,,A*6D
$GPA[2024/10/02, 12:47:16.087]PB,V,V,,,N,V,V,,,,,,,,N*68
$GPZDA,044713,02,10,2024,-08,00*6F
[2024/10/02, 12:47:16.274]$GPRMC,044715,A,0114.4060,N,10338.8231,E,4.30,3.28,02102[2024/10/02, 12:47:16.540]4,0.16,E,D*26
$GPRMB,A,,,,,,,,,,,,V,D*19
$GPGGA,044715,0114.4060,[2024/10/02, 12:47:16.680]N,10338.8231,E,2,15,0.74,-9.79,M,9.59,M,,*6D
$GPGSA,A,3,10,12,18,[2024/10/02, 12:47:16.821]23,25,28,29,32,,,,,1.41,0.74,1.20*0B
$GPGSV,5,1,18,05,02,124,13,10[2024/10/02, 12:47:16.962],21,345,23,12,22,085,14,18,66,176,20*77
$GPGSV,5,2,18,23,42,025,19[2024/10/02, 12:47:17.102],25,42,124,17,28,50,234,24,29,15,161,15*7E
$GPGSV,5,3,18,32,25,314[2024/10/02, 12:47:17.243],25,50,42,091,00,,32,109,17,,47,144,17*71
$GPGSV,5,4,18,,72,336,28[2024/10/02, 12:47:17.383],,02,150,14,,65,357,23,,61,178,21*72
$GPGSV,5,5,18,,27,284,31,,46,[2024/10/02, 12:47:17.524]230,27*7F
$GPGLL,0114.4060,N,10338.8231,E,044715,A,D*46
$GPBOD,,T[2024/10/02, 12:47:17.665],,M,,*47
$GPBWC,044715,,,,,,T,,M,,N,,D*7D
$GPVTG,3.28,T,3.12,M,4[2024/10/02, 12:47:17.805].30,N,7.96,K,D*20
$PGRME,18.83,M,24.52,M,30.92,M*25
$PGRMZ,-32,f,[2024/10/02, 12:47:17.946]3*07
$PGRMM,WGS 84*06
$HCHDM,,M*07
$WIMWV,,R,,,A*6D
$GPAPB,V,V[2024/10/02, 12:47:18.086],,,N,V,V,,,,,,,,N*68
$GPZDA,044715,02,10,2024,-08,00*69
[2024/10/02, 12:47:18.274]$GPRMC,044717,A,0114.4086,N,10338.8225,E,4.31,349.32,021[2024/10/02, 12:47:18.539]024,0.16,E,D*2E
$GPRMB,A,,,,,,,,,,,,V,D*19
$GPGGA,044717,0114.40[2024/10/02, 12:47:18.680]86,N,10338.8225,E,2,15,0.74,-10.98,M,9.59,M,,*55
$GPGSA,A,3,10,12,[2024/10/02, 12:47:18.821]18,23,25,28,29,32,,,,,1.41,0.74,1.20*0B
$GPGSV,5,1,17,10,21,345,25[2024/10/02, 12:47:18.961],12,22,085,15,18,66,176,20,23,42,025,22*7D
$GPGSV,5,2,17,25,42,124[2024/10/02, 12:47:19.102],19,28,50,234,23,29,15,161,15,32,25,314,24*76
$GPGSV,5,3,17,50,42,[2024/10/02, 12:47:19.242]091,00,,32,109,15,,47,144,20,,72,336,28*76
$GPGSV,5,4,17,,02,150,1[2024/10/02, 12:47:19.383]4,,65,357,22,,61,178,23,,27,284,31*7E
$GPGSV,5,5,17,,46,230,27*49[2024/10/02, 12:47:19.524]
$GPGLL,0114.4086,N,10338.8225,E,044717,A,D*49
$GPBOD,,T,,M,,*47
[2024/10/02, 12:47:19.664]$GPBWC,044717,,,,,,T,,M,,N,,D*7F
$GPVTG,349.32,T,349.16,M,4.31,N,[2024/10/02, 12:47:19.805]7.99,K,D*21
$PGRME,18.85,M,23.90,M,30.44,M*21
$PGRMZ,-36,f,3*03
[2024/10/02, 12:47:19.945]$PGRMM,WGS 84*06
$HCHDM,,M*07
$WIMWV,,R,,,A*6D
$GPAPB,V,V,,,N,V[2024/10/02, 12:47:20.070],V,,,,,,,,N*68
$GPZDA,044717,02,10,2024,-08,00*6B
[2024/10/02, 12:47:20.273]$GPRMC,044719,A,0114.4111,N,10338.8222,E,4.31,351.38,021[2024/10/02, 12:47:20.539]024,0.16,E,D*2B
$GPRMB,A,,,,,,,,,,,,V,D*19
$GPGGA,044719,0114.41[2024/10/02, 12:47:20.679]11,N,10338.8222,E,2,15,0.74,-11.62,M,9.59,M,,*57
$GPGSA,A,3,10,12,[2024/10/02, 12:47:20.820]18,23,25,28,29,32,,,,,1.41,0.74,1.20*0B
$GPGSV,5,1,17,10,21,345,24[2024/10/02, 12:47:20.961],12,22,085,13,18,66,176,22,23,42,025,22*78
$GPGSV,5,2,17,25,42,124[2024/10/02, 12:47:21.101],20,28,50,234,24,29,15,161,13,32,25,314,21*78
$GPGSV,5,3,17,50,42,[2024/10/02, 12:47:21.242]091,00,,32,109,15,,47,144,20,,72,336,27*79
$GPGSV,5,4,17,,02,150,1[2024/10/02, 12:47:21.382]4,,65,357,22,,61,178,23,,27,284,31*7E
$GPGSV,5,5,17,,46,230,27*49[2024/10/02, 12:47:21.523]
$GPGLL,0114.4111,N,10338.8222,E,044719,A,D*4F
$GPBOD,,T,,M,,*47[2024/10/02, 12:47:21.664]
$GPBWC,044719,,,,,,T,,M,,N,,D*71
$GPVTG,351.38,T,351.22,M,4.31,N,[2024/10/02, 12:47:21.804]7.99,K,D*2C
$PGRME,18.87,M,23.46,M,30.11,M*28
$PGRMZ,-38,f,3*0D
[2024/10/02, 12:47:21.945]$PGRMM,WGS 84*06
$HCHDM,,M*07
$WIMWV,,R,,,A*6D
$GPAPB,V,V,,,N,V[2024/10/02, 12:47:22.070],V,,,,,,,,N*68
$GPZDA,044719,02,10,2024,-08,00*65
[2024/10/02, 12:47:22.273]$GPRMC,044721,A,0114.4133,N,10338.8216,E,4.35,344.35,02[2024/10/02, 12:47:22.538]1024,0.16,E,D*2A
$GPRMB,A,,,,,,,,,,,,V,D*19
$GPGGA,044721,0114.41[2024/10/02, 12:47:22.679]33,N,10338.8216,E,2,15,0.74,-12.34,M,9.59,M,,*5B
$GPGSA,A,3,10,12,[2024/10/02, 12:47:22.820]18,23,25,28,29,32,,,,,1.41,0.74,1.20*0B
$GPGSV,5,1,17,10,21,345,2[2024/10/02, 12:47:22.960]4,12,22,085,14,18,66,176,22,23,42,025,21*7C
$GPGSV,5,2,17,25,42,124[2024/10/02, 12:47:23.101],21,28,50,234,25,29,15,161,13,32,25,314,25*7C
$GPGSV,5,3,17,50,42,[2024/10/02, 12:47:23.241]091,00,,32,109,15,,47,145,21,,72,336,27*79
$GPGSV,5,4,17,,02,150,1[2024/10/02, 12:47:23.382]4,,65,357,23,,61,178,24,,27,284,31*78
$GPGSV,5,5,17,,46,230,27*49[2024/10/02, 12:47:23.523]
$GPGLL,0114.4133,N,10338.8216,E,044721,A,D*43
$GPBOD,,T,,M,,*47[2024/10/02, 12:47:23.663]
$GPBWC,044721,,,,,,T,,M,,N,,D*7A
$GPVTG,344.35,T,344.19,M,4.35,N,[2024/10/02, 12:47:23.804]8.06,K,D*24
$PGRME,18.88,M,23.17,M,29.89,M*2A
$PGRMZ,-40,f,3*02[2024/10/02, 12:47:23.944]
$PGRMM,WGS 84*06
$HCHDM,,M*07
$WIMWV,,R,,,A*6D
$GPAPB,V,V,,,N,V[2024/10/02, 12:47:24.085],V,,,,,,,,N*68
$GPZDA,044721,02,10,2024,-08,00*6E
[2024/10/02, 12:47:24.272]$GPRMC,044723,A,0114.4159,N,10338.8209,E,4.54,340.22,02[2024/10/02, 12:47:24.538]1024,0.16,E,D*2F
$GPRMB,A,,,,,,,,,,,,V,D*19
$GPGGA,044723,0114.41[2024/10/02, 12:47:24.679]59,N,10338.8209,E,2,15,0.74,-12.64,M,9.59,M,,*5E
$GPGSA,A,3,10,12[2024/10/02, 12:47:24.819],18,23,25,28,29,32,,,,,1.41,0.74,1.20*0B
$GPGSV,5,1,17,10,21,345,2[2024/10/02, 12:47:24.960]3,12,22,085,14,18,66,176,22,23,42,025,19*70
$GPGSV,5,2,17,25,42,12[2024/10/02, 12:47:25.100]4,19,28,50,234,22,29,15,161,13,32,25,314,21*74
$GPGSV,5,3,17,50,42[2024/10/02, 12:47:25.241],091,00,,32,109,15,,47,145,18,,72,336,27*73
$GPGSV,5,4,17,,02,150,[2024/10/02, 12:47:25.381]14,,65,357,23,,61,178,22,,27,284,31*7E
$GPGSV,5,5,17,,46,230,28*46[2024/10/02, 12:47:25.522]
$GPGLL,0114.4159,N,10338.8209,E,044723,A,D*43
$GPBOD,,T,,M,,*47[2024/10/02, 12:47:25.663]
$GPBWC,044723,,,,,,T,,M,,N,,D*78
$GPVTG,340.22,T,340.06,M,4.54,N,[2024/10/02, 12:47:25.803]8.40,K,D*29
$PGRME,18.89,M,23.13,M,29.87,M*21
$PGRMZ,-41,f,3*03[2024/10/02, 12:47:25.944]
$PGRMM,WGS 84*06
$HCHDM,,M*07
$WIMWV,,R,,,A*6D
$GPAPB,V,V,,,N,V[2024/10/02, 12:47:26.084],V,,,,,,,,N*68
$GPZDA,044723,02,10,2024,-08,00*6C
[2024/10/02, 12:47:26.272]$GPRMC,044725,A,0114.4188,N,10338.8204,E,4.68,341.85,02[2024/10/02, 12:47:26.537]1024,0.16,E,D*2B
$GPRMB,A,,,,,,,,,,,,V,D*19
$GPGGA,044725,0114.41[2024/10/02, 12:47:26.678]88,N,10338.8204,E,2,15,0.74,-13.15,M,9.59,M,,*5E
$GPGSA,A,3,10,12[2024/10/02, 12:47:26.819],18,23,25,28,29,32,,,,,1.41,0.74,1.20*0B
$GPGSV,5,1,17,10,21,345,2[2024/10/02, 12:47:26.959]5,12,22,085,13,18,66,176,18,23,42,025,21*73
$GPGSV,5,2,17,25,42,12[2024/10/02, 12:47:27.100]4,19,28,50,234,24,29,15,161,14,32,25,314,24*70
$GPGSV,5,3,17,50,42[2024/10/02, 12:47:27.240],091,00,,32,109,16,,47,145,18,,72,336,27*70
$GPGSV,5,4,17,,02,150,[2024/10/02, 12:47:27.381]15,,65,357,21,,61,178,17,,27,284,30*7A
$GPGSV,5,5,17,,46,230,27*49[2024/10/02, 12:47:27.522]
$GPGLL,0114.4188,N,10338.8204,E,044725,A,D*44
$GPBOD,,T,,M,,*47[2024/10/02, 12:47:27.662]
$GPBWC,044725,,,,,,T,,M,,N,,D*7E
$GPVTG,341.85,T,341.69,M,4.68,N,[2024/10/02, 12:47:27.803]8.67,K,D*27
$PGRME,18.91,M,23.13,M,29.87,M*28
$PGRMZ,-43,f,3*01[2024/10/02, 12:47:27.943]
$PGRMM,WGS 84*06
$HCHDM,,M*07
$WIMWV,,R,,,A*6D
$GPAPB,V,V,,,N,[2024/10/02, 12:47:28.084]V,V,,,,,,,,N*68
$GPZDA,044725,02,10,2024,-08,00*6A
[2024/10/02, 12:47:28.271]$GPRMC,044727,A,0114.4215,N,10338.8198,E,4.76,342.44,02[2024/10/02, 12:47:28.537]1024,0.16,E,D*29
$GPRMB,A,,,,,,,,,,,,V,D*19
$GPGGA,044727,0114.4[2024/10/02, 12:47:28.678]215,N,10338.8198,E,2,15,0.74,-14.47,M,9.59,M,,*5D
$GPGSA,A,3,10,12[2024/10/02, 12:47:28.818],18,23,25,28,29,32,,,,,1.41,0.74,1.20*0B
$GPGSV,5,1,17,10,21,345,2[2024/10/02, 12:47:28.959]2,12,22,085,14,18,66,176,19,23,42,025,22*71
$GPGSV,5,2,17,25,42,12[2024/10/02, 12:47:29.099]4,14,28,50,234,25,29,15,161,14,32,25,314,23*7B
$GPGSV,5,3,17,50,42[2024/10/02, 12:47:29.240],091,00,,32,109,16,,47,145,18,,71,336,27*73
$GPGSV,5,4,17,,02,150,[2024/10/02, 12:47:29.380]15,,65,357,23,,61,178,18,,27,284,30*77
$GPGSV,5,5,17,,46,230,24*4A[2024/10/02, 12:47:29.521]
$GPGLL,0114.4215,N,10338.8198,E,044727,A,D*47
$GPBOD,,T,,M,,*47[2024/10/02, 12:47:29.662]
$GPBWC,044727,,,,,,T,,M,,N,,D*7C
$GPVTG,342.44,T,342.28,M,4.76,N[2024/10/02, 12:47:29.802],8.82,K,D*2B
$PGRME,18.92,M,22.99,M,29.78,M*28
$PGRMZ,-47,f,3*05[2024/10/02, 12:47:29.943]
$PGRMM,WGS 84*06
$HCHDM,,M*07
$WIMWV,,R,,,A*6D
$GPAPB,V,V,,,N,[2024/10/02, 12:47:30.084]V,V,,,,,,,,N*68
$GPZDA,044727,02,10,2024,-08,00*68
[2024/10/02, 12:47:30.271]$GPRMC,044729,A,0114.4241,N,10338.8197,E,4.81,342.81,02[2024/10/02, 12:47:30.536]1024,0.16,E,D*28
$GPRMB,A,,,,,,,,,,,,V,D*19
$GPGGA,044729,0114.4[2024/10/02, 12:47:30.677]241,N,10338.8197,E,2,15,0.74,-15.35,M,9.59,M,,*59
$GPGSA,A,3,10,12[2024/10/02, 12:47:30.818],18,23,25,28,29,32,,,,,1.41,0.74,1.20*0B
$GPGSV,5,1,17,10,21,345,2[2024/10/02, 12:47:30.958]3,12,22,085,15,18,66,176,18,23,42,025,21*73
$GPGSV,5,2,17,25,42,12[2024/10/02, 12:47:31.099]4,14,28,50,234,26,29,15,161,14,32,25,314,25*7E
$GPGSV,5,3,17,50,42[2024/10/02, 12:47:31.240],091,00,,32,109,17,,47,145,18,,71,336,26*73
$GPGSV,5,4,17,,02,150,[2024/10/02, 12:47:31.380]17,,65,357,23,,61,178,19,,27,284,30*74
$GPGSV,5,5,17,,46,230,25*4B[2024/10/02, 12:47:31.521]
$GPGLL,0114.4241,N,10338.8197,E,044729,A,D*47
$GPBOD,,T,,M,,*47[2024/10/02, 12:47:31.661]
$GPBWC,044729,,,,,,T,,M,,N,,D*72
$GPVTG,342.81,T,342.65,M,4.81,N[2024/10/02, 12:47:31.802],8.90,K,D*20
$PGRME,18.94,M,23.02,M,29.81,M*2B
$PGRMZ,-50,f,3*03[2024/10/02, 12:47:31.942]
$PGRMM,WGS 84*06
$HCHDM,,M*07
$WIMWV,,R,,,A*6D
$GPAPB,V,V,,,N,[2024/10/02, 12:47:32.083]V,V,,,,,,,,N*68
$GPZDA,044729,02,10,2024,-08,00*66
[2024/10/02, 12:47:32.270]$GPRMC,044731,A,0114.4268,N,10338.8200,E,4.75,0.87,021[2024/10/02, 12:47:32.536]024,0.16,E,D*2F
$GPRMB,A,,,,,,,,,,,,V,D*19
