[2024/10/02, 12:28:04.004]$GPRMC,042753,A,0114.3179,N,10338.5561,E,4.26,0.16,021[2024/10/02, 12:28:04.270]024,0.16,E,D*2A
$GPRMB,A,,,,,,,,,,,,V,D*19
$GPGGA,042753,0114.31[2024/10/02, 12:28:04.410]79,N,10338.5561,E,2,15,0.75,4.36,M,9.57,M,,*4C
$GPGSA,A,3,10,12,18[2024/10/02, 12:28:04.551],23,25,28,29,32,,,,,1.37,0.75,1.15*0D
$GPGSV,4,1,16,10,15,340,24,1[2024/10/02, 12:28:04.691]2,22,095,16,18,76,178,23,23,36,016,23*72
$GPGSV,4,2,16,25,38,136,1[2024/10/02, 12:28:04.832]5,28,42,224,25,29,19,168,16,32,26,305,23*72
$GPGSV,4,3,16,41,65,26[2024/10/02, 12:28:04.973]6,31,,30,113,16,,50,141,13,,77,336,25*7A
$GPGSV,4,4,16,,69,001,26,[2024/10/02, 12:28:05.113],53,182,25,,24,293,29,,50,242,28*70
$GPGLL,0114.3179,N,10338.5561,[2024/10/02, 12:28:05.254]E,042753,A,D*43
$GPBOD,,T,,M,,*47
$GPBWC,042753,,,,,,T,,M,,N,,D*7[2024/10/02, 12:28:05.394]9
$GPVTG,0.16,T,360.00,M,4.26,N,7.89,K,D*22
$PGRME,16.30,M,18.58[2024/10/02, 12:28:05.535],M,24.72,M*2D
$PGRMZ,14,f,3*2E
$PGRMM,WGS 84*06
$HCHDM,,M*07
$W[2024/10/02, 12:28:05.676]IMWV,,R,,,A*6D
$GPAPB,V,V,,,N,V,V,,,,,,,,N*68
$GPZDA,042753,02,1[2024/10/02, 12:28:05.801]0,2024,-08,00*6D
[2024/10/02, 12:28:06.004]$GPRMC,042755,A,0114.3198,N,103[2024/10/02, 12:28:06.222]38.5555,E,4.03,351.95,021024,0.16,E,D*2F
$GPRMB,A,,,,,,,,,,,,V,D*1[2024/10/02, 12:28:06.363]9
$GPGGA,042755,0114.3198,N,10338.5555,E,2,16,0.72,3.30,M,9.57,M,,[2024/10/02, 12:28:06.504]*47
$GPGSA,A,3,10,12,18,23,25,28,29,32,,,,,1.23,0.72,1.00*0B
$GPG[2024/10/02, 12:28:06.644]SV,5,1,17,10,15,340,25,12,22,095,14,18,76,178,24,23,36,016,23*76
$[2024/10/02, 12:28:06.785]GPGSV,5,2,17,25,39,135,15,28,42,224,23,29,19,168,15,32,26,305,25*73[2024/10/02, 12:28:06.925]
$GPGSV,5,3,17,41,65,266,31,,30,113,14,,50,141,16,,77,336,25*7D
$[2024/10/02, 12:28:07.066]GPGSV,5,4,17,,07,153,14,,69,001,26,,53,182,26,,24,293,24*70
$GPGSV[2024/10/02, 12:28:07.207],5,5,17,,50,242,28*44
$GPGLL,0114.3198,N,10338.5555,E,042755,A,D*4[2024/10/02, 12:28:07.347]D
$GPBOD,,T,,M,,*47
$GPBWC,042755,,,,,,T,,M,,N,,D*7F
$GPVTG,351[2024/10/02, 12:28:07.488].95,T,351.79,M,4.03,N,7.47,K,D*27
$PGRME,16.32,M,19.08,M,25.11,M*2[2024/10/02, 12:28:07.628]F
$PGRMZ,11,f,3*2B
$PGRMM,WGS 84*06
$HCHDM,,M*07
$WIMWV,,R,,,A[2024/10/02, 12:28:07.769]*6D
$GPAPB,V,V,,,N,V,V,,,,,,,,N*68
$GPZDA,042755,02,10,2024,-08,0[2024/10/02, 12:28:07.863]0*6B
[2024/10/02, 12:28:08.003]$GPRMC,042757,A,0114.3224,N,103[2024/10/02, 12:28:08.222]38.5550,E,4.05,357.37,021024,0.16,E,D*24
$GPRMB,A,,,,,,,,,,,,V,D*1[2024/10/02, 12:28:08.362]9
$GPGGA,042757,0114.3224,N,10338.5550,E,2,16,0.72,0.53,M,9.57,M,,[2024/10/02, 12:28:08.503]*42
$GPGSA,A,3,10,12,18,23,25,28,29,32,,,,,1.23,0.72,1.00*0B
$GPG[2024/10/02, 12:28:08.644]SV,5,1,17,10,15,340,25,12,22,095,14,18,76,178,22,23,36,016,22*71
$[2024/10/02, 12:28:08.784]GPGSV,5,2,17,25,39,135,13,28,42,224,24,29,19,168,15,32,26,305,27*70[2024/10/02, 12:28:08.925]
$GPGSV,5,3,17,41,65,266,31,,30,113,14,,50,141,16,,77,336,27*7F
$[2024/10/02, 12:28:09.065]GPGSV,5,4,17,,07,153,13,,69,001,26,,53,182,26,,24,293,27*74
$GPGSV[2024/10/02, 12:28:09.206],5,5,17,,50,242,29*45
$GPGLL,0114.3224,N,10338.5550,E,042757,A,D*4[2024/10/02, 12:28:09.347]E
$GPBOD,,T,,M,,*47
$GPBWC,042757,,,,,,T,,M,,N,,D*7D
$GPVTG,357[2024/10/02, 12:28:09.487].37,T,357.22,M,4.05,N,7.51,K,D*20
$PGRME,16.34,M,19.06,M,25.10,M*2[2024/10/02, 12:28:09.628]6
$PGRMZ,2,f,3*19
$PGRMM,WGS 84*06
$HCHDM,,M*07
$WIMWV,,R,,,A*[2024/10/02, 12:28:09.768]6D
$GPAPB,V,V,,,N,V,V,,,,,,,,N*68
$GPZDA,042757,02,10,2024,-08,0[2024/10/02, 12:28:09.862]0*69
[2024/10/02, 12:28:10.003]$GPRMC,042759,A,0114.3249,N,103[2024/10/02, 12:28:10.221]38.5540,E,4.03,15.64,021024,0.16,E,D*15
$GPRMB,A,,,,,,,,,,,,V,D*19[2024/10/02, 12:28:10.362]
$GPGGA,042759,0114.3249,N,10338.5540,E,2,16,0.72,0.48,M,9.57,M,,*[2024/10/02, 12:28:10.503]4C
$GPGSA,A,3,10,12,18,23,25,28,29,32,,,,,1.23,0.72,1.00*0B
$GPG[2024/10/02, 12:28:10.643]SV,5,1,17,10,15,340,26,12,22,095,14,18,76,178,24,23,36,016,23*75
$[2024/10/02, 12:28:10.784]GPGSV,5,2,17,25,39,135,13,28,43,224,26,29,18,168,18,32,26,305,27*7F[2024/10/02, 12:28:10.924]
$GPGSV,5,3,17,41,65,266,31,,30,113,19,,50,141,16,,77,336,26*73
$G[2024/10/02, 12:28:11.065]PGSV,5,4,17,,07,153,13,,69,001,26,,53,182,25,,24,293,28*78
$GPGSV,[2024/10/02, 12:28:11.206]5,5,17,,50,242,28*44
$GPGLL,0114.3249,N,10338.5540,E,042759,A,D*4[2024/10/02, 12:28:11.346]A
$GPBOD,,T,,M,,*47
$GPBWC,042759,,,,,,T,,M,,N,,D*73
$GPVTG,15.6[2024/10/02, 12:28:11.487]4,T,15.48,M,4.03,N,7.46,K,D*2A
$PGRME,16.36,M,18.51,M,24.70,M*20[2024/10/02, 12:28:11.627]
$PGRMZ,2,f,3*19
$PGRMM,WGS 84*06
$HCHDM,,M*07
$WIMWV,,R,,,A*6D[2024/10/02, 12:28:11.768]
$GPAPB,V,V,,,N,V,V,,,,,,,,N*68
$GPZDA,042759,02,10,2024,-08,00*6[2024/10/02, 12:28:11.862]7
[2024/10/02, 12:28:12.002]$GPRMC,042801,A,0114.3279,N,103[2024/10/02, 12:28:12.221]38.5524,E,4.08,352.71,021024,0.16,E,D*29
$GPRMB,A,,,,,,,,,,,,V,D*[2024/10/02, 12:28:12.362]19
$GPGGA,042801,0114.3279,N,10338.5524,E,2,16,0.72,1.81,M,9.57,M,[2024/10/02, 12:28:12.502],*4B
$GPGSA,A,3,10,12,18,23,25,28,29,32,,,,,1.23,0.72,1.00*0B
$GP[2024/10/02, 12:28:12.643]GSV,5,1,17,10,15,340,24,12,22,095,16,18,76,178,22,23,36,016,24*74
[2024/10/02, 12:28:12.783]$GPGSV,5,2,17,25,39,135,13,28,43,224,25,29,18,168,18,32,26,305,28*7[2024/10/02, 12:28:12.924]3
$GPGSV,5,3,17,41,65,266,31,,30,113,17,,50,141,13,,77,336,27*79
[2024/10/02, 12:28:13.064]$GPGSV,5,4,17,,07,153,14,,69,001,26,,53,182,24,,24,293,30*77
$GPGS[2024/10/02, 12:28:13.205]V,5,5,17,,50,242,24*48
$GPGLL,0114.3279,N,10338.5524,E,042801,A,D*[2024/10/02, 12:28:13.346]49
$GPBOD,,T,,M,,*47
$GPBWC,042801,,,,,,T,,M,,N,,D*71
$GPVTG,352[2024/10/02, 12:28:13.486].71,T,352.55,M,4.08,N,7.56,K,D*28
$PGRME,16.37,M,17.91,M,24.27,M*[2024/10/02, 12:28:13.627]20
$PGRMZ,6,f,3*1D
$PGRMM,WGS 84*06
$HCHDM,,M*07
$WIMWV,,R,,,A[2024/10/02, 12:28:13.767]*6D
$GPAPB,V,V,,,N,V,V,,,,,,,,N*68
$GPZDA,042801,02,10,2024,-08,0[2024/10/02, 12:28:13.861]0*65
[2024/10/02, 12:28:14.002]$GPRMC,042803,A,0114.3306,N,10[2024/10/02, 12:28:14.220]338.5512,E,4.29,352.64,021024,0.16,E,D*20
$GPRMB,A,,,,,,,,,,,,V,D*[2024/10/02, 12:28:14.361]19
$GPGGA,042803,0114.3306,N,10338.5512,E,2,16,0.72,2.90,M,9.57,M,[2024/10/02, 12:28:14.502],*46
$GPGSA,A,3,10,12,18,23,25,28,29,32,,,,,1.23,0.72,1.00*0B
$GP[2024/10/02, 12:28:14.642]GSV,5,1,17,10,15,340,22,12,22,095,14,18,76,178,22,23,36,016,23*77
[2024/10/02, 12:28:14.783]$GPGSV,5,2,17,25,39,135,15,28,43,224,25,29,18,168,18,32,26,305,27*7[2024/10/02, 12:28:14.923]A
$GPGSV,5,3,17,41,65,266,31,,30,113,17,,50,141,13,,77,336,26*78
[2024/10/02, 12:28:15.064]$GPGSV,5,4,17,,07,153,12,,69,001,26,,53,182,21,,24,293,30*74
$GPGS[2024/10/02, 12:28:15.205]V,5,5,17,,50,242,25*49
$GPGLL,0114.3306,N,10338.5512,E,042803,A,D*[2024/10/02, 12:28:15.345]47
$GPBOD,,T,,M,,*47
$GPBWC,042803,,,,,,T,,M,,N,,D*73
$GPVTG,35[2024/10/02, 12:28:15.486]2.64,T,352.48,M,4.29,N,7.95,K,D*2C
$PGRME,16.39,M,17.54,M,24.01,M*[2024/10/02, 12:28:15.626]23
$PGRMZ,10,f,3*2A
$PGRMM,WGS 84*06
$HCHDM,,M*07
$WIMWV,,R,,,[2024/10/02, 12:28:15.767]A*6D
$GPAPB,V,V,,,N,V,V,,,,,,,,N*68
$GPZDA,042803,02,10,2024,-08,[2024/10/02, 12:28:15.861]00*67
[2024/10/02, 12:28:16.017]$GPRMC,042805,A,0114.3333,N,10338.5503,E,4.43,349.10,021024,[2024/10/02, 12:28:16.282]0.16,E,D*25
$GPRMB,A,,,,,,,,,,,,V,D*19
$GPGGA,042805,0114.3333,N,[2024/10/02, 12:28:16.423]10338.5503,E,2,16,0.72,3.03,M,9.57,M,,*4D
$GPGSA,A,3,10,12,18,23,2[2024/10/02, 12:28:16.564]5,28,29,32,,,,,1.23,0.72,1.00*0B
$GPGSV,5,1,17,10,15,340,26,12,22,[2024/10/02, 12:28:16.704]095,14,18,76,178,22,23,36,016,23*73
$GPGSV,5,2,17,25,39,135,15,28,[2024/10/02, 12:28:16.845]43,224,24,29,18,168,18,32,26,305,27*7B
$GPGSV,5,3,17,41,65,266,31,[2024/10/02, 12:28:16.985],30,113,13,,50,142,13,,77,336,25*7C
$GPGSV,5,4,17,,07,153,13,,69,0[2024/10/02, 12:28:17.126]01,26,,53,182,19,,24,293,31*7F
$GPGSV,5,5,17,,50,242,25*49
$GPGL[2024/10/02, 12:28:17.267]L,0114.3333,N,10338.5503,E,042805,A,D*47
$GPBOD,,T,,M,,*47
$GPBWC[2024/10/02, 12:28:17.407],042805,,,,,,T,,M,,N,,D*75
$GPVTG,349.10,T,348.94,M,4.43,N,8.20,K,[2024/10/02, 12:28:17.548]D*22
$PGRME,16.40,M,17.34,M,23.87,M*22
$PGRMZ,10,f,3*2A
$PGRMM,[2024/10/02, 12:28:17.688]WGS 84*06
$HCHDM,,M*07
$WIMWV,,R,,,A*6D
$GPAPB,V,V,,,N,V,V,,,,,,[2024/10/02, 12:28:17.798],,N*68
$GPZDA,042805,02,10,2024,-08,00*61
[2024/10/02, 12:28:18.016]$GPRMC,042807,A,0114.3364,N,10338.5493,E,4.70,354.93,021024,[2024/10/02, 12:28:18.282]0.16,E,D*2A
$GPRMB,A,,,,,,,,,,,,V,D*19
$GPGGA,042807,0114.3364,N[2024/10/02, 12:28:18.423],10338.5493,E,2,16,0.75,3.58,M,9.57,M,,*4C
$GPGSA,A,3,10,12,18,23,[2024/10/02, 12:28:18.563]25,28,29,32,,,,,1.37,0.75,1.15*0D
$GPGSV,5,1,17,10,15,340,25,12,22[2024/10/02, 12:28:18.704],095,14,18,76,178,22,23,36,016,23*70
$GPGSV,5,2,17,25,39,135,14,28[2024/10/02, 12:28:18.844],43,224,26,29,18,168,21,32,26,305,26*73
$GPGSV,5,3,17,41,65,266,31[2024/10/02, 12:28:18.985],,30,113,14,,50,142,15,,77,336,26*7E
$GPGSV,5,4,17,,07,153,13,,69,[2024/10/02, 12:28:19.126]001,26,,53,182,24,,24,293,31*71
$GPGSV,5,5,17,,50,242,25*49
$GPGL[2024/10/02, 12:28:19.266]L,0114.3364,N,10338.5493,E,042807,A,D*4F
$GPBOD,,T,,M,,*47
$GPBWC[2024/10/02, 12:28:19.407],042807,,,,,,T,,M,,N,,D*77
$GPVTG,354.93,T,354.77,M,4.70,N,8.71,K,[2024/10/02, 12:28:19.547]D*21
$PGRME,16.42,M,17.22,M,23.79,M*26
$PGRMZ,12,f,3*28
$PGRMM,[2024/10/02, 12:28:19.688]WGS 84*06
$HCHDM,,M*07
$WIMWV,,R,,,A*6D
$GPAPB,V,V,,,N,V,V,,,,,,[2024/10/02, 12:28:19.797],,N*68
$GPZDA,042807,02,10,2024,-08,00*63
[2024/10/02, 12:28:20.016]$GPRMC,042809,A,0114.3392,N,10338.5489,E,4.83,354.60,021024,[2024/10/02, 12:28:20.282]0.16,E,D*26
$GPRMB,A,,,,,,,,,,,,V,D*19
$GPGGA,042809,0114.3392,N[2024/10/02, 12:28:20.422],10338.5489,E,2,15,0.75,3.60,M,9.57,M,,*48
$GPGSA,A,3,10,12,18,23,[2024/10/02, 12:28:20.563]25,28,29,32,,,,,1.37,0.75,1.15*0D
$GPGSV,4,1,16,10,15,340,24,12,22[2024/10/02, 12:28:20.703],095,17,18,76,178,25,23,36,016,24*72
$GPGSV,4,2,16,25,39,135,14,28[2024/10/02, 12:28:20.844],43,224,26,29,18,168,20,32,26,305,28*7C
$GPGSV,4,3,16,41,65,266,32[2024/10/02, 12:28:20.985],,30,113,14,,50,142,13,,77,336,26*7B
$GPGSV,4,4,16,,69,001,26,,53,[2024/10/02, 12:28:21.125]182,22,,24,293,31,,50,242,26*70
$GPGLL,0114.3392,N,10338.5489,E,04[2024/10/02, 12:28:21.266]2809,A,D*43
$GPBOD,,T,,M,,*47
$GPBWC,042809,,,,,,T,,M,,N,,D*79
$[2024/10/02, 12:28:21.406]GPVTG,354.60,T,354.44,M,4.83,N,8.95,K,D*2B
$PGRME,16.43,M,17.15,M[2024/10/02, 12:28:21.547],23.75,M*2F
$PGRMZ,12,f,3*28
$PGRMM,WGS 84*06
$HCHDM,,M*07
$WI[2024/10/02, 12:28:21.687]MWV,,R,,,A*6D
$GPAPB,V,V,,,N,V,V,,,,,,,,N*68
$GPZDA,042809,02,10,[2024/10/02, 12:28:21.812]2024,-08,00*6D
[2024/10/02, 12:28:22.015]$GPRMC,042811,A,0114.3417,N,10338.5500,E,4.90,13.87,021024,[2024/10/02, 12:28:22.281]0.16,E,D*1E
$GPRMB,A,,,,,,,,,,,,V,D*19
$GPGGA,042811,0114.3417,N,[2024/10/02, 12:28:22.422]10338.5500,E,2,15,0.75,2.83,M,9.57,M,,*47
$GPGSA,A,3,10,12,18,23,2[2024/10/02, 12:28:22.562]5,28,29,32,,,,,1.37,0.75,1.15*0D
$GPGSV,4,1,16,10,15,340,26,12,22,[2024/10/02, 12:28:22.703]095,19,18,76,178,20,23,36,016,19*75
$GPGSV,4,2,16,25,39,135,13,28,[2024/10/02, 12:28:22.843]43,224,26,29,18,168,18,32,26,305,28*70
$GPGSV,4,3,16,41,65,266,32,[2024/10/02, 12:28:22.984],30,113,15,,50,142,15,,76,336,25*7E
$GPGSV,4,4,16,,69,001,26,,53,1[2024/10/02, 12:28:23.125]82,24,,24,293,30,,50,242,27*76
$GPGLL,0114.3417,N,10338.5500,E,042[2024/10/02, 12:28:23.265]811,A,D*40
$GPBOD,,T,,M,,*47
$GPBWC,042811,,,,,,T,,M,,N,,D*70
$[2024/10/02, 12:28:23.406]GPVTG,13.87,T,13.71,M,4.90,N,9.07,K,D*2C
$PGRME,16.45,M,17.41,M,23[2024/10/02, 12:28:23.546].95,M*26
$PGRMZ,9,f,3*12
$PGRMM,WGS 84*06
$HCHDM,,M*07
$WIMWV,[2024/10/02, 12:28:23.687],R,,,A*6D
$GPAPB,V,V,,,N,V,V,,,,,,,,N*68
$GPZDA,042811,02,10,2024[2024/10/02, 12:28:23.796],-08,00*64
[2024/10/02, 12:28:24.015]$GPRMC,042813,A,0114.3445,N,10338.5488,E,4.89,349.47,021024[2024/10/02, 12:28:24.281],0.16,E,D*22
$GPRMB,A,,,,,,,,,,,,V,D*19
$GPGGA,042813,0114.3445,N[2024/10/02, 12:28:24.421],10338.5488,E,2,15,0.75,3.63,M,9.57,M,,*4C
$GPGSA,A,3,10,12,18,23,[2024/10/02, 12:28:24.562]25,28,29,32,,,,,1.37,0.75,1.15*0D
$GPGSV,4,1,16,10,15,340,26,12,22[2024/10/02, 12:28:24.702],095,16,18,76,178,23,23,36,016,24*77
$GPGSV,4,2,16,25,39,135,13,28[2024/10/02, 12:28:24.843],43,224,25,29,18,168,18,32,26,305,27*7C
$GPGSV,4,3,16,41,65,266,32[2024/10/02, 12:28:24.984],,30,113,16,,50,142,17,,76,336,26*7C
$GPGSV,4,4,16,,69,001,26,,53,[2024/10/02, 12:28:25.124]182,26,,24,293,29,,50,242,28*73
$GPGLL,0114.3445,N,10338.5488,E,04[2024/10/02, 12:28:25.265]2813,A,D*44
$GPBOD,,T,,M,,*47
$GPBWC,042813,,,,,,T,,M,,N,,D*72
[2024/10/02, 12:28:25.405]$GPVTG,349.47,T,349.31,M,4.89,N,9.06,K,D*2D
$PGRME,16.46,M,17.06,M[2024/10/02, 12:28:25.546],23.70,M*2D
$PGRMZ,12,f,3*28
$PGRMM,WGS 84*06
$HCHDM,,M*07
$WI[2024/10/02, 12:28:25.687]MWV,,R,,,A*6D
$GPAPB,V,V,,,N,V,V,,,,,,,,N*68
$GPZDA,042813,02,10,[2024/10/02, 12:28:25.811]2024,-08,00*66
[2024/10/02, 12:28:26.015]$GPRMC,042815,A,0114.3474,N,10338.5482,E,4.92,347.79,021024[2024/10/02, 12:28:26.280],0.16,E,D*25
$GPRMB,A,,,,,,,,,,,,V,D*19
$GPGGA,042815,0114.3474,N[2024/10/02, 12:28:26.421],10338.5482,E,2,15,0.75,4.84,M,9.57,M,,*4C
$GPGSA,A,3,10,12,18,23,[2024/10/02, 12:28:26.561]25,28,29,32,,,,,1.37,0.75,1.15*0D
$GPGSV,4,1,16,10,15,340,25,12,2[2024/10/02, 12:28:26.702]2,095,15,18,76,178,24,23,36,016,22*76
$GPGSV,4,2,16,25,39,135,13,2[2024/10/02, 12:28:26.842]8,43,224,25,29,18,168,18,32,26,305,24*7F
$GPGSV,4,3,16,41,65,266,32[2024/10/02, 12:28:26.983],,30,113,14,,50,142,17,,76,336,26*7E
$GPGSV,4,4,16,,69,001,25,,53,[2024/10/02, 12:28:27.124]182,26,,24,293,29,,50,242,29*71
$GPGLL,0114.3474,N,10338.5482,E,0[2024/10/02, 12:28:27.264]42815,A,D*4A
$GPBOD,,T,,M,,*47
$GPBWC,042815,,,,,,T,,M,,N,,D*74
[2024/10/02, 12:28:27.405]$GPVTG,347.79,T,347.63,M,4.92,N,9.11,K,D*2B
$PGRME,16.46,M,16.84,M[2024/10/02, 12:28:27.545],23.55,M*21
$PGRMZ,16,f,3*2C
$PGRMM,WGS 84*06
$HCHDM,,M*07
$WI[2024/10/02, 12:28:27.686]MWV,,R,,,A*6D
$GPAPB,V,V,,,N,V,V,,,,,,,,N*68
$GPZDA,042815,02,10[2024/10/02, 12:28:27.811],2024,-08,00*60
[2024/10/02, 12:28:28.014]$GPRMC,042817,A,0114.3504,N,10338.5472,E,5.03,335.02,021024[2024/10/02, 12:28:28.280],0.16,E,D*2E
$GPRMB,A,,,,,,,,,,,,V,D*19
$GPGGA,042817,0114.3504,[2024/10/02, 12:28:28.420]N,10338.5472,E,2,16,0.72,5.24,M,9.57,M,,*48
$GPGSA,A,3,10,12,18,23[2024/10/02, 12:28:28.561],25,28,29,32,,,,,1.23,0.72,1.00*0B
$GPGSV,5,1,17,10,15,340,24,12,2[2024/10/02, 12:28:28.701]2,095,15,18,76,178,23,23,36,016,21*73
$GPGSV,5,2,17,25,39,135,14,2[2024/10/02, 12:28:28.842]8,43,224,26,29,18,168,16,32,26,305,27*76
$GPGSV,5,3,17,41,65,266,3[2024/10/02, 12:28:28.983]2,,30,113,15,,50,142,18,,76,336,26*70
$GPGSV,5,4,17,,07,153,16,,69[2024/10/02, 12:28:29.123],001,26,,53,182,26,,24,293,28*7E
$GPGSV,5,5,17,,50,242,29*45
$GPG[2024/10/02, 12:28:29.264]LL,0114.3504,N,10338.5472,E,042817,A,D*41
$GPBOD,,T,,M,,*47
$GPBW[2024/10/02, 12:28:29.404]C,042817,,,,,,T,,M,,N,,D*76
$GPVTG,335.02,T,334.86,M,5.03,N,9.32,[2024/10/02, 12:28:29.545]K,D*25
$PGRME,16.47,M,16.83,M,23.55,M*27
$PGRMZ,17,f,3*2D
$PGRMM[2024/10/02, 12:28:29.686],WGS 84*06
$HCHDM,,M*07
$WIMWV,,R,,,A*6D
$GPAPB,V,V,,,N,V,V,,,,[2024/10/02, 12:28:29.811],,,,N*68
$GPZDA,042817,02,10,2024,-08,00*62
[2024/10/02, 12:28:30.014]$GPRMC,042819,A,0114.3536,N,10338.5467,E,5.22,345.62,021024[2024/10/02, 12:28:30.279],0.16,E,D*27
$GPRMB,A,,,,,,,,,,,,V,D*19
$GPGGA,042819,0114.3536,[2024/10/02, 12:28:30.420]N,10338.5467,E,2,16,0.72,6.14,M,9.57,M,,*43
$GPGSA,A,3,10,12,18,23[2024/10/02, 12:28:30.560],25,28,29,32,,,,,1.23,0.72,1.00*0B
$GPGSV,5,1,17,10,15,340,24,12,[2024/10/02, 12:28:30.701]22,095,15,18,76,178,25,23,36,016,24*70
$GPGSV,5,2,17,25,39,135,14,[2024/10/02, 12:28:30.842]28,43,224,24,29,18,168,16,32,26,305,25*76
$GPGSV,5,3,17,41,65,266,[2024/10/02, 12:28:30.982]32,,30,113,15,,50,142,19,,76,336,25*72
$GPGSV,5,4,17,,07,153,13,,69[2024/10/02, 12:28:31.123],001,25,,53,182,26,,24,293,29*79
$GPGSV,5,5,17,,50,242,28*44
$GP[2024/10/02, 12:28:31.263]GLL,0114.3536,N,10338.5467,E,042819,A,D*4A
$GPBOD,,T,,M,,*47
$GPB[2024/10/02, 12:28:31.404]WC,042819,,,,,,T,,M,,N,,D*78
$GPVTG,345.62,T,345.46,M,5.22,N,9.66,[2024/10/02, 12:28:31.544]K,D*2C
$PGRME,16.41,M,16.66,M,23.39,M*20
$PGRMZ,20,f,3*29
$PGRM[2024/10/02, 12:28:31.685]M,WGS 84*06
$HCHDM,,M*07
$WIMWV,,R,,,A*6D
$GPAPB,V,V,,,N,V,V,,,[2024/10/02, 12:28:31.810],,,,,N*68
$GPZDA,042819,02,10,2024,-08,00*6C
[2024/10/02, 12:28:22.297]$GPRMC,042821,A,0114.3571,N,10338.5463,E,5.42,353.24,02102[2024/10/02, 12:28:22.563]4,0.16,E,D*28
$GPRMB,A,,,,,,,,,,,,V,D*19
$GPGGA,042821,0114.3571,[2024/10/02, 12:28:22.703]N,10338.5463,E,2,16,0.72,7.26,M,9.57,M,,*4F
$GPGSA,A,3,10,12,18,23[2024/10/02, 12:28:22.844],25,28,29,32,,,,,1.23,0.72,1.00*0B
$GPGSV,5,1,17,10,15,340,24,12,2[2024/10/02, 12:28:22.985]2,095,16,18,76,178,23,23,36,016,24*75
$GPGSV,5,2,17,25,39,135,14,2[2024/10/02, 12:28:23.125]8,43,224,24,29,18,168,16,32,26,305,28*7B
$GPGSV,5,3,17,41,65,266,3[2024/10/02, 12:28:23.266]2,,30,113,17,,50,142,16,,76,336,27*7D
$GPGSV,5,4,17,,07,153,13,,69[2024/10/02, 12:28:23.406],001,25,,53,182,23,,24,293,30*74
$GPGSV,5,5,17,,50,242,28*44
$GPG[2024/10/02, 12:28:23.547]LL,0114.3571,N,10338.5463,E,042821,A,D*46
$GPBOD,,T,,M,,*47
$GPBW[2024/10/02, 12:28:23.688]C,042821,,,,,,T,,M,,N,,D*73
$GPVTG,353.24,T,353.08,M,5.42,N,10.04[2024/10/02, 12:28:23.828],K,D*1E
$PGRME,16.14,M,16.71,M,23.23,M*2D
$PGRMZ,24,f,3*2D
$PGRM[2024/10/02, 12:28:23.969]M,WGS 84*06
$HCHDM,,M*07
$WIMWV,,R,,,A*6D
$GPAPB,V,V,,,N,V,V,,,[2024/10/02, 12:28:24.094],,,,,N*68
$GPZDA,042821,02,10,2024,-08,00*67
[2024/10/02, 12:28:24.297]$GPRMC,042823,A,0114.3603,N,10338.5457,E,5.49,352.11,02102[2024/10/02, 12:28:24.562]4,0.16,E,D*27
$GPRMB,A,,,,,,,,,,,,V,D*19
$GPGGA,042823,0114.3603,[2024/10/02, 12:28:24.703]N,10338.5457,E,2,16,0.72,7.71,M,9.57,M,,*4E
$GPGSA,A,3,10,12,18,23[2024/10/02, 12:28:24.844],25,28,29,32,,,,,1.23,0.72,1.00*0B
$GPGSV,5,1,17,10,15,340,24,12,2[2024/10/02, 12:28:24.984]2,095,17,18,76,178,23,23,36,016,24*74
$GPGSV,5,2,17,25,39,135,14,2[2024/10/02, 12:28:25.125]8,43,224,26,29,18,168,17,32,26,305,28*78
$GPGSV,5,3,17,41,65,266,3[2024/10/02, 12:28:25.265]2,,30,113,16,,50,142,16,,76,336,26*7D
$GPGSV,5,4,17,,07,153,14,,69[2024/10/02, 12:28:25.406],001,26,,53,182,25,,24,293,32*74
$GPGSV,5,5,17,,50,242,26*4A
$GPG[2024/10/02, 12:28:25.547]LL,0114.3603,N,10338.5457,E,042823,A,D*45
$GPBOD,,T,,M,,*47
$GPB[2024/10/02, 12:28:25.687]WC,042823,,,,,,T,,M,,N,,D*71
$GPVTG,352.11,T,351.95,M,5.49,N,10.18[2024/10/02, 12:28:25.828],K,D*19
$PGRME,15.76,M,16.80,M,23.03,M*26
$PGRMZ,25,f,3*2C
$PGRM[2024/10/02, 12:28:25.968]M,WGS 84*06
$HCHDM,,M*07
$WIMWV,,R,,,A*6D
$GPAPB,V,V,,,N,V,V,,,[2024/10/02, 12:28:26.093],,,,,N*68
$GPZDA,042823,02,10,2024,-08,00*65
[2024/10/02, 12:28:26.296]$GPRMC,042825,A,0114.3633,N,10338.5455,E,5.48,358.51,02102[2024/10/02, 12:28:26.562]4,0.16,E,D*2F
$GPRMB,A,,,,,,,,,,,,V,D*19
$GPGGA,042825,0114.3633,[2024/10/02, 12:28:26.703]N,10338.5455,E,2,16,0.74,8.06,M,9.57,M,,*40
$GPGSA,A,3,10,12,18,23[2024/10/02, 12:28:26.843],25,28,29,32,,,,,1.24,0.74,1.00*0A
$GPGSV,5,1,17,10,15,340,24,12,[2024/10/02, 12:28:26.984]22,095,15,18,76,178,23,23,36,016,24*76
$GPGSV,5,2,17,25,39,135,14,[2024/10/02, 12:28:27.124]28,43,224,25,29,18,168,16,32,26,305,27*75
$GPGSV,5,3,17,41,65,266,3[2024/10/02, 12:28:27.265]2,,30,113,16,,50,142,16,,76,336,26*7D
$GPGSV,5,4,17,,07,153,13,,69[2024/10/02, 12:28:27.406],001,26,,53,182,23,,24,293,31*76
$GPGSV,5,5,17,,50,242,27*4B
$GP[2024/10/02, 12:28:27.546]GLL,0114.3633,N,10338.5455,E,042825,A,D*42
$GPBOD,,T,,M,,*47
$GPB[2024/10/02, 12:28:27.687]WC,042825,,,,,,T,,M,,N,,D*77
$GPVTG,358.51,T,358.35,M,5.48,N,10.15[2024/10/02, 12:28:27.827],K,D*18
$PGRME,15.74,M,16.88,M,23.09,M*26
$PGRMZ,26,f,3*2F
$PGR[2024/10/02, 12:28:27.968]MM,WGS 84*06
$HCHDM,,M*07
$WIMWV,,R,,,A*6D
$GPAPB,V,V,,,N,V,V,,,[2024/10/02, 12:28:28.093],,,,,N*68
$GPZDA,042825,02,10,2024,-08,00*63
[2024/10/02, 12:28:28.296]$GPRMC,042827,A,0114.3661,N,10338.5455,E,5.38,359.92,02102[2024/10/02, 12:28:28.562]4,0.16,E,D*23
$GPRMB,A,,,,,,,,,,,,V,D*19
$GPGGA,042827,0114.3661[2024/10/02, 12:28:28.702],N,10338.5455,E,2,15,0.74,7.36,M,9.57,M,,*4A
$GPGSA,A,3,10,12,18,2[2024/10/02, 12:28:28.843]3,28,29,32,,,,,,1.24,0.74,1.00*0D
$GPGSV,4,1,16,10,15,340,25,12,22[2024/10/02, 12:28:28.983],095,15,18,76,178,22,23,36,016,23*71
$GPGSV,4,2,16,28,43,224,25,29[2024/10/02, 12:28:29.124],18,168,16,32,26,305,24,41,65,266,31*7F
$GPGSV,4,3,16,,30,113,16,,[2024/10/02, 12:28:29.264]50,142,14,,76,336,26,,07,153,14*7F
$GPGSV,4,4,16,,69,001,25,,53,18[2024/10/02, 12:28:29.405]2,25,,24,293,30,,50,242,27*74
$GPGLL,0114.3661,N,10338.5455,E,0428[2024/10/02, 12:28:29.546]27,A,D*47
$GPBOD,,T,,M,,*47
$GPBWC,042827,,,,,,T,,M,,N,,D*75
$GP[2024/10/02, 12:28:29.686]VTG,359.92,T,359.76,M,5.38,N,9.97,K,D*25
$PGRME,15.75,M,17.12,M,2[2024/10/02, 12:28:29.827]3.26,M*28
$PGRMZ,24,f,3*2D
$PGRMM,WGS 84*06
$HCHDM,,M*07
$WIMW[2024/10/02, 12:28:29.967]V,,R,,,A*6D
$GPAPB,V,V,,,N,V,V,,,,,,,,N*68
$GPZDA,042827,02,10,20[2024/10/02, 12:28:30.077]24,-08,00*61
[2024/10/02, 12:28:30.295]$GPRMC,042829,A,0114.3686,N,10338.5458,E,5.27,7.95,021024[2024/10/02, 12:28:30.561],0.16,E,D*28
$GPRMB,A,,,,,,,,,,,,V,D*19
$GPGGA,042829,0114.3686,N[2024/10/02, 12:28:30.702],10338.5458,E,2,15,0.74,8.36,M,9.57,M,,*4F
$GPGSA,A,3,10,12,18,23,[2024/10/02, 12:28:30.840]28,29,32,,,,,,1.24,0.74,1.00*0D
$GPGSV,4,1,16,10,15,340,25,12,22,[2024/10/02, 12:28:30.981]095,15,18,76,178,23,23,36,016,22*71
$GPGSV,4,2,16,28,43,224,24,29,[2024/10/02, 12:28:31.122]18,168,15,32,26,305,26,41,65,266,31*7F
$GPGSV,4,3,16,,30,113,16,,5[2024/10/02, 12:28:31.262]0,142,14,,76,336,26,,07,153,16*7D
$GPGSV,4,4,16,,69,001,27,,53,181[2024/10/02, 12:28:31.403],26,,24,293,30,,50,242,28*79
$GPGLL,0114.3686,N,10338.5458,E,0428[2024/10/02, 12:28:31.543]29,A,D*4D
$GPBOD,,T,,M,,*47
$GPBWC,042829,,,,,,T,,M,,N,,D*7B
$GP[2024/10/02, 12:28:31.684]VTG,7.95,T,7.79,M,5.27,N,9.76,K,D*2C
$PGRME,15.75,M,16.77,M,23.01[2024/10/02, 12:28:31.825],M*2F
$PGRMZ,27,f,3*2E
$PGRMM,WGS 84*06
$HCHDM,,M*07
$WIMWV,,R,[2024/10/02, 12:28:31.965],,A*6D
$GPAPB,V,V,,,N,V,V,,,,,,,,N*68
$GPZDA,042829,02,10,2024,-[2024/10/02, 12:28:32.075]08,00*6F
[2024/10/02, 12:28:32.293]$GPRMC,042831,A,0114.3711,N,10338.5448,E,5.19,350.26,021[2024/10/02, 12:28:32.559]024,0.16,E,D*2B
$GPRMB,A,,,,,,,,,,,,V,D*19
$GPGGA,042831,0114.371[2024/10/02, 12:28:32.699]1,N,10338.5448,E,2,15,0.72,9.24,M,9.57,M,,*4C
$GPGSA,A,3,10,12,18,[2024/10/02, 12:28:32.840]23,28,29,32,,,,,,1.23,0.72,1.00*0C
$GPGSV,4,1,16,10,15,340,27,12,2[2024/10/02, 12:28:32.981]2,095,15,18,76,178,23,23,36,016,21*70
$GPGSV,4,2,16,28,43,224,24,2[2024/10/02, 12:28:33.121]9,18,168,14,32,26,305,25,41,65,266,30*7C
$GPGSV,4,3,16,,30,113,14,[2024/10/02, 12:28:33.262],50,142,16,,76,336,26,,07,153,16*7D
$GPGSV,4,4,16,,69,001,26,,53,1[2024/10/02, 12:28:33.402]81,25,,24,293,26,,50,242,29*7D
$GPGLL,0114.3711,N,10338.5448,E,042[2024/10/02, 12:28:33.543]831,A,D*4A
$GPBOD,,T,,M,,*47
$GPBWC,042831,,,,,,T,,M,,N,,D*72
$[2024/10/02, 12:28:33.684]GPVTG,350.26,T,350.10,M,5.19,N,9.60,K,D*21
$PGRME,15.76,M,16.71,M,[2024/10/02, 12:28:33.824]22.97,M*24
$PGRMZ,30,f,3*28
$PGRMM,WGS 84*06
$HCHDM,,M*07
$WIM[2024/10/02, 12:28:33.965]WV,,R,,,A*6D
$GPAPB,V,V,,,N,V,V,,,,,,,,N*68
$GPZDA,042831,02,10,[2024/10/02, 12:28:34.090]2024,-08,00*66
[2024/10/02, 12:28:34.293]$GPRMC,042833,A,0114.3736,N,10338.5442,E,5.16,346.05,021[2024/10/02, 12:28:34.558]024,0.16,E,D*2F
$GPRMB,A,,,,,,,,,,,,V,D*19
$GPGGA,042833,0114.373[2024/10/02, 12:28:34.699]6,N,10338.5442,E,2,16,0.72,9.91,M,9.57,M,,*4C
$GPGSA,A,3,10,12,18,[2024/10/02, 12:28:34.839]23,25,28,29,32,,,,,1.23,0.72,1.00*0B
$GPGSV,5,1,17,10,15,340,25,12[2024/10/02, 12:28:34.980],22,095,16,18,76,178,24,23,36,016,19*7D
$GPGSV,5,2,17,25,39,135,13[2024/10/02, 12:28:35.121],28,43,224,23,29,18,168,13,32,26,305,27*71
$GPGSV,5,3,17,41,65,266[2024/10/02, 12:28:35.261],31,,30,113,14,,50,142,17,,76,336,25*7E
$GPGSV,5,4,17,,07,153,15,,[2024/10/02, 12:28:35.402]69,001,26,,53,181,24,,25,292,24*70
$GPGSV,5,5,17,,50,241,30*4E
$G[2024/10/02, 12:28:35.542]PGLL,0114.3736,N,10338.5442,E,042833,A,D*47
$GPBOD,,T,,M,,*47
$GP[2024/10/02, 12:28:35.683]BWC,042833,,,,,,T,,M,,N,,D*70
$GPVTG,346.05,T,345.90,M,5.16,N,9.5[2024/10/02, 12:28:35.824]6,K,D*21
$PGRME,15.79,M,16.67,M,22.96,M*2D
$PGRMZ,33,f,3*2B
$PGR[2024/10/02, 12:28:35.964]MM,WGS 84*06
$HCHDM,,M*07
$WIMWV,,R,,,A*6D
$GPAPB,V,V,,,N,V,V,,[2024/10/02, 12:28:36.089],,,,,,N*68
$GPZDA,042833,02,10,2024,-08,00*64
[2024/10/02, 12:28:36.292]$GPRMC,042835,A,0114.3763,N,10338.5432,E,5.10,345.39,021[2024/10/02, 12:28:36.558]024,0.16,E,D*24
$GPRMB,A,,,,,,,,,,,,V,D*19
$GPGGA,042835,0114.376[2024/10/02, 12:28:36.698]3,N,10338.5432,E,2,16,0.72,10.05,M,9.56,M,,*79
$GPGSA,A,3,10,12,18[2024/10/02, 12:28:36.839],23,25,28,29,32,,,,,1.23,0.72,1.00*0B
$GPGSV,5,1,17,10,15,340,24,1[2024/10/02, 12:28:36.980]2,22,095,15,18,76,178,24,23,36,016,22*77
$GPGSV,5,2,17,25,39,135,1[2024/10/02, 12:28:37.120]3,28,43,224,25,29,18,168,15,32,26,305,26*70
$GPGSV,5,3,17,41,65,26[2024/10/02, 12:28:37.261]6,31,,30,113,15,,50,142,16,,76,336,25*7E
$GPGSV,5,4,17,,07,153,15,[2024/10/02, 12:28:37.401],69,001,26,,53,181,26,,25,292,27*71
$GPGSV,5,5,17,,50,241,29*46
$[2024/10/02, 12:28:37.542]GPGLL,0114.3763,N,10338.5432,E,042835,A,D*46
$GPBOD,,T,,M,,*47
$[2024/10/02, 12:28:37.683]GPBWC,042835,,,,,,T,,M,,N,,D*76
$GPVTG,345.39,T,345.23,M,5.10,N,9.[2024/10/02, 12:28:37.823]45,K,D*21
$PGRME,15.81,M,16.72,M,23.01,M*21
$PGRMZ,33,f,3*2B
$P[2024/10/02, 12:28:37.964]GRMM,WGS 84*06
$HCHDM,,M*07
$WIMWV,,R,,,A*6D
$GPAPB,V,V,,,N,V,V,[2024/10/02, 12:28:38.089],,,,,,,N*68
$GPZDA,042835,02,10,2024,-08,00*62
[2024/10/02, 12:28:38.292]$GPRMC,042837,A,0114.3793,N,10338.5424,E,5.04,350.72,021[2024/10/02, 12:28:38.557]024,0.16,E,D*20
$GPRMB,A,,,,,,,,,,,,V,D*19
$GPGGA,042837,0114.379[2024/10/02, 12:28:38.698]3,N,10338.5424,E,2,16,0.72,10.10,M,9.56,M,,*77
$GPGSA,A,3,10,12,1[2024/10/02, 12:28:38.839]8,23,25,28,29,32,,,,,1.23,0.72,1.00*0B
$GPGSV,5,1,17,10,15,340,26,[2024/10/02, 12:28:38.979]12,22,095,15,18,76,178,23,23,36,016,23*73
$GPGSV,5,2,17,25,39,135,[2024/10/02, 12:28:39.120]15,28,43,224,23,29,18,168,15,32,26,305,25*73
$GPGSV,5,3,17,41,65,2[2024/10/02, 12:28:39.260]66,32,,30,113,15,,50,142,17,,76,336,25*7C
$GPGSV,5,4,17,,07,153,14,[2024/10/02, 12:28:39.401],69,001,27,,53,181,26,,25,292,28*7E
$GPGSV,5,5,17,,50,241,28*47
[2024/10/02, 12:28:39.542]$GPGLL,0114.3793,N,10338.5424,E,042837,A,D*4C
$GPBOD,,T,,M,,*47
$[2024/10/02, 12:28:39.682]GPBWC,042837,,,,,,T,,M,,N,,D*74
$GPVTG,350.72,T,350.56,M,5.04,N,9.[2024/10/02, 12:28:39.823]33,K,D*28
$PGRME,15.83,M,16.85,M,23.12,M*29
$PGRMZ,33,f,3*2B
$P[2024/10/02, 12:28:39.963]GRMM,WGS 84*06
$HCHDM,,M*07
$WIMWV,,R,,,A*6D
$GPAPB,V,V,,,N,V,V,[2024/10/02, 12:28:40.088],,,,,,,N*68
$GPZDA,042837,02,10,2024,-08,00*60
[2024/10/02, 12:28:40.291]$GPRMC,042839,A,0114.3821,N,10338.5417,E,5.05,349.06,02[2024/10/02, 12:28:40.557]1024,0.16,E,D*22
$GPRMB,A,,,,,,,,,,,,V,D*19
$GPGGA,042839,0114.38[2024/10/02, 12:28:40.698]21,N,10338.5417,E,2,16,0.72,11.07,M,9.56,M,,*78
$GPGSA,A,3,10,12,1[2024/10/02, 12:28:40.838]8,23,25,28,29,32,,,,,1.23,0.72,1.00*0B
$GPGSV,5,1,17,10,15,340,25,[2024/10/02, 12:28:40.979]12,22,095,13,18,76,178,21,23,36,016,24*73
$GPGSV,5,2,17,25,39,135,[2024/10/02, 12:28:41.119]15,28,43,224,24,29,18,168,14,32,26,305,26*76
$GPGSV,5,3,17,41,65,2[2024/10/02, 12:28:41.260]66,32,,30,113,19,,50,142,17,,76,336,26*73
$GPGSV,5,4,17,,07,153,14[2024/10/02, 12:28:41.400],,69,001,26,,53,181,26,,25,292,29*7E
$GPGSV,5,5,17,,50,241,27*48
[2024/10/02, 12:28:41.541]$GPGLL,0114.3821,N,10338.5417,E,042839,A,D*44
$GPBOD,,T,,M,,*47
$[2024/10/02, 12:28:41.682]GPBWC,042839,,,,,,T,,M,,N,,D*7A
$GPVTG,349.06,T,348.90,M,5.05,N,9.[2024/10/02, 12:28:41.822]34,K,D*26
$PGRME,15.85,M,17.06,M,23.29,M*2D
$PGRMZ,36,f,3*2E
$P[2024/10/02, 12:28:41.963]GRMM,WGS 84*06
$HCHDM,,M*07
$WIMWV,,R,,,A*6D
$GPAPB,V,V,,,N,V,V[2024/10/02, 12:28:42.088],,,,,,,,N*68
$GPZDA,042839,02,10,2024,-08,00*6E
[2024/10/02, 12:28:42.291]$GPRMC,042841,A,0114.3849,N,10338.5409,E,4.97,349.39,02[2024/10/02, 12:28:42.556]1024,0.16,E,D*2A
$GPRMB,A,,,,,,,,,,,,V,D*19
$GPGGA,042841,0114.38[2024/10/02, 12:28:42.697]49,N,10338.5409,E,2,15,0.73,11.69,M,9.56,M,,*7C
$GPGSA,A,3,10,12,1[2024/10/02, 12:28:42.838]8,23,28,29,32,,,,,,1.24,0.73,1.00*0A
$GPGSV,4,1,16,10,15,340,24,12[2024/10/02, 12:28:42.978],22,095,14,18,76,178,24,23,36,016,25*71
$GPGSV,4,2,16,28,43,224,26[2024/10/02, 12:28:43.119],29,18,168,16,32,26,305,26,41,65,266,31*7E
$GPGSV,4,3,16,,30,113,1[2024/10/02, 12:28:43.259]4,,50,142,17,,76,336,26,,07,153,14*7E
$GPGSV,4,4,16,,69,001,27,,53[2024/10/02, 12:28:43.400],181,26,,25,292,29,,50,241,27*7D
$GPGLL,0114.3849,N,10338.5409,E,0[2024/10/02, 12:28:43.541]42841,A,D*4A
$GPBOD,,T,,M,,*47
$GPBWC,042841,,,,,,T,,M,,N,,D*75
[2024/10/02, 12:28:43.681]$GPVTG,349.39,T,349.23,M,4.97,N,9.20,K,D*2C
$PGRME,15.88,M,17.61,[2024/10/02, 12:28:43.822]M,23.71,M*2C
$PGRMZ,38,f,3*20
$PGRMM,WGS 84*06
$HCHDM,,M*07
$W[2024/10/02, 12:28:43.962]IMWV,,R,,,A*6D
$GPAPB,V,V,,,N,V,V,,,,,,,,N*68
$GPZDA,042841,02,10[2024/10/02, 12:28:44.087],2024,-08,00*61
[2024/10/02, 12:28:44.290]$GPRMC,042843,A,0114.3876,N,10338.5406,E,4.92,357.28,02[2024/10/02, 12:28:44.556]1024,0.16,E,D*21
$GPRMB,A,,,,,,,,,,,,V,D*19
$GPGGA,042843,0114.38[2024/10/02, 12:28:44.697]76,N,10338.5406,E,2,15,0.73,12.39,M,9.56,M,,*7B
$GPGSA,A,3,10,12,1[2024/10/02, 12:28:44.837]8,23,28,29,32,,,,,,1.24,0.73,1.00*0A
$GPGSV,4,1,16,10,15,340,25,12[2024/10/02, 12:28:44.978],22,095,14,18,76,178,23,23,36,016,23*71
$GPGSV,4,2,16,28,43,224,2[2024/10/02, 12:28:45.118]3,29,18,168,15,32,26,305,27,41,65,266,32*7A
$GPGSV,4,3,16,,30,113,1[2024/10/02, 12:28:45.259]4,,50,142,18,,76,336,26,,07,153,14*71
$GPGSV,4,4,16,,69,001,26,,53[2024/10/02, 12:28:45.389],181,24,,25,292,30,,50,241,28*79
$GPGLL,0114.3876,N,10338.540[2024/10/02, 12:28:45.530]6,E,042843,A,D*4B
$GPBOD,,T,,M,,*47
$GPBWC,042843,,,,,,T,,M,,N,,[2024/10/02, 12:28:45.670]D*77
$GPVTG,357.28,T,357.12,M,4.92,N,9.11,K,D*29
$PGRME,15.90,M,1[2024/10/02, 12:28:45.811]7.41,M,23.58,M*2C
$PGRMZ,41,f,3*2E
$PGRMM,WGS 84*06
$HCHDM,,M*0[2024/10/02, 12:28:45.951]7
$WIMWV,,R,,,A*6D
$GPAPB,V,V,,,N,V,V,,,,,,,,N*68
$GPZDA,042843,[2024/10/02, 12:28:46.076]02,10,2024,-08,00*63
[2024/10/02, 12:28:46.295]$GPRMC,042845,A,0114.3900,N,10338.5400,E,4.86,343.82,0210[2024/10/02, 12:28:46.561]24,0.16,E,D*21
$GPRMB,A,,,,,,,,,,,,V,D*19
$GPGGA,042845,0114.3900[2024/10/02, 12:28:46.701],N,10338.5400,E,2,15,0.74,12.61,M,9.56,M,,*71
$GPGSA,A,3,10,12,18,[2024/10/02, 12:28:46.842]23,28,29,32,,,,,,1.24,0.74,1.00*0D
$GPGSV,4,1,16,10,15,340,23,12,2[2024/10/02, 12:28:46.982]2,095,14,18,76,178,24,23,36,016,24*77
$GPGSV,4,2,16,28,43,224,24,2[2024/10/02, 12:28:47.123]9,18,168,18,32,26,305,26,41,65,266,32*71
$GPGSV,4,3,16,,30,113,19,[2024/10/02, 12:28:47.264],50,142,18,,76,336,26,,07,153,13*7B
$GPGSV,4,4,16,,69,001,25,,53,1[2024/10/02, 12:28:47.404]81,25,,25,292,29,,50,241,27*7C
$GPGLL,0114.3900,N,10338.5400,E,042[2024/10/02, 12:28:47.545]845,A,D*4B
$GPBOD,,T,,M,,*47
$GPBWC,042845,,,,,,T,,M,,N,,D*71
$[2024/10/02, 12:28:47.685]GPVTG,343.82,T,343.66,M,4.86,N,9.01,K,D*2E
$PGRME,15.93,M,17.97,M,[2024/10/02, 12:28:47.826]24.02,M*2C
$PGRMZ,41,f,3*2E
$PGRMM,WGS 84*06
$HCHDM,,M*07
$WIM[2024/10/02, 12:28:47.967]WV,,R,,,A*6D
$GPAPB,V,V,,,N,V,V,,,,,,,,N*68
$GPZDA,042845,02,10,2[2024/10/02, 12:28:48.076]024,-08,00*65
[2024/10/02, 12:28:48.295]$GPRMC,042847,A,0114.3927,N,10338.5401,E,4.79,0.36,021024[2024/10/02, 12:28:48.560],0.16,E,D*2C
$GPRMB,A,,,,,,,,,,,,V,D*19
$GPGGA,042847,0114.3927,N[2024/10/02, 12:28:48.701],10338.5401,E,2,15,0.73,12.88,M,9.56,M,,*77
$GPGSA,A,3,10,12,18,23[2024/10/02, 12:28:48.841],28,29,32,,,,,,1.24,0.73,1.00*0A
$GPGSV,4,1,16,10,15,340,24,12,22,[2024/10/02, 12:28:48.982]095,16,18,76,178,24,23,36,016,24*72
$GPGSV,4,2,16,28,43,224,26,29,[2024/10/02, 12:28:49.123]18,168,15,32,26,305,25,41,65,266,31*7E
$GPGSV,4,3,16,,30,113,19,,5[2024/10/02, 12:28:49.263]0,142,17,,76,336,26,,07,153,13*74
$GPGSV,4,4,16,,69,001,25,,53,181[2024/10/02, 12:28:49.404],26,,25,292,25,,50,241,27*73
$GPGLL,0114.3927,N,10338.5401,E,04284[2024/10/02, 12:28:49.544]7,A,D*4D
$GPBOD,,T,,M,,*47
$GPBWC,042847,,,,,,T,,M,,N,,D*73
$GP[2024/10/02, 12:28:49.685]VTG,0.36,T,0.20,M,4.79,N,8.87,K,D*2C
$PGRME,15.96,M,17.85,M,23.95,[2024/10/02, 12:28:49.826]M*23
$PGRMZ,42,f,3*2D
$PGRMM,WGS 84*06
$HCHDM,,M*07
$WIMWV,,R,[2024/10/02, 12:28:49.966],,A*6D
$GPAPB,V,V,,,N,V,V,,,,,,,,N*68
$GPZDA,042847,02,10,2024,-[2024/10/02, 12:28:50.075]08,00*67
[2024/10/02, 12:28:50.294]$GPRMC,042849,A,0114.3953,N,10338.5401,E,4.67,7.33,021024[2024/10/02, 12:28:50.560],0.16,E,D*2C
$GPRMB,A,,,,,,,,,,,,V,D*19
$GPGGA,042849,0114.3953,N[2024/10/02, 12:28:50.700],10338.5401,E,2,15,0.73,13.54,M,9.56,M,,*7A
$GPGSA,A,3,10,12,18,23[2024/10/02, 12:28:50.841],28,29,32,,,,,,1.24,0.73,1.00*0A
$GPGSV,4,1,16,10,15,340,26,12,22[2024/10/02, 12:28:50.981],095,19,18,76,178,23,23,36,016,25*79
$GPGSV,4,2,16,28,43,224,25,29[2024/10/02, 12:28:51.122],18,168,15,32,26,305,25,41,65,266,31*7D
$GPGSV,4,3,16,,30,113,17,,5[2024/10/02, 12:28:51.263]0,142,17,,76,336,26,,07,153,13*7A
$GPGSV,4,4,16,,69,001,25,,53,181[2024/10/02, 12:28:51.403],25,,25,292,27,,50,241,26*73
$GPGLL,0114.3953,N,10338.5401,E,0428[2024/10/02, 12:28:51.544]49,A,D*40
$GPBOD,,T,,M,,*47
$GPBWC,042849,,,,,,T,,M,,N,,D*7D
$GP[2024/10/02, 12:28:51.685]VTG,7.33,T,7.17,M,4.67,N,8.64,K,D*2F
$PGRME,15.98,M,17.99,M,24.07[2024/10/02, 12:28:51.825],M*2C
$PGRMZ,44,f,3*2B
$PGRMM,WGS 84*06
$HCHDM,,M*07
$WIMWV,,R,[2024/10/02, 12:28:51.966],,A*6D
$GPAPB,V,V,,,N,V,V,,,,,,,,N*68
$GPZDA,042849,02,10,2024,-[2024/10/02, 12:28:52.075]08,00*69
[2024/10/02, 12:28:52.294]$GPRMC,042851,A,0114.3980,N,10338.5396,E,4.58,5.65,021024[2024/10/02, 12:28:52.559],0.16,E,D*2F
$GPRMB,A,,,,,,,,,,,,V,D*19
$GPGGA,042851,0114.3980,[2024/10/02, 12:28:52.700]N,10338.5396,E,2,15,0.73,14.51,M,9.56,M,,*76
$GPGSA,A,3,10,12,18,2[2024/10/02, 12:28:52.840]3,28,29,32,,,,,,1.24,0.73,1.00*0A
$GPGSV,4,1,16,10,15,340,24,12,22[2024/10/02, 12:28:52.981],095,19,18,76,178,23,23,36,016,24*7A
$GPGSV,4,2,16,28,43,224,26,29[2024/10/02, 12:28:53.122],18,168,19,32,26,305,27,41,65,266,31*70
$GPGSV,4,3,16,,30,113,17,,[2024/10/02, 12:28:53.262]50,142,15,,76,336,26,,07,153,13*78
$GPGSV,4,4,16,,69,001,25,,53,18[2024/10/02, 12:28:53.403]1,21,,25,292,29,,50,241,26*79
$GPGLL,0114.3980,N,10338.5396,E,0428[2024/10/02, 12:28:53.543]51,A,D*4E
$GPBOD,,T,,M,,*47
$GPBWC,042851,,,,,,T,,M,,N,,D*74
$G[2024/10/02, 12:28:53.684]PVTG,5.65,T,5.49,M,4.58,N,8.49,K,D*24
$PGRME,15.99,M,17.44,M,23.66[2024/10/02, 12:28:53.825],M*2D
$PGRMZ,48,f,3*27
$PGRMM,WGS 84*06
$HCHDM,,M*07
$WIMWV,,R[2024/10/02, 12:28:53.965],,,A*6D
$GPAPB,V,V,,,N,V,V,,,,,,,,N*68
$GPZDA,042851,02,10,2024,-[2024/10/02, 12:28:54.075]08,00*60
[2024/10/02, 12:28:54.293]$GPRMC,042853,A,0114.4009,N,10338.5391,E,4.58,359.62,0210[2024/10/02, 12:28:54.559]24,0.16,E,D*28
$GPRMB,A,,,,,,,,,,,,V,D*19
$GPGGA,042853,0114.400[2024/10/02, 12:28:54.699]9,N,10338.5391,E,2,15,0.73,16.14,M,9.56,M,,*7F
$GPGSA,A,3,10,12,18[2024/10/02, 12:28:54.840],23,28,29,32,,,,,,1.24,0.73,1.00*0A
$GPGSV,4,1,16,10,15,340,24,12,[2024/10/02, 12:28:54.981]22,095,16,18,76,178,23,23,36,016,24*75
$GPGSV,4,2,16,28,43,224,26,[2024/10/02, 12:28:55.121]29,18,168,18,32,26,305,28,41,65,266,31*7E
$GPGSV,4,3,16,,30,113,17[2024/10/02, 12:28:55.262],,50,142,17,,76,336,26,,07,153,13*7A
$GPGSV,4,4,16,,69,001,26,,53,[2024/10/02, 12:28:55.402]181,22,,25,292,30,,50,241,26*71
$GPGLL,0114.4009,N,10338.5391,E,04[2024/10/02, 12:28:55.543]2853,A,D*44
$GPBOD,,T,,M,,*47
$GPBWC,042853,,,,,,T,,M,,N,,D*76
[2024/10/02, 12:28:55.684]$GPVTG,359.62,T,359.46,M,4.58,N,8.47,K,D*22
$PGRME,16.00,M,17.54,M[2024/10/02, 12:28:55.824],23.74,M*2C
$PGRMZ,53,f,3*2D
$PGRMM,WGS 84*06
$HCHDM,,M*07
$WI[2024/10/02, 12:28:55.965]MWV,,R,,,A*6D
$GPAPB,V,V,,,N,V,V,,,,,,,,N*68
$GPZDA,042853,02,10[2024/10/02, 12:28:56.090],2024,-08,00*62
[2024/10/02, 12:28:56.293]$GPRMC,042855,A,0114.4040,N,10338.5389,E,4.59,0.36,02102[2024/10/02, 12:28:56.558]4,0.16,E,D*25
$GPRMB,A,,,,,,,,,,,,V,D*19
$GPGGA,042855,0114.4040,[2024/10/02, 12:28:56.699]N,10338.5389,E,2,14,0.76,17.46,M,9.56,M,,*7F
$GPGSA,A,3,10,12,18,2[2024/10/02, 12:28:56.839]3,28,29,32,,,,,,1.38,0.76,1.15*06
$GPGSV,4,1,15,10,15,340,25,12,22[2024/10/02, 12:28:56.980],095,16,18,76,178,24,23,36,016,25*71
$GPGSV,4,2,15,28,43,224,27,29[2024/10/02, 12:28:57.121],18,168,18,32,26,305,28,41,65,266,31*7C
$GPGSV,4,3,15,,30,113,14,,[2024/10/02, 12:28:57.261]50,142,15,,76,336,27,,69,001,25*72
$GPGSV,4,4,15,,53,181,25,,25,29[2024/10/02, 12:28:57.402]2,30,,50,241,26*4F
$GPGLL,0114.4040,N,10338.5389,E,042855,A,D*46
[2024/10/02, 12:28:57.542]$GPBOD,,T,,M,,*47
$GPBWC,042855,,,,,,T,,M,,N,,D*70
$GPVTG,0.36,T[2024/10/02, 12:28:57.683],0.20,M,4.59,N,8.49,K,D*2C
$PGRME,16.01,M,17.75,M,23.90,M*24
$PG[2024/10/02, 12:28:57.824]RMZ,57,f,3*29
$PGRMM,WGS 84*06
$HCHDM,,M*07
$WIMWV,,R,,,A*6D
$G[2024/10/02, 12:28:57.964]PAPB,V,V,,,N,V,V,,,,,,,,N*68
$GPZDA,042855,02,10,2024,-08,00*64
[2024/10/02, 12:28:58.292]$GPRMC,042857,A,0114.4069,N,10338.5381,E,4.62,349.53,021[2024/10/02, 12:28:58.558]024,0.16,E,D*21
$GPRMB,A,,,,,,,,,,,,V,D*19
$GPGGA,042857,0114.406[2024/10/02, 12:28:58.698]9,N,10338.5381,E,2,14,0.76,17.89,M,9.56,M,,*7D
$GPGSA,A,3,10,12,1[2024/10/02, 12:28:58.839]8,23,28,29,32,,,,,,1.38,0.76,1.15*06
$GPGSV,4,1,15,10,16,340,24,12[2024/10/02, 12:28:58.980],22,095,15,18,76,178,23,23,36,016,25*77
$GPGSV,4,2,15,28,43,224,27[2024/10/02, 12:28:59.120],29,18,168,19,32,26,305,28,41,65,266,32*7E
$GPGSV,4,3,15,,30,113,1[2024/10/02, 12:28:59.261]5,,50,142,15,,76,336,26,,69,001,25*72
$GPGSV,4,4,15,,53,181,22,,25[2024/10/02, 12:28:59.401],292,30,,50,241,25*4B
$GPGLL,0114.4069,N,10338.5381,E,042857,A,D*4[2024/10/02, 12:28:59.542]7
$GPBOD,,T,,M,,*47
$GPBWC,042857,,,,,,T,,M,,N,,D*72
$GPVTG,349.[2024/10/02, 12:28:59.683]53,T,349.37,M,4.62,N,8.56,K,D*2F
$PGRME,16.02,M,17.53,M,23.75,M*2[2024/10/02, 12:28:59.823]8
$PGRMZ,59,f,3*27
$PGRMM,WGS 84*06
$HCHDM,,M*07
$WIMWV,,R,,,A[2024/10/02, 12:28:59.964]*6D
$GPAPB,V,V,,,N,V,V,,,,,,,,N*68
$GPZDA,042857,02,10,2024,-08,0[2024/10/02, 12:29:00.057]0*66
[2024/10/02, 12:29:00.292]$GPRMC,042859,A,0114.4099,N,10338.5382,E,4.77,350.61,021[2024/10/02, 12:29:00.557]024,0.16,E,D*2E
$GPRMB,A,,,,,,,,,,,,V,D*19
$GPGGA,042859,0114.409[2024/10/02, 12:29:00.698]9,N,10338.5382,E,2,14,0.76,18.10,M,9.56,M,,*70
$GPGSA,A,3,10,12,18[2024/10/02, 12:29:00.839],23,28,29,32,,,,,,1.38,0.76,1.15*06
$GPGSV,4,1,15,10,16,340,24,12[2024/10/02, 12:29:00.979],22,094,15,18,76,178,22,23,36,016,25*77
$GPGSV,4,2,15,28,43,224,27[2024/10/02, 12:29:01.120],29,18,168,18,32,26,305,28,41,65,266,32*7F
$GPGSV,4,3,15,,30,113,16[2024/10/02, 12:29:01.260],,50,142,15,,76,336,27,,69,001,26*73
$GPGSV,4,4,15,,53,181,25,,25,[2024/10/02, 12:29:01.401]292,30,,50,241,24*4D
$GPGLL,0114.4099,N,10338.5382,E,042859,A,D*4[2024/10/02, 12:29:01.542]5
$GPBOD,,T,,M,,*47
$GPBWC,042859,,,,,,T,,M,,N,,D*7C
$GPVTG,350.[2024/10/02, 12:29:01.682]61,T,350.45,M,4.77,N,8.84,K,D*20
$PGRME,16.03,M,17.56,M,23.77,M*2E[2024/10/02, 12:29:01.823]
$PGRMZ,59,f,3*27
$PGRMM,WGS 84*06
$HCHDM,,M*07
$WIMWV,,R,,,A*[2024/10/02, 12:29:01.963]6D
$GPAPB,V,V,,,N,V,V,,,,,,,,N*68
$GPZDA,042859,02,10,2024,-08,0[2024/10/02, 12:29:02.057]0*68
[2024/10/02, 12:29:02.291]$GPRMC,042901,A,0114.4126,N,10338.5380,E,4.75,351.72,021[2024/10/02, 12:29:02.557]024,0.16,E,D*24
$GPRMB,A,,,,,,,,,,,,V,D*19
$GPGGA,042901,0114.41[2024/10/02, 12:29:02.697]26,N,10338.5380,E,2,14,0.76,17.14,M,9.56,M,,*70
$GPGSA,A,3,10,12,1[2024/10/02, 12:29:02.838]8,23,28,29,32,,,,,,1.38,0.76,1.15*06
$GPGSV,4,1,15,10,16,340,24,12[2024/10/02, 12:29:02.979],22,094,17,18,76,178,23,23,36,016,24*75
$GPGSV,4,2,15,28,43,224,28[2024/10/02, 12:29:03.119],29,18,168,16,32,26,305,29,41,65,266,32*7F
$GPGSV,4,3,15,,30,113,1[2024/10/02, 12:29:03.260]6,,50,142,15,,76,336,26,,69,001,26*72
$GPGSV,4,4,15,,53,181,25,,25[2024/10/02, 12:29:03.400],292,30,,50,241,25*4C
$GPGLL,0114.4126,N,10338.5380,E,042901,A,D*4[2024/10/02, 12:29:03.541]E
$GPBOD,,T,,M,,*47
$GPBWC,042901,,,,,,T,,M,,N,,D*70
$GPVTG,351.[2024/10/02, 12:29:03.682]72,T,351.56,M,4.75,N,8.79,K,D*20
$PGRME,16.03,M,17.43,M,23.68,M*2[2024/10/02, 12:29:03.822]4
$PGRMZ,56,f,3*28
$PGRMM,WGS 84*06
$HCHDM,,M*07
$WIMWV,,R,,,A*[2024/10/02, 12:29:03.963]6D
$GPAPB,V,V,,,N,V,V,,,,,,,,N*68
$GPZDA,042901,02,10,2024,-08,0[2024/10/02, 12:29:04.057]0*64
[2024/10/02, 12:29:04.291]$GPRMC,042903,A,0114.4153,N,10338.5382,E,4.76,351.84,021[2024/10/02, 12:29:04.556]024,0.16,E,D*2C
$GPRMB,A,,,,,,,,,,,,V,D*19
$GPGGA,042903,0114.41[2024/10/02, 12:29:04.697]53,N,10338.5382,E,2,14,0.76,16.60,M,9.56,M,,*70
$GPGSA,A,3,10,12,1[2024/10/02, 12:29:04.838]8,23,28,29,32,,,,,,1.38,0.76,1.16*05
$GPGSV,4,1,15,10,16,340,23,12[2024/10/02, 12:29:04.978],22,094,16,18,76,178,21,23,36,016,25*70
$GPGSV,4,2,15,28,43,224,27[2024/10/02, 12:29:05.119],29,18,168,18,32,26,305,28,41,65,266,32*7F
$GPGSV,4,3,15,,30,113,1[2024/10/02, 12:29:05.259]5,,50,142,14,,76,336,26,,69,001,25*73
$GPGSV,4,4,15,,53,181,21,,25[2024/10/02, 12:29:05.400],292,31,,50,241,26*4A
$GPGLL,0114.4153,N,10338.5382,E,042903,A,D*4[2024/10/02, 12:29:05.541]C
$GPBOD,,T,,M,,*47
$GPBWC,042903,,,,,,T,,M,,N,,D*72
$GPVTG,351[2024/10/02, 12:29:05.681].84,T,351.68,M,4.76,N,8.81,K,D*20
$PGRME,16.03,M,17.52,M,23.75,M*2[2024/10/02, 12:29:05.822]8
$PGRMZ,54,f,3*2A
$PGRMM,WGS 84*06
$HCHDM,,M*07
$WIMWV,,R,,,A[2024/10/02, 12:29:05.962]*6D
$GPAPB,V,V,,,N,V,V,,,,,,,,N*68
$GPZDA,042903,02,10,2024,-08,0[2024/10/02, 12:29:06.056]0*66
[2024/10/02, 12:29:06.290]$GPRMC,042905,A,0114.4178,N,10338.5382,E,4.76,352.24,02[2024/10/02, 12:29:06.556]1024,0.16,E,D*2A
$GPRMB,A,,,,,,,,,,,,V,D*19
$GPGGA,042905,0114.41[2024/10/02, 12:29:06.697]78,N,10338.5382,E,2,14,0.75,15.69,M,9.56,M,,*76
$GPGSA,A,3,10,12,1[2024/10/02, 12:29:06.837]8,23,28,29,32,,,,,,1.38,0.75,1.15*05
$GPGSV,4,1,15,10,16,340,25,12[2024/10/02, 12:29:06.978],22,094,17,18,75,178,23,23,36,016,22*71
$GPGSV,4,2,15,28,43,224,26[2024/10/02, 12:29:07.118],29,18,168,18,32,26,305,27,41,65,266,32*71
$GPGSV,4,3,15,,30,113,1[2024/10/02, 12:29:07.259]5,,50,142,17,,76,336,26,,69,001,25*70
$GPGSV,4,4,15,,53,181,21,,25[2024/10/02, 12:29:07.399],292,31,,50,241,26*4A
$GPGLL,0114.4178,N,10338.5382,E,042905,A,D*4[2024/10/02, 12:29:07.540]3
$GPBOD,,T,,M,,*47
$GPBWC,042905,,,,,,T,,M,,N,,D*74
$GPVTG,352[2024/10/02, 12:29:07.681].24,T,352.08,M,4.76,N,8.81,K,D*2C
$PGRME,16.04,M,17.62,M,23.83,M*2[2024/10/02, 12:29:07.821]5
$PGRMZ,51,f,3*2F
$PGRMM,WGS 84*06
$HCHDM,,M*07
$WIMWV,,R,,,A[2024/10/02, 12:29:07.962]*6D
$GPAPB,V,V,,,N,V,V,,,,,,,,N*68
$GPZDA,042905,02,10,2024,-08,0[2024/10/02, 12:29:08.056]0*60
[2024/10/02, 12:29:08.290]$GPRMC,042907,A,0114.4201,N,10338.5386,E,4.60,7.00,0210[2024/10/02, 12:29:08.555]24,0.16,E,D*23
$GPRMB,A,,,,,,,,,,,,V,D*19
$GPGGA,042907,0114.4201[2024/10/02, 12:29:08.696],N,10338.5386,E,2,15,0.75,15.58,M,9.56,M,,*7E
$GPGSA,A,3,10,12,18,[2024/10/02, 12:29:08.837]23,25,28,29,32,,,,,1.38,0.75,1.15*02
$GPGSV,4,1,16,10,16,340,25,12[2024/10/02, 12:29:08.977],22,094,14,18,75,178,24,23,36,016,24*70
$GPGSV,4,2,16,25,39,135,16[2024/10/02, 12:29:09.118],28,43,224,27,29,18,168,18,32,26,305,27*7B
$GPGSV,4,3,16,41,65,266[2024/10/02, 12:29:09.258],32,,30,113,15,,50,142,18,,76,336,26*70
$GPGSV,4,4,16,,69,001,26,,[2024/10/02, 12:29:09.399]53,181,20,,25,292,30,,50,241,27*72
$GPGLL,0114.4201,N,10338.5386,E[2024/10/02, 12:29:09.540],042907,A,D*48
$GPBOD,,T,,M,,*47
$GPBWC,042907,,,,,,T,,M,,N,,D*7[2024/10/02, 12:29:09.680]6
$GPVTG,7.00,T,6.84,M,4.60,N,8.53,K,D*27
$PGRME,16.04,M,17.77,M,[2024/10/02, 12:29:09.821]23.94,M*27
$PGRMZ,51,f,3*2F
$PGRMM,WGS 84*06
$HCHDM,,M*07
$WIM[2024/10/02, 12:29:09.961]WV,,R,,,A*6D
$GPAPB,V,V,,,N,V,V,,,,,,,,N*68
$GPZDA,042907,02,10,2[2024/10/02, 12:29:10.071]024,-08,00*62
[2024/10/02, 12:29:10.289]$GPRMC,042909,A,0114.4227,N,10338.5387,E,4.63,4.89,0210[2024/10/02, 12:29:10.555]24,0.16,E,D*29
$GPRMB,A,,,,,,,,,,,,V,D*19
$GPGGA,042909,0114.422[2024/10/02, 12:29:10.696]7,N,10338.5387,E,2,15,0.75,14.91,M,9.56,M,,*71
$GPGSA,A,3,10,12,18,[2024/10/02, 12:29:10.836]23,25,28,29,32,,,,,1.38,0.75,1.15*02
$GPGSV,4,1,16,10,16,340,23,1[2024/10/02, 12:29:10.977]2,22,094,14,18,75,178,20,23,36,016,25*73
$GPGSV,4,2,16,25,39,135,1[2024/10/02, 12:29:11.117]5,28,43,224,26,29,18,168,19,32,26,305,28*77
$GPGSV,4,3,16,41,65,266[2024/10/02, 12:29:11.258],32,,30,113,15,,50,142,18,,76,336,26*70
$GPGSV,4,4,16,,69,001,25,,[2024/10/02, 12:29:11.399]53,181,19,,25,292,31,,50,241,29*74
$GPGLL,0114.4227,N,10338.5387,[2024/10/02, 12:29:11.539]E,042909,A,D*43
$GPBOD,,T,,M,,*47
$GPBWC,042909,,,,,,T,,M,,N,,D*7[2024/10/02, 12:29:11.680]8
$GPVTG,4.89,T,4.73,M,4.63,N,8.57,K,D*28
$PGRME,16.05,M,17.86,M,[2024/10/02, 12:29:11.820]24.01,M*23
$PGRMZ,49,f,3*26
$PGRMM,WGS 84*06
$HCHDM,,M*07
$WIM[2024/10/02, 12:29:11.961]WV,,R,,,A*6D
$GPAPB,V,V,,,N,V,V,,,,,,,,N*68
$GPZDA,042909,02,10,[2024/10/02, 12:29:12.086]2024,-08,00*6C
[2024/10/02, 12:29:12.289]$GPRMC,042911,A,0114.4253,N,10338.5388,E,4.63,10.97,021[2024/10/02, 12:29:12.555]024,0.16,E,D*16
$GPRMB,A,,,,,,,,,,,,V,D*19
$GPGGA,042911,0114.42[2024/10/02, 12:29:12.695]53,N,10338.5388,E,2,15,0.75,14.11,M,9.56,M,,*7C
$GPGSA,A,3,10,12,1[2024/10/02, 12:29:12.836]8,23,25,28,29,32,,,,,1.38,0.75,1.15*02
$GPGSV,4,1,16,10,16,340,23,[2024/10/02, 12:29:12.976]12,22,094,17,18,75,178,23,23,37,017,24*72
$GPGSV,4,2,16,25,39,135,[2024/10/02, 12:29:13.117]15,28,43,224,26,29,18,168,18,32,26,305,26*78
$GPGSV,4,3,16,41,65,2[2024/10/02, 12:29:13.257]66,31,,30,113,15,,50,142,15,,76,336,26*7E
$GPGSV,4,4,16,,69,001,26[2024/10/02, 12:29:13.398],,53,181,23,,25,292,28,,50,241,24*7B
$GPGLL,0114.4253,N,10338.5388[2024/10/02, 12:29:13.539],E,042911,A,D*46
$GPBOD,,T,,M,,*47
$GPBWC,042911,,,,,,T,,M,,N,,D*[2024/10/02, 12:29:13.679]71
$GPVTG,10.97,T,10.81,M,4.63,N,8.58,K,D*25
$PGRME,16.06,M,18.1[2024/10/02, 12:29:13.820]4,M,24.23,M*24
$PGRMZ,46,f,3*29
$PGRMM,WGS 84*06
$HCHDM,,M*07
$[2024/10/02, 12:29:13.960]WIMWV,,R,,,A*6D
$GPAPB,V,V,,,N,V,V,,,,,,,,N*68
$GPZDA,042911,02,[2024/10/02, 12:29:14.085]10,2024,-08,00*65
[2024/10/02, 12:29:14.288]$GPRMC,042913,A,0114.4282,N,10338.5385,E,4.66,8.85,0210[2024/10/02, 12:29:14.554]24,0.16,E,D*2A
$GPRMB,A,,,,,,,,,,,,V,D*19
$GPGGA,042913,0114.428[2024/10/02, 12:29:14.695]2,N,10338.5385,E,2,15,0.75,14.39,M,9.56,M,,*75
$GPGSA,A,3,10,12,18[2024/10/02, 12:29:14.835],23,25,28,29,32,,,,,1.38,0.75,1.16*01
$GPGSV,4,1,16,10,16,340,23,1[2024/10/02, 12:29:14.976]2,22,094,17,18,75,178,23,23,37,017,24*72
$GPGSV,4,2,16,25,39,135,1[2024/10/02, 12:29:15.116]3,28,43,224,27,29,18,168,18,32,26,305,25*7C
$GPGSV,4,3,16,41,65,26[2024/10/02, 12:29:15.257]6,31,,30,113,14,,50,142,14,,76,336,27*7F
$GPGSV,4,4,16,,69,001,25,[2024/10/02, 12:29:15.398],53,181,20,,25,292,29,,50,241,25*7B
$GPGLL,0114.4282,N,10338.5385,[2024/10/02, 12:29:15.538]E,042913,A,D*45
$GPBOD,,T,,M,,*47
$GPBWC,042913,,,,,,T,,M,,N,,D*7[2024/10/02, 12:29:15.679]3
$GPVTG,8.85,T,8.69,M,4.66,N,8.63,K,D*2D
$PGRME,16.07,M,17.88,M[2024/10/02, 12:29:15.819],24.04,M*2A
$PGRMZ,47,f,3*28
$PGRMM,WGS 84*06
$HCHDM,,M*07
$WI[2024/10/02, 12:29:15.960]MWV,,R,,,A*6D
$GPAPB,V,V,,,N,V,V,,,,,,,,N*68
$GPZDA,042913,02,10,[2024/10/02, 12:29:16.085]2024,-08,00*67
[2024/10/02, 12:29:16.288]$GPRMC,042915,A,0114.4310,N,10338.5379,E,4.78,350.47,0[2024/10/02, 12:29:16.554]21024,0.16,E,D*2A
$GPRMB,A,,,,,,,,,,,,V,D*19
$GPGGA,042915,0114.4[2024/10/02, 12:29:16.694]310,N,10338.5379,E,2,15,0.75,14.59,M,9.56,M,,*7C
$GPGSA,A,3,10,12,[2024/10/02, 12:29:16.835]18,23,25,28,29,32,,,,,1.38,0.75,1.16*01
$GPGSV,4,1,16,10,16,340,23[2024/10/02, 12:29:16.975],12,22,094,15,18,75,178,24,23,37,017,25*76
$GPGSV,4,2,16,25,39,135[2024/10/02, 12:29:17.116],15,28,43,225,27,29,18,168,17,32,26,305,28*79
$GPGSV,4,3,16,41,65,[2024/10/02, 12:29:17.257]266,31,,30,113,14,,50,142,14,,76,336,26*7E
$GPGSV,4,4,16,,69,001,2[2024/10/02, 12:29:17.397]6,,53,181,25,,25,292,30,,50,241,26*76
$GPGLL,0114.4310,N,10338.537[2024/10/02, 12:29:17.538]9,E,042915,A,D*4A
$GPBOD,,T,,M,,*47
$GPBWC,042915,,,,,,T,,M,,N,,D[2024/10/02, 12:29:17.678]*75
$GPVTG,350.47,T,350.31,M,4.78,N,8.85,K,D*29
$PGRME,16.08,M,1[2024/10/02, 12:29:17.819]7.54,M,23.80,M*2F
$PGRMZ,48,f,3*27
$PGRMM,WGS 84*06
$HCHDM,,M*07[2024/10/02, 12:29:17.959]
$WIMWV,,R,,,A*6D
$GPAPB,V,V,,,N,V,V,,,,,,,,N*68
$GPZDA,042915,[2024/10/02, 12:29:18.084]02,10,2024,-08,00*61
[2024/10/02, 12:29:18.288]$GPRMC,042917,A,0114.4336,N,10338.5373,E,4.73,347.70,0[2024/10/02, 12:29:18.553]21024,0.16,E,D*2F
$GPRMB,A,,,,,,,,,,,,V,D*19
$GPGGA,042917,0114.4[2024/10/02, 12:29:18.694]336,N,10338.5373,E,2,15,0.75,15.14,M,9.56,M,,*78
$GPGSA,A,3,10,12,[2024/10/02, 12:29:18.834]18,23,25,28,29,32,,,,,1.38,0.75,1.15*02
$GPGSV,4,1,16,10,16,340,26[2024/10/02, 12:29:18.975],12,22,094,15,18,75,178,24,23,37,017,25*73
$GPGSV,4,2,16,25,39,135[2024/10/02, 12:29:19.115],14,28,43,225,26,29,18,167,15,32,26,305,27*7B
$GPGSV,4,3,16,41,65,[2024/10/02, 12:29:19.256]266,31,,30,113,17,,50,142,14,,76,336,26*7D
$GPGSV,4,4,16,,69,001,2[2024/10/02, 12:29:19.397]6,,53,181,26,,25,292,30,,50,241,27*74
$GPGLL,0114.4336,N,10338.537[2024/10/02, 12:29:19.537]3,E,042917,A,D*46
$GPBOD,,T,,M,,*47
$GPBWC,042917,,,,,,T,,M,,N,,[2024/10/02, 12:29:19.678]D*77
$GPVTG,347.70,T,347.54,M,4.73,N,8.76,K,D*29
$PGRME,16.08,M,1[2024/10/02, 12:29:19.819]7.29,M,23.61,M*2A
$PGRMZ,50,f,3*2E
$PGRMM,WGS 84*06
$HCHDM,,M*0[2024/10/02, 12:29:19.959]7
$WIMWV,,R,,,A*6D
$GPAPB,V,V,,,N,V,V,,,,,,,,N*68
$GPZDA,042917,[2024/10/02, 12:29:20.084]02,10,2024,-08,00*63
[2024/10/02, 12:29:20.287]$GPRMC,042919,A,0114.4362,N,10338.5372,E,4.67,352.26,0[2024/10/02, 12:29:20.553]21024,0.16,E,D*23
$GPRMB,A,,,,,,,,,,,,V,D*19
$GPGGA,042919,0114.4[2024/10/02, 12:29:20.693]362,N,10338.5372,E,2,15,0.75,14.81,M,9.56,M,,*7B
$GPGSA,A,3,10,12,[2024/10/02, 12:29:20.834]18,23,25,28,29,32,,,,,1.38,0.75,1.15*02
$GPGSV,4,1,16,10,16,340,2[2024/10/02, 12:29:20.974]5,12,22,094,18,18,75,178,20,23,37,017,24*78
$GPGSV,4,2,16,25,39,13[2024/10/02, 12:29:21.115]5,14,28,43,225,27,29,18,167,17,32,26,306,28*74
$GPGSV,4,3,16,41,65,[2024/10/02, 12:29:21.256]266,32,,30,113,17,,50,142,14,,76,336,27*7F
$GPGSV,4,4,16,,69,001,2[2024/10/02, 12:29:21.396]6,,53,181,23,,25,292,31,,50,241,27*70
$GPGLL,0114.4362,N,10338.53[2024/10/02, 12:29:21.537]72,E,042919,A,D*48
$GPBOD,,T,,M,,*47
$GPBWC,042919,,,,,,T,,M,,N,,[2024/10/02, 12:29:21.677]D*79
$GPVTG,352.26,T,352.10,M,4.67,N,8.65,K,D*2D
$PGRME,15.78,M,1[2024/10/02, 12:29:21.818]7.27,M,23.40,M*23
$PGRMZ,49,f,3*26
$PGRMM,WGS 84*06
$HCHDM,,M*0[2024/10/02, 12:29:21.959]7
$WIMWV,,R,,,A*6D
$GPAPB,V,V,,,N,V,V,,,,,,,,N*68
$GPZDA,042919[2024/10/02, 12:29:22.084],02,10,2024,-08,00*6D
[2024/10/02, 12:29:22.287]$GPRMC,042921,A,0114.4386,N,103[2024/10/02, 12:29:22.505]38.5378,E,4.56,2.04,021024,0.16,E,D*2C
$GPRMB,A,,,,,,,,,,,,V,D*19[2024/10/02, 12:29:22.646]
$GPGGA,042921,0114.4386,N,10338.5378,E,2,15,0.75,13.41,M,9.56,M,,*[2024/10/02, 12:29:22.786]7B
$GPGSA,A,3,10,12,18,23,25,28,29,32,,,,,1.38,0.75,1.16*01
$GPGS[2024/10/02, 12:29:22.927]V,4,1,16,10,16,340,23,12,22,094,15,18,75,178,24,23,37,017,26*75
$G[2024/10/02, 12:29:23.068]PGSV,4,2,16,25,39,135,14,28,43,225,27,29,18,167,17,32,26,306,28*74[2024/10/02, 12:29:23.208]
$GPGSV,4,3,16,41,65,266,32,,30,112,19,,50,142,15,,76,336,26*70
$G[2024/10/02, 12:29:23.349]PGSV,4,4,16,,69,001,27,,53,181,24,,25,292,30,,50,241,26*76
$GPGLL,[2024/10/02, 12:29:23.489]0114.4386,N,10338.5378,E,042921,A,D*43
$GPBOD,,T,,M,,*47
$GPBWC,0[2024/10/02, 12:29:23.630]42921,,,,,,T,,M,,N,,D*72
$GPVTG,2.04,T,1.88,M,4.56,N,8.45,K,D*2F[2024/10/02, 12:29:23.771]
$PGRME,15.61,M,17.19,M,23.22,M*22
$PGRMZ,44,f,3*2B
$PGRMM,WGS 84[2024/10/02, 12:29:23.911]*06
$HCHDM,,M*07
$WIMWV,,R,,,A*6D
$GPAPB,V,V,,,N,V,V,,,,,,,,N*6[2024/10/02, 12:29:24.021]8
$GPZDA,042921,02,10,2024,-08,00*66
[2024/10/02, 12:29:24.286]$GPRMC,042923,A,0114.4411,N,103[2024/10/02, 12:29:24.505]38.5377,E,4.56,359.83,021024,0.16,E,D*2A
$GPRMB,A,,,,,,,,,,,,V,D*1[2024/10/02, 12:29:24.645]9
$GPGGA,042923,0114.4411,N,10338.5377,E,2,15,0.75,13.54,M,9.56,M,[2024/10/02, 12:29:24.786],*7B
$GPGSA,A,3,10,12,18,23,25,28,29,32,,,,,1.38,0.75,1.16*01
$GP[2024/10/02, 12:29:24.927]GSV,4,1,16,10,16,340,23,12,22,094,15,18,75,178,22,23,37,017,26*73
[2024/10/02, 12:29:25.067]$GPGSV,4,2,16,25,39,135,14,28,43,225,27,29,18,167,19,32,26,306,29*7[2024/10/02, 12:29:25.208]B
$GPGSV,4,3,16,41,65,266,32,,30,112,15,,50,142,15,,76,336,27*7D
[2024/10/02, 12:29:25.348]$GPGSV,4,4,16,,69,001,26,,53,181,21,,25,292,31,,50,241,26*73
$GPGL[2024/10/02, 12:29:25.489]L,0114.4411,N,10338.5377,E,042923,A,D*47
$GPBOD,,T,,M,,*47
$GPBWC[2024/10/02, 12:29:25.630],042923,,,,,,T,,M,,N,,D*70
$GPVTG,359.83,T,359.67,M,4.56,N,8.44,K[2024/10/02, 12:29:25.770],D*23
$PGRME,15.61,M,17.27,M,23.28,M*25
$PGRMZ,44,f,3*2B
$PGRMM,[2024/10/02, 12:29:25.911]WGS 84*06
$HCHDM,,M*07
$WIMWV,,R,,,A*6D
$GPAPB,V,V,,,N,V,V,,,,,[2024/10/02, 12:29:26.036],,,N*68
$GPZDA,042923,02,10,2024,-08,00*64
[2024/10/02, 12:29:26.286]$GPRMC,042925,A,0114.4438,N,103[2024/10/02, 12:29:26.504]38.5380,E,4.57,2.96,021024,0.16,E,D*27
$GPRMB,A,,,,,,,,,,,,V,D*19[2024/10/02, 12:29:26.645]
$GPGGA,042925,0114.4438,N,10338.5380,E,2,15,0.75,13.36,M,9.56,M,,*[2024/10/02, 12:29:26.786]7A
$GPGSA,A,3,10,12,18,23,25,28,29,32,,,,,1.38,0.75,1.16*01
$GPG[2024/10/02, 12:29:26.926]SV,4,1,16,10,16,340,22,12,22,094,15,18,75,178,21,23,37,017,25*72
$[2024/10/02, 12:29:27.067]GPGSV,4,2,16,25,39,135,15,28,43,225,27,29,18,167,18,32,26,306,28*7A[2024/10/02, 12:29:27.207]
$GPGSV,4,3,16,41,65,266,31,,30,112,13,,50,142,19,,76,336,26*75
$[2024/10/02, 12:29:27.348]GPGSV,4,4,16,,69,001,26,,53,181,19,,25,292,31,,50,241,27*79
$GPGLL[2024/10/02, 12:29:27.488],0114.4438,N,10338.5380,E,042925,A,D*42
$GPBOD,,T,,M,,*47
$GPBWC,[2024/10/02, 12:29:27.629]042925,,,,,,T,,M,,N,,D*76
$GPVTG,2.96,T,2.80,M,4.57,N,8.46,K,D*2D[2024/10/02, 12:29:27.770]
$PGRME,15.61,M,17.32,M,23.32,M*2A
$PGRMZ,44,f,3*2B
$PGRMM,WGS 8[2024/10/02, 12:29:27.910]4*06
$HCHDM,,M*07
$WIMWV,,R,,,A*6D
$GPAPB,V,V,,,N,V,V,,,,,,,,N*[2024/10/02, 12:29:28.020]68
$GPZDA,042925,02,10,2024,-08,00*62
[2024/10/02, 12:29:28.285]$GPRMC,042927,A,0114.4466,N,103[2024/10/02, 12:29:28.504]38.5378,E,4.59,1.46,021024,0.16,E,D*29
$GPRMB,A,,,,,,,,,,,,V,D*19[2024/10/02, 12:29:28.644]
$GPGGA,042927,0114.4466,N,10338.5378,E,2,15,0.75,13.39,M,9.56,M,,[2024/10/02, 12:29:28.785]*7B
$GPGSA,A,3,10,12,18,23,25,28,29,32,,,,,1.38,0.75,1.16*01
$GPG[2024/10/02, 12:29:28.926]SV,4,1,16,10,16,340,25,12,22,094,15,18,75,178,22,23,37,017,23*70
$[2024/10/02, 12:29:29.066]GPGSV,4,2,16,25,39,135,16,28,43,225,26,29,18,167,18,32,26,306,28*78[2024/10/02, 12:29:29.207]
$GPGSV,4,3,16,41,65,266,31,,30,112,13,,50,142,17,,76,336,27*7A
$[2024/10/02, 12:29:29.347]GPGSV,4,4,16,,69,001,25,,53,181,19,,25,292,31,,50,241,27*7A
$GPGLL[2024/10/02, 12:29:29.488],0114.4466,N,10338.5378,E,042927,A,D*4C
$GPBOD,,T,,M,,*47
$GPBWC,[2024/10/02, 12:29:29.629]042927,,,,,,T,,M,,N,,D*74
$GPVTG,1.46,T,1.30,M,4.59,N,8.49,K,D*2A[2024/10/02, 12:29:29.769]
$PGRME,15.61,M,17.54,M,23.48,M*27
$PGRMZ,44,f,3*2B
$PGRMM,WGS 8[2024/10/02, 12:29:29.910]4*06
$HCHDM,,M*07
$WIMWV,,R,,,A*6D
$GPAPB,V,V,,,N,V,V,,,,,,,,N*[2024/10/02, 12:29:30.019]68
$GPZDA,042927,02,10,2024,-08,00*60
[2024/10/02, 12:29:30.285]$GPRMC,042929,A,0114.4494,N,103[2024/10/02, 12:29:30.503]38.5376,E,4.72,0.74,021024,0.16,E,D*2D
$GPRMB,A,,,,,,,,,,,,V,D*19[2024/10/02, 12:29:30.644]
$GPGGA,042929,0114.4494,N,10338.5376,E,2,15,0.72,12.85,M,9.56,M,,[2024/10/02, 12:29:30.785]*77
$GPGSA,A,3,10,12,18,23,25,28,29,32,,,,,1.23,0.72,1.00*0B
$GPG[2024/10/02, 12:29:30.925]SV,4,1,16,10,16,340,24,12,22,094,15,18,75,178,22,23,37,017,25*77
$[2024/10/02, 12:29:31.066]GPGSV,4,2,16,25,39,135,15,28,43,225,28,29,18,167,18,32,26,306,27*7A[2024/10/02, 12:29:31.206]
$GPGSV,4,3,16,41,65,266,31,,30,112,14,,50,142,16,,76,336,26*7D
$[2024/10/02, 12:29:31.347]GPGSV,4,4,16,,69,001,26,,53,181,20,,25,292,31,,50,241,27*73
$GPGLL[2024/10/02, 12:29:31.488],0114.4494,N,10338.5376,E,042929,A,D*41
$GPBOD,,T,,M,,*47
$GPBWC,[2024/10/02, 12:29:31.628]042929,,,,,,T,,M,,N,,D*7A
$GPVTG,0.74,T,0.58,M,4.72,N,8.73,K,D*25[2024/10/02, 12:29:31.769]
$PGRME,15.56,M,17.74,M,23.60,M*2B
$PGRMZ,42,f,3*2D
$PGRMM,WGS 8[2024/10/02, 12:29:31.909]4*06
$HCHDM,,M*07
$WIMWV,,R,,,A*6D
$GPAPB,V,V,,,N,V,V,,,,,,,,N*[2024/10/02, 12:29:32.019]68
$GPZDA,042929,02,10,2024,-08,00*6E
[2024/10/02, 12:29:32.300]$GPRMC,042931,A,0114.4521,N,10338.5374,E,4.70,3.30,021024,0.[2024/10/02, 12:29:32.565]16,E,D*28
$GPRMB,A,,,,,,,,,,,,V,D*19
$GPGGA,042931,0114.4521,N,10[2024/10/02, 12:29:32.706]338.5374,E,2,16,0.72,12.88,M,9.56,M,,*7D
$GPGSA,A,3,10,12,18,23,25[2024/10/02, 12:29:32.847],28,29,32,,,,,1.23,0.72,1.00*0B
$GPGSV,5,1,17,10,16,340,24,12,22,0[2024/10/02, 12:29:32.987]94,14,18,75,178,22,23,37,017,25*76
$GPGSV,5,2,17,25,39,135,15,28,4[2024/10/02, 12:29:33.128]3,225,28,29,18,167,17,32,26,306,28*7A
$GPGSV,5,3,17,41,65,266,32,,[2024/10/02, 12:29:33.268]30,112,14,,50,142,16,,76,336,26*7E
$GPGSV,5,4,17,,07,153,14,,69,00[2024/10/02, 12:29:33.409]1,26,,53,181,23,,25,292,31*72
$GPGSV,5,5,17,,50,241,26*49
$GPGLL,[2024/10/02, 12:29:33.550]0114.4521,N,10338.5374,E,042931,A,D*45
$GPBOD,,T,,M,,*47
$GPBWC,[2024/10/02, 12:29:33.690]042931,,,,,,T,,M,,N,,D*73
$GPVTG,3.30,T,3.14,M,4.70,N,8.71,K,D*2D[2024/10/02, 12:29:33.831]
$PGRME,15.57,M,17.92,M,23.73,M*20
$PGRMZ,42,f,3*2D
$PGRMM,WGS 8[2024/10/02, 12:29:33.971]4*06
$HCHDM,,M*07
$WIMWV,,R,,,A*6D
$GPAPB,V,V,,,N,V,V,,,,,,,,N*6[2024/10/02, 12:29:34.081]8
$GPZDA,042931,02,10,2024,-08,00*67
[2024/10/02, 12:29:34.299]$GPRMC,042933,A,0114.4551,N,10338.5374,E,4.77,2.53,021024,0.[2024/10/02, 12:29:34.566]16,E,D*2E
$GPRMB,A,,,,,,,,,,,,V,D*19
$GPGGA,042933,0114.4551,N,10[2024/10/02, 12:29:34.706]338.5374,E,2,16,0.72,12.21,M,9.56,M,,*7B
$GPGSA,A,3,10,12,18,23,25