[2024/10/02, 13:06:47.870],19.02,M*27
$PGRMZ,-2,f,3*34
$PGRMM,WGS 84*06
$HCHDM,,M*07
$WIM[2024/10/02, 13:06:48.010]WV,,R,,,A*6D
$GPAPB,V,V,,,N,V,V,,,,,,,,N*68
$GPZDA,050645,02,10,[2024/10/02, 13:06:48.135]2024,-08,00*68
[2024/10/02, 13:06:48.213]$GPRMC,050647,A,0114.2768,N,10339.01[2024/10/02, 13:06:48.479]16,E,3.53,99.10,021024,0.16,E,A*1C
$GPRMB,A,,,,,,,,,,,,V,A*1C
$G[2024/10/02, 13:06:48.619]PGGA,050647,0114.2768,N,10339.0116,E,1,18,0.67,1.62,M,9.60,M,,*41
[2024/10/02, 13:06:48.760]$GPGSA,A,3,10,12,18,23,25,28,29,32,,,,,1.34,0.67,1.16*0E
$GPGSV,5,[2024/10/02, 13:06:48.901]1,18,10,27,351,29,12,20,075,26,18,56,174,24,23,47,036,29*79
$GPGSV[2024/10/02, 13:06:49.041],5,2,18,25,44,111,28,28,55,247,19,29,12,154,19,32,24,323,21*7E
$GP[2024/10/02, 13:06:49.182]GSV,5,3,18,,33,105,26,,44,147,24,,67,336,25,,54,034,25*73
$GPGSV,5[2024/10/02, 13:06:49.322],4,18,,49,010,30,,60,354,30,,70,174,27,,46,050,32*7F
$GPGSV,5,5,18[2024/10/02, 13:06:49.463],,28,274,14,,42,220,20*7A
$GPGLL,0114.2768,N,10339.0116,E,050647,[2024/10/02, 13:06:49.604]A,A*46
$GPBOD,,T,,M,,*47
$GPBWC,050647,,,,,,T,,M,,N,,A*7B
$GPVTG[2024/10/02, 13:06:49.744],99.10,T,98.94,M,3.53,N,6.54,K,A*2C
$PGRME,13.13,M,13.70,M,18.97,M[2024/10/02, 13:06:49.885]*2C
$PGRMZ,5,f,3*1E
$PGRMM,WGS 84*06
$HCHDM,,M*07
$WIMWV,,R,,,[2024/10/02, 13:06:50.025]A*6D
$GPAPB,V,V,,,N,V,V,,,,,,,,N*68
$GPZDA,050647,02,10,2024,-08[2024/10/02, 13:06:50.119],00*6A
[2024/10/02, 13:06:50.260]$GPRMC,050649,A,0114.2765,N,10339.0135,E,3.59,107.36,02102[2024/10/02, 13:06:50.525]4,0.16,E,A*26
$GPRMB,A,,,,,,,,,,,,V,A*1C
$GPGGA,050649,0114.2765[2024/10/02, 13:06:50.666],N,10339.0135,E,1,18,0.67,4.26,M,9.60,M,,*46
$GPGSA,A,3,10,12,18,2[2024/10/02, 13:06:50.806]3,25,28,29,32,,,,,1.34,0.67,1.16*0E
$GPGSV,5,1,18,10,27,351,30,12,[2024/10/02, 13:06:50.947]20,075,24,18,56,174,21,23,47,036,29*76
$GPGSV,5,2,18,25,44,111,28,[2024/10/02, 13:06:51.088]28,55,247,17,29,12,154,20,32,24,323,23*78
$GPGSV,5,3,18,,33,105,25[2024/10/02, 13:06:51.228],,44,147,23,,67,336,25,,54,034,24*76
$GPGSV,5,4,18,,49,010,30,,60,[2024/10/02, 13:06:51.369]354,31,,70,174,26,,46,050,32*7F
$GPGSV,5,5,18,,28,274,15,,42,220,22[2024/10/02, 13:06:51.509]*79
$GPGLL,0114.2765,N,10339.0135,E,050649,A,A*44
$GPBOD,,T,,M,,[2024/10/02, 13:06:51.650]*47
$GPBWC,050649,,,,,,T,,M,,N,,A*75
$GPVTG,107.36,T,107.19,M,3.[2024/10/02, 13:06:51.791]59,N,6.65,K,A*24
$PGRME,13.13,M,13.71,M,18.98,M*22
$PGRMZ,14,f,3*[2024/10/02, 13:06:51.929]2E
$PGRMM,WGS 84*06
$HCHDM,,M*07
$WIMWV,,R,,,A*6D
$GPAPB,V,V,[2024/10/02, 13:06:52.070],,N,V,V,,,,,,,,N*68
$GPZDA,050649,02,10,2024,-08,00*64
[2024/10/02, 13:06:52.258]$GPRMC,050651,A,0114.2765,N,10339.0158,E,3.84,105.65,0210[2024/10/02, 13:06:52.523]24,0.16,E,A*20
$GPRMB,A,,,,,,,,,,,,V,A*1C
$GPGGA,050651,0114.276[2024/10/02, 13:06:52.664]5,N,10339.0158,E,1,18,0.67,6.68,M,9.60,M,,*4C
$GPGSA,A,3,10,12,18,[2024/10/02, 13:06:52.804]23,25,28,29,32,,,,,1.34,0.67,1.16*0E
$GPGSV,5,1,18,10,27,351,28,12[2024/10/02, 13:06:52.945],20,075,26,18,56,174,23,23,47,036,29*7F
$GPGSV,5,2,18,25,44,111,28[2024/10/02, 13:06:53.085],28,55,247,15,29,12,154,21,32,24,323,20*78
$GPGSV,5,3,18,,33,105,2[2024/10/02, 13:06:53.226]5,,44,147,22,,67,336,25,,54,034,22*71
$GPGSV,5,4,18,,49,010,30,,60[2024/10/02, 13:06:53.367],354,31,,70,174,27,,46,050,32*7E
$GPGSV,5,5,18,,28,274,17,,42,220,[2024/10/02, 13:06:53.507]19*73
$GPGLL,0114.2765,N,10339.0158,E,050651,A,A*46
$GPBOD,,T,,M,[2024/10/02, 13:06:53.648],*47
$GPBWC,050651,,,,,,T,,M,,N,,A*7C
$GPVTG,105.65,T,105.49,M,3.[2024/10/02, 13:06:53.788]84,N,7.12,K,A*26
$PGRME,13.14,M,13.67,M,18.96,M*2C
$PGRMZ,22,f,3[2024/10/02, 13:06:53.929]*2B
$PGRMM,WGS 84*06
$HCHDM,,M*07
$WIMWV,,R,,,A*6D
$GPAPB,V,V,[2024/10/02, 13:06:54.070],,N,V,V,,,,,,,,N*68
$GPZDA,050651,02,10,2024,-08,00*6D
[2024/10/02, 13:06:54.257]$GPRMC,050653,A,0114.2765,N,10339.0178,E,3.82,108.04,0210[2024/10/02, 13:06:54.523]24,0.16,E,A*2C
$GPRMB,A,,,,,,,,,,,,V,A*1C
$GPGGA,050653,0114.276[2024/10/02, 13:06:54.663]5,N,10339.0178,E,1,18,0.67,8.49,M,9.60,M,,*41
$GPGSA,A,3,10,12,18,[2024/10/02, 13:06:54.804]23,25,28,29,32,,,,,1.34,0.67,1.16*0E
$GPGSV,5,1,18,10,27,351,28,12[2024/10/02, 13:06:54.944],20,075,26,18,56,174,23,23,47,036,28*7E
$GPGSV,5,2,18,25,44,111,28[2024/10/02, 13:06:55.085],28,55,247,15,29,12,154,20,32,24,323,22*7B
$GPGSV,5,3,18,,33,105,2[2024/10/02, 13:06:55.226]6,,44,147,21,,67,336,24,,54,034,24*76
$GPGSV,5,4,18,,49,010,31,,60[2024/10/02, 13:06:55.366],354,30,,70,174,27,,46,050,32*7E
$GPGSV,5,5,18,,28,274,22,,42,220,[2024/10/02, 13:06:55.507]19*75
$GPGLL,0114.2765,N,10339.0178,E,050653,A,A*46
$GPBOD,,T,,M,[2024/10/02, 13:06:55.647],*47
$GPBWC,050653,,,,,,T,,M,,N,,A*7E
$GPVTG,108.04,T,107.88,M,3[2024/10/02, 13:06:55.788].82,N,7.07,K,A*21
$PGRME,13.14,M,13.66,M,18.95,M*2E
$PGRMZ,28,f,3[2024/10/02, 13:06:55.929]*21
$PGRMM,WGS 84*06
$HCHDM,,M*07
$WIMWV,,R,,,A*6D
$GPAPB,V,V,[2024/10/02, 13:06:56.069],,N,V,V,,,,,,,,N*68
$GPZDA,050653,02,10,2024,-08,00*6F
[2024/10/02, 13:06:56.257]$GPRMC,050655,A,0114.2762,N,10339.0193,E,3.76,111.93,021[2024/10/02, 13:06:56.522]024,0.16,E,A*25
$GPRMB,A,,,,,,,,,,,,V,A*1C
$GPGGA,050655,0114.276[2024/10/02, 13:06:56.663]2,N,10339.0193,E,1,18,0.67,10.05,M,9.60,M,,*74
$GPGSA,A,3,10,12,18[2024/10/02, 13:06:56.803],23,25,28,29,32,,,,,1.34,0.67,1.16*0E
$GPGSV,5,1,18,10,27,351,27,1[2024/10/02, 13:06:56.944]2,20,075,24,18,56,174,23,23,47,036,28*73
$GPGSV,5,2,18,25,44,111,2[2024/10/02, 13:06:57.084]8,28,55,247,16,29,12,154,23,32,24,323,20*79
$GPGSV,5,3,18,,33,105,[2024/10/02, 13:06:57.225]26,,44,147,17,,67,336,23,,54,034,24*74
$GPGSV,5,4,18,,49,010,31,,6[2024/10/02, 13:06:57.366]0,354,31,,70,174,27,,46,050,32*7F
$GPGSV,5,5,18,,28,274,22,,42,220[2024/10/02, 13:06:57.506],17*7B
$GPGLL,0114.2762,N,10339.0193,E,050655,A,A*42
$GPBOD,,T,,M[2024/10/02, 13:06:57.647],,*47
$GPBWC,050655,,,,,,T,,M,,N,,A*78
$GPVTG,111.93,T,111.77,M,[2024/10/02, 13:06:57.788]3.76,N,6.96,K,A*22
$PGRME,13.15,M,13.64,M,18.95,M*2D
$PGRMZ,33,f,[2024/10/02, 13:06:57.928]3*2B
$PGRMM,WGS 84*06
$HCHDM,,M*07
$WIMWV,,R,,,A*6D
$GPAPB,V,V[2024/10/02, 13:06:58.069],,,N,V,V,,,,,,,,N*68
$GPZDA,050655,02,10,2024,-08,00*69
[2024/10/02, 13:06:58.256]$GPRMC,050657,A,0114.2758,N,10339.0212,E,3.75,110.36,021[2024/10/02, 13:06:58.522]024,0.16,E,A*29
$GPRMB,A,,,,,,,,,,,,V,A*1C
$GPGGA,050657,0114.275[2024/10/02, 13:06:58.662]8,N,10339.0212,E,1,18,0.67,11.82,M,9.60,M,,*7B
$GPGSA,A,3,10,12,18[2024/10/02, 13:06:58.803],23,25,28,29,32,,,,,1.34,0.67,1.16*0E
$GPGSV,5,1,18,10,27,351,27,1[2024/10/02, 13:06:58.943]2,20,075,24,18,56,174,22,23,47,036,28*72
$GPGSV,5,2,18,25,44,111,2[2024/10/02, 13:06:59.084]8,28,55,247,15,29,12,154,22,32,24,323,17*7F
$GPGSV,5,3,18,,33,105,[2024/10/02, 13:06:59.225]26,,44,147,19,,67,336,25,,54,034,21*79
$GPGSV,5,4,18,,49,010,31,,6[2024/10/02, 13:06:59.365]0,354,31,,70,174,27,,46,050,32*7F
$GPGSV,5,5,18,,28,274,21,,42,220[2024/10/02, 13:06:59.506],17*78
$GPGLL,0114.2758,N,10339.0212,E,050657,A,A*43
$GPBOD,,T,,[2024/10/02, 13:06:59.646]M,,*47
$GPBWC,050657,,,,,,T,,M,,N,,A*7A
$GPVTG,110.36,T,110.19,M,[2024/10/02, 13:06:59.787]3.75,N,6.94,K,A*24
$PGRME,13.15,M,13.67,M,18.97,M*2C
$PGRMZ,39,f[2024/10/02, 13:06:59.928],3*21
$PGRMM,WGS 84*06
$HCHDM,,M*07
$WIMWV,,R,,,A*6D
$GPAPB,V,V[2024/10/02, 13:07:00.068],,,N,V,V,,,,,,,,N*68
$GPZDA,050657,02,10,2024,-08,00*6B
[2024/10/02, 13:07:00.256]$GPRMC,050659,A,0114.2756,N,10339.0230,E,3.66,110.23,021[2024/10/02, 13:07:00.521]024,0.16,E,A*2F
$GPRMB,A,,,,,,,,,,,,V,A*1C
$GPGGA,050659,0114.275[2024/10/02, 13:07:00.662]6,N,10339.0230,E,1,18,0.67,13.57,M,9.60,M,,*71
$GPGSA,A,3,10,12,18[2024/10/02, 13:07:00.802],23,25,28,29,32,,,,,1.34,0.67,1.16*0E
$GPGSV,5,1,18,10,27,351,27,[2024/10/02, 13:07:00.943]12,20,075,26,18,56,174,23,23,47,036,27*7E
$GPGSV,5,2,18,25,44,111,[2024/10/02, 13:07:01.084]28,28,55,247,15,29,12,154,19,32,24,323,18*78
$GPGSV,5,3,18,,33,105[2024/10/02, 13:07:01.224],25,,44,147,21,,67,336,26,,54,034,24*77
$GPGSV,5,4,18,,49,010,31,,[2024/10/02, 13:07:01.365]60,354,31,,71,174,27,,46,050,32*7E
$GPGSV,5,5,18,,28,274,24,,42,220[2024/10/02, 13:07:01.506],16*7C
$GPGLL,0114.2756,N,10339.0230,E,050659,A,A*43
$GPBOD,,T,,[2024/10/02, 13:07:01.646]M,,*47
$GPBWC,050659,,,,,,T,,M,,N,,A*74
$GPVTG,110.23,T,110.07,M,[2024/10/02, 13:07:01.786]3.66,N,6.79,K,A*2E
$PGRME,13.16,M,13.65,M,18.96,M*2C
$PGRMZ,45,f[2024/10/02, 13:07:01.927],3*2A
$PGRMM,WGS 84*06
$HCHDM,,M*07
$WIMWV,,R,,,A*6D
$GPAPB,V,V[2024/10/02, 13:07:02.068],,,N,V,V,,,,,,,,N*68
$GPZDA,050659,02,10,2024,-08,00*65
[2024/10/02, 13:07:02.255]$GPRMC,050701,A,0114.2751,N,10339.0246,E,3.64,110.08,021[2024/10/02, 13:07:02.521]024,0.16,E,A*2E
$GPRMB,A,,,,,,,,,,,,V,A*1C
$GPGGA,050701,0114.27[2024/10/02, 13:07:02.661]51,N,10339.0246,E,1,18,0.67,14.89,M,9.60,M,,*7F
$GPGSA,A,3,10,12,1[2024/10/02, 13:07:02.802]8,23,25,28,29,32,,,,,1.34,0.67,1.16*0E
$GPGSV,5,1,18,10,27,351,28,[2024/10/02, 13:07:02.943]12,20,075,24,18,56,174,20,23,47,036,28*7F
$GPGSV,5,2,18,25,44,111,[2024/10/02, 13:07:03.083]28,28,55,247,15,29,12,154,21,32,24,323,22*7A
$GPGSV,5,3,18,,33,105[2024/10/02, 13:07:03.224],24,,44,147,20,,67,336,26,,54,034,22*71
$GPGSV,5,4,18,,49,010,31,,[2024/10/02, 13:07:03.364]60,354,30,,71,174,27,,46,049,32*77
$GPGSV,5,5,18,,28,274,20,,42,22[2024/10/02, 13:07:03.505]0,19*77
$GPGLL,0114.2751,N,10339.0246,E,050701,A,A*49
$GPBOD,,T,,[2024/10/02, 13:07:03.645]M,,*47
$GPBWC,050701,,,,,,T,,M,,N,,A*78
$GPVTG,110.08,T,109.92,M,[2024/10/02, 13:07:03.786]3.64,N,6.74,K,A*2C
$PGRME,13.16,M,13.72,M,19.01,M*25
$PGRMZ,49,f[2024/10/02, 13:07:03.927],3*26
$PGRMM,WGS 84*06
$HCHDM,,M*07
$WIMWV,,R,,,A*6D
$GPAPB,V,[2024/10/02, 13:07:04.067]V,,,N,V,V,,,,,,,,N*68
$GPZDA,050701,02,10,2024,-08,00*69
[2024/10/02, 13:07:04.255]$GPRMC,050703,A,0114.2749,N,10339.0266,E,3.67,96.18,021[2024/10/02, 13:07:04.520]024,0.16,E,A*1A
$GPRMB,A,,,,,,,,,,,,V,A*1C
$GPGGA,050703,0114.274[2024/10/02, 13:07:04.661]9,N,10339.0266,E,1,18,0.67,16.85,M,9.60,M,,*78
$GPGSA,A,3,10,12,18[2024/10/02, 13:07:04.801],23,25,28,29,32,,,,,1.34,0.67,1.16*0E
$GPGSV,5,1,18,10,27,351,28,1[2024/10/02, 13:07:04.942]2,20,075,26,18,56,174,20,23,47,036,29*7C
$GPGSV,5,2,18,25,44,111,2[2024/10/02, 13:07:05.083]8,28,55,247,15,29,12,154,19,32,24,323,20*73
$GPGSV,5,3,18,,33,105,[2024/10/02, 13:07:05.223]24,,44,147,23,,67,336,26,,54,034,23*73
$GPGSV,5,4,18,,49,010,31,,6[2024/10/02, 13:07:05.364]0,354,30,,71,174,26,,46,049,32*76
$GPGSV,5,5,18,,28,274,16,,42,219[2024/10/02, 13:07:05.504],20*72
$GPGLL,0114.2749,N,10339.0266,E,050703,A,A*40
$GPBOD,,T,,M[2024/10/02, 13:07:05.645],,*47
$GPBWC,050703,,,,,,T,,M,,N,,A*7A
$GPVTG,96.18,T,96.02,M,3.[2024/10/02, 13:07:05.786]67,N,6.79,K,A*22
$PGRME,13.17,M,13.69,M,18.99,M*2E
$PGRMZ,55,f,3*[2024/10/02, 13:07:05.926]2B
$PGRMM,WGS 84*06
$HCHDM,,M*07
$WIMWV,,R,,,A*6D
$GPAPB,V,V,,[2024/10/02, 13:07:06.067],N,V,V,,,,,,,,N*68
$GPZDA,050703,02,10,2024,-08,00*6B
[2024/10/02, 13:07:06.254]$GPRMC,050705,A,0114.2742,N,10339.0288,E,3.75,115.06,02[2024/10/02, 13:07:06.520]1024,0.16,E,A*21
$GPRMB,A,,,,,,,,,,,,V,A*1C
$GPGGA,050705,0114.27[2024/10/02, 13:07:06.660]42,N,10339.0288,E,1,18,0.67,17.08,M,9.60,M,,*71
$GPGSA,A,3,10,12,1[2024/10/02, 13:07:06.801]8,23,25,28,29,32,,,,,1.34,0.67,1.16*0E
$GPGSV,5,1,18,10,27,351,29,[2024/10/02, 13:07:06.942]12,20,075,25,18,56,174,22,23,47,036,29*7C
$GPGSV,5,2,18,25,44,111,[2024/10/02, 13:07:07.082]28,28,55,247,13,29,12,154,18,32,24,323,22*76
$GPGSV,5,3,18,,33,105[2024/10/02, 13:07:07.223],25,,44,147,23,,67,336,27,,54,034,25*75
$GPGSV,5,4,18,,49,010,30,,[2024/10/02, 13:07:07.363]60,354,30,,71,174,27,,46,049,32*76
$GPGSV,5,5,18,,28,274,15,,42,21[2024/10/02, 13:07:07.504]9,23*72
$GPGLL,0114.2742,N,10339.0288,E,050705,A,A*4D
$GPBOD,,T,[2024/10/02, 13:07:07.645],M,,*47
$GPBWC,050705,,,,,,T,,M,,N,,A*7C
$GPVTG,115.06,T,114.89,M[2024/10/02, 13:07:07.785],3.75,N,6.94,K,A*2F
$PGRME,13.18,M,13.67,M,18.99,M*2F
$PGRMZ,56,f[2024/10/02, 13:07:07.926],3*28
$PGRMM,WGS 84*06
$HCHDM,,M*07
$WIMWV,,R,,,A*6D
$GPAPB,V,[2024/10/02, 13:07:08.066]V,,,N,V,V,,,,,,,,N*68
$GPZDA,050705,02,10,2024,-08,00*6D
[2024/10/02, 13:07:08.254]$GPRMC,050707,A,0114.2743,N,10339.0311,E,3.89,93.76,021[2024/10/02, 13:07:08.519]024,0.16,E,A*18
$GPRMB,A,,,,,,,,,,,,V,A*1C
$GPGGA,050707,0114.274[2024/10/02, 13:07:08.660]3,N,10339.0311,E,1,18,0.67,18.89,M,9.60,M,,*75
$GPGSA,A,3,10,12,1[2024/10/02, 13:07:08.801]8,23,25,28,29,32,,,,,1.34,0.67,1.16*0E
$GPGSV,5,1,18,10,27,351,29,[2024/10/02, 13:07:08.941]12,20,075,26,18,56,174,21,23,47,036,30*74
$GPGSV,5,2,18,25,44,111,[2024/10/02, 13:07:09.082]28,28,55,247,14,29,12,154,18,32,24,323,21*72
$GPGSV,5,3,18,,33,105[2024/10/02, 13:07:09.222],25,,44,147,23,,67,336,24,,54,034,25*76
$GPGSV,5,4,18,,49,010,30,,[2024/10/02, 13:07:09.363]60,354,31,,71,174,27,,46,049,32*77
$GPGSV,5,5,18,,28,274,15,,42,21[2024/10/02, 13:07:09.504]9,23*72
$GPGLL,0114.2743,N,10339.0311,E,050707,A,A*4F
$GPBOD,,T,,[2024/10/02, 13:07:09.644]M,,*47
$GPBWC,050707,,,,,,T,,M,,N,,A*7E
$GPVTG,93.76,T,93.60,M,3[2024/10/02, 13:07:09.785].89,N,7.20,K,A*23
$PGRME,13.18,M,13.65,M,18.98,M*2C
$PGRMZ,62,f,3[2024/10/02, 13:07:09.925]*2F
$PGRMM,WGS 84*06
$HCHDM,,M*07
$WIMWV,,R,,,A*6D
$GPAPB,V,V,[2024/10/02, 13:07:10.066],,N,V,V,,,,,,,,N*68
$GPZDA,050707,02,10,2024,-08,00*6F
[2024/10/02, 13:07:10.253]$GPRMC,050709,A,0114.2741,N,10339.0337,E,4.22,92.18,021[2024/10/02, 13:07:10.519]024,0.16,E,A*1F
$GPRMB,A,,,,,,,,,,,,V,A*1C
$GPGGA,050709,0114.27[2024/10/02, 13:07:10.659]41,N,10339.0337,E,1,18,0.67,20.48,M,9.60,M,,*7B
$GPGSA,A,3,10,12,1[2024/10/02, 13:07:10.800]8,23,25,28,29,32,,,,,1.34,0.67,1.16*0E
$GPGSV,5,1,18,10,27,351,30,[2024/10/02, 13:07:10.941]12,20,075,25,18,56,174,21,23,47,036,30*7F
$GPGSV,5,2,18,25,44,111,[2024/10/02, 13:07:11.081]26,28,55,247,14,29,12,154,18,32,24,323,22*7F
$GPGSV,5,3,18,,33,105[2024/10/02, 13:07:11.222],25,,44,147,23,,67,336,26,,54,034,24*75
$GPGSV,5,4,18,,49,010,30,,[2024/10/02, 13:07:11.362]60,354,30,,71,174,27,,46,049,32*76
$GPGSV,5,5,18,,28,274,15,,42,219[2024/10/02, 13:07:11.503],25*74
$GPGLL,0114.2741,N,10339.0337,E,050709,A,A*47
$GPBOD,,T,,[2024/10/02, 13:07:11.644]M,,*47
$GPBWC,050709,,,,,,T,,M,,N,,A*70
$GPVTG,92.18,T,92.02,M,4.[2024/10/02, 13:07:11.784]22,N,7.82,K,A*21
$PGRME,13.19,M,13.66,M,18.99,M*2F
$PGRMZ,67,f,3[2024/10/02, 13:07:11.925]*2A
$PGRMM,WGS 84*06
$HCHDM,,M*07
$WIMWV,,R,,,A*6D
$GPAPB,V,V,[2024/10/02, 13:07:12.065],,N,V,V,,,,,,,,N*68
$GPZDA,050709,02,10,2024,-08,00*61
[2024/10/02, 13:07:12.253]$GPRMC,050711,A,0114.2735,N,10339.0362,E,4.44,106.81,02[2024/10/02, 13:07:12.518]1024,0.16,E,A*29
$GPRMB,A,,,,,,,,,,,,V,A*1C
$GPGGA,050711,0114.2[2024/10/02, 13:07:12.659]735,N,10339.0362,E,1,18,0.67,21.19,M,9.60,M,,*74
$GPGSA,A,3,10,12,[2024/10/02, 13:07:12.800]18,23,25,28,29,32,,,,,1.34,0.67,1.16*0E
$GPGSV,5,1,18,10,27,351,30[2024/10/02, 13:07:12.940],12,20,075,24,18,56,174,23,23,47,036,30*7C
$GPGSV,5,2,18,25,44,111[2024/10/02, 13:07:13.081],27,28,55,247,14,29,12,154,19,32,24,323,22*7F
$GPGSV,5,3,18,,33,10[2024/10/02, 13:07:13.221]5,26,,44,147,23,,67,336,27,,54,034,24*77
$GPGSV,5,4,18,,49,010,31,[2024/10/02, 13:07:13.362],60,354,31,,71,174,26,,46,049,32*77
$GPGSV,5,5,18,,28,274,15,,42,2[2024/10/02, 13:07:13.503]19,23*72
$GPGLL,0114.2735,N,10339.0362,E,050711,A,A*4D
$GPBOD,,T,[2024/10/02, 13:07:13.643],M,,*47
$GPBWC,050711,,,,,,T,,M,,N,,A*79
$GPVTG,106.81,T,106.65,[2024/10/02, 13:07:13.784]M,4.44,N,8.23,K,A*24
$PGRME,13.20,M,13.67,M,19.00,M*25
$PGRMZ,70,[2024/10/02, 13:07:13.924]f,3*2C
$PGRMM,WGS 84*06
$HCHDM,,M*07
$WIMWV,,R,,,A*6D
$GPAPB,V[2024/10/02, 13:07:14.065],V,,,N,V,V,,,,,,,,N*68
$GPZDA,050711,02,10,2024,-08,00*68
[2024/10/02, 13:07:14.252]$GPRMC,050713,A,0114.2734,N,10339.0392,E,4.75,96.52,02[2024/10/02, 13:07:14.518]1024,0.16,E,A*11
$GPRMB,A,,,,,,,,,,,,V,A*1C
$GPGGA,050713,0114.27[2024/10/02, 13:07:14.658]34,N,10339.0392,E,1,18,0.67,22.24,M,9.60,M,,*75
$GPGSA,A,3,10,12,[2024/10/02, 13:07:14.799]18,23,25,28,29,32,,,,,1.34,0.67,1.16*0E
$GPGSV,5,1,18,10,27,351,29[2024/10/02, 13:07:14.940],12,20,075,24,18,56,174,22,23,47,036,28*7C
$GPGSV,5,2,18,25,44,111[2024/10/02, 13:07:15.080],28,28,55,247,16,29,12,154,22,32,24,323,21*79
$GPGSV,5,3,18,,33,10[2024/10/02, 13:07:15.221]5,25,,44,147,23,,67,336,23,,54,034,26*72
$GPGSV,5,4,18,,49,010,31,[2024/10/02, 13:07:15.362],60,354,31,,71,174,26,,46,049,32*77
$GPGSV,5,5,18,,28,274,14,,42,2[2024/10/02, 13:07:15.502]19,17*74
$GPGLL,0114.2734,N,10339.0392,E,050713,A,A*41
$GPBOD,,T,[2024/10/02, 13:07:15.643],M,,*47
$GPBWC,050713,,,,,,T,,M,,N,,A*7B
$GPVTG,96.52,T,96.36,M,[2024/10/02, 13:07:15.783]4.75,N,8.79,K,A*21
$PGRME,13.21,M,13.66,M,19.00,M*25
$PGRMZ,73,f,[2024/10/02, 13:07:15.924]3*2F
$PGRMM,WGS 84*06
$HCHDM,,M*07
$WIMWV,,R,,,A*6D
$GPAPB,V,V[2024/10/02, 13:07:16.064],,,N,V,V,,,,,,,,N*68
$GPZDA,050713,02,10,2024,-08,00*6A
[2024/10/02, 13:07:16.252]$GPRMC,050715,A,0114.2735,N,10339.0421,E,5.03,88.07,02[2024/10/02, 13:07:16.517]1024,0.16,E,A*16
$GPRMB,A,,,,,,,,,,,,V,A*1C
$GPGGA,050715,0114.2[2024/10/02, 13:07:16.658]735,N,10339.0421,E,1,18,0.67,23.09,M,9.60,M,,*73
$GPGSA,A,3,10,12,[2024/10/02, 13:07:16.799]18,23,25,28,29,32,,,,,1.34,0.67,1.16*0E
$GPGSV,5,1,18,10,27,351,26[2024/10/02, 13:07:16.939],12,20,075,26,18,56,174,22,23,47,036,28*71
$GPGSV,5,2,18,25,44,111[2024/10/02, 13:07:17.080],28,28,55,247,15,29,12,154,23,32,24,323,14*7D
$GPGSV,5,3,18,,33,10[2024/10/02, 13:07:17.220]5,27,,44,147,19,,67,336,26,,54,034,22*78
$GPGSV,5,4,18,,49,010,31,[2024/10/02, 13:07:17.361],60,354,30,,71,174,26,,46,049,32*76
$GPGSV,5,5,18,,28,274,23,,42,2[2024/10/02, 13:07:17.502]19,19*7E
$GPGLL,0114.2735,N,10339.0421,E,050715,A,A*49
$GPBOD,,T,[2024/10/02, 13:07:17.642],M,,*47
$GPBWC,050715,,,,,,T,,M,,N,,A*7D
$GPVTG,88.07,T,87.91,M,5[2024/10/02, 13:07:17.783].03,N,9.32,K,A*2D
$PGRME,13.22,M,13.69,M,19.03,M*2A
$PGRMZ,76,f,[2024/10/02, 13:07:17.923]3*2A
$PGRMM,WGS 84*06
$HCHDM,,M*07
$WIMWV,,R,,,A*6D
$GPAPB,V,V[2024/10/02, 13:07:18.064],,,N,V,V,,,,,,,,N*68
$GPZDA,050715,02,10,2024,-08,00*6C
[2024/10/02, 13:07:18.251]$GPRMC,050717,A,0114.2726,N,10339.0448,E,4.98,107.13,0[2024/10/02, 13:07:18.517]21024,0.16,E,A*29
$GPRMB,A,,,,,,,,,,,,V,A*1C
$GPGGA,050717,0114.2[2024/10/02, 13:07:18.657]726,N,10339.0448,E,1,18,0.67,22.57,M,9.60,M,,*76
$GPGSA,A,3,10,12,[2024/10/02, 13:07:18.798]18,23,25,28,29,32,,,,,1.34,0.67,1.16*0E
$GPGSV,5,1,18,10,27,351,2[2024/10/02, 13:07:18.939]5,12,20,075,24,18,56,174,23,23,47,036,27*7E
$GPGSV,5,2,18,25,44,111[2024/10/02, 13:07:19.079],28,28,55,247,16,29,12,154,26,32,24,323,14*7B
$GPGSV,5,3,18,,33,10[2024/10/02, 13:07:19.220]5,27,,44,147,19,,67,336,25,,54,034,24*7D
$GPGSV,5,4,18,,49,010,31,[2024/10/02, 13:07:19.361],60,354,31,,71,174,27,,46,049,31*75
$GPGSV,5,5,18,,28,274,19,,42,2[2024/10/02, 13:07:19.501]19,19*77
$GPGLL,0114.2726,N,10339.0448,E,050717,A,A*46
$GPBOD,,T[2024/10/02, 13:07:19.642],,M,,*47
$GPBWC,050717,,,,,,T,,M,,N,,A*7F
$GPVTG,107.13,T,106.97[2024/10/02, 13:07:19.782],M,4.98,N,9.22,K,A*22
$PGRME,13.23,M,13.70,M,19.04,M*24
$PGRMZ,74[2024/10/02, 13:07:19.923],f,3*28
$PGRMM,WGS 84*06
$HCHDM,,M*07
$WIMWV,,R,,,A*6D
$GPAPB,[2024/10/02, 13:07:20.063]V,V,,,N,V,V,,,,,,,,N*68
$GPZDA,050717,02,10,2024,-08,00*6E
[2024/10/02, 13:07:20.251]$GPRMC,050719,A,0114.2723,N,10339.0473,E,4.90,105.60,0[2024/10/02, 13:07:20.516]21024,0.16,E,A*24
$GPRMB,A,,,,,,,,,,,,V,A*1C
$GPGGA,050719,0114.[2024/10/02, 13:07:20.657]2723,N,10339.0473,E,1,18,0.67,23.54,M,9.60,M,,*77
$GPGSA,A,3,10,12[2024/10/02, 13:07:20.798],18,23,25,28,29,32,,,,,1.34,0.67,1.16*0E
$GPGSV,5,1,18,10,27,351,2[2024/10/02, 13:07:20.938]6,12,20,075,25,18,56,174,23,23,47,036,26*7D
$GPGSV,5,2,18,25,44,11[2024/10/02, 13:07:21.079]1,28,28,55,247,19,29,12,154,26,32,24,323,14*74
$GPGSV,5,3,18,,33,1[2024/10/02, 13:07:21.219]05,28,,44,147,19,,67,336,26,,54,034,20*75
$GPGSV,5,4,18,,49,010,31[2024/10/02, 13:07:21.360],,60,354,30,,71,174,28,,46,049,31*7B
$GPGSV,5,5,18,,28,274,20,,42,2[2024/10/02, 13:07:21.501]19,14*70
$GPGLL,0114.2723,N,10339.0473,E,050719,A,A*45
$GPBOD,,T[2024/10/02, 13:07:21.641],,M,,*47
$GPBWC,050719,,,,,,T,,M,,N,,A*71
$GPVTG,105.60,T,105.43,[2024/10/02, 13:07:21.782]M,4.90,N,9.08,K,A*2E
$PGRME,13.24,M,13.74,M,19.08,M*2B
$PGRMZ,77[2024/10/02, 13:07:21.922],f,3*2B
$PGRMM,WGS 84*06
$HCHDM,,M*07
$WIMWV,,R,,,A*6D
$GPAPB,V[2024/10/02, 13:07:22.063],V,,,N,V,V,,,,,,,,N*68
$GPZDA,050719,02,10,2024,-08,00*60
[2024/10/02, 13:07:22.250]$GPRMC,050721,A,0114.2720,N,103[2024/10/02, 13:07:22.469]39.0498,E,4.84,97.76,021024,0.16,E,A*11
$GPRMB,A,,,,,,,,,,,,V,A*1C[2024/10/02, 13:07:22.610]
$GPGGA,050721,0114.2720,N,10339.0498,E,1,18,0.67,24.06,M,9.60,M,,[2024/10/02, 13:07:22.750]*7A
$GPGSA,A,3,10,12,18,23,25,28,29,32,,,,,1.34,0.67,1.16*0E
$GPG[2024/10/02, 13:07:22.891]SV,5,1,18,10,27,351,26,12,20,075,26,18,56,174,22,23,47,036,27*7E
$[2024/10/02, 13:07:23.032]GPGSV,5,2,18,25,44,111,28,28,55,247,19,29,12,154,26,32,24,323,15*75[2024/10/02, 13:07:23.172]
$GPGSV,5,3,18,,33,105,28,,44,147,17,,67,336,24,,54,034,23*7A
$GP[2024/10/02, 13:07:23.313]GSV,5,4,18,,49,010,31,,60,354,31,,71,174,27,,46,049,31*75
$GPGSV,5[2024/10/02, 13:07:23.453],5,18,,28,274,20,,42,219,16*72
$GPGLL,0114.2720,N,10339.0498,E,050[2024/10/02, 13:07:23.594]721,A,A*48
$GPBOD,,T,,M,,*47
$GPBWC,050721,,,,,,T,,M,,N,,A*7A
$[2024/10/02, 13:07:23.735]GPVTG,97.76,T,97.60,M,4.84,N,8.96,K,A*2B
$PGRME,13.25,M,13.78,M,1[2024/10/02, 13:07:23.875]9.11,M*2E
$PGRMZ,79,f,3*25
$PGRMM,WGS 84*06
$HCHDM,,M*07
$WIMW[2024/10/02, 13:07:24.016]V,,R,,,A*6D
$GPAPB,V,V,,,N,V,V,,,,,,,,N*68
$GPZDA,050721,02,10,20[2024/10/02, 13:07:24.125]24,-08,00*6B
[2024/10/02, 13:07:24.203]$GPRMC,050723,A,0114.2716,N,103[2024/10/02, 13:07:24.469]39.0521,E,4.60,100.63,021024,0.16,E,A*24
$GPRMB,A,,,,,,,,,,,,V,A*1[2024/10/02, 13:07:24.609]C
$GPGGA,050723,0114.2716,N,10339.0521,E,1,18,0.67,24.45,M,9.60,M,[2024/10/02, 13:07:24.750],*79
$GPGSA,A,3,10,12,18,23,25,28,29,32,,,,,1.34,0.67,1.16*0E
$GP[2024/10/02, 13:07:24.890]GSV,5,1,18,10,27,351,26,12,20,075,25,18,56,174,22,23,47,036,27*7D
[2024/10/02, 13:07:25.031]$GPGSV,5,2,18,25,44,111,28,28,55,247,17,29,12,154,22,32,24,323,15*7[2024/10/02, 13:07:25.172]F
$GPGSV,5,3,18,,33,105,27,,44,147,18,,67,336,27,,54,034,19*70
$G[2024/10/02, 13:07:25.312]PGSV,5,4,18,,49,010,30,,60,354,30,,71,174,27,,46,049,32*76
$GPGSV,[2024/10/02, 13:07:25.453]5,5,18,,28,274,20,,42,219,17*73
$GPGLL,0114.2716,N,10339.0521,E,0[2024/10/02, 13:07:25.593]50723,A,A*4C
$GPBOD,,T,,M,,*47
$GPBWC,050723,,,,,,T,,M,,N,,A*78
[2024/10/02, 13:07:25.734]$GPVTG,100.63,T,100.47,M,4.60,N,8.51,K,A*2B
$PGRME,13.26,M,13.82,M[2024/10/02, 13:07:25.875],19.16,M*2F
$PGRMZ,80,f,3*23
$PGRMM,WGS 84*06
$HCHDM,,M*07
$WI[2024/10/02, 13:07:26.015]MWV,,R,,,A*6D
$GPAPB,V,V,,,N,V,V,,,,,,,,N*68
$GPZDA,050723,02,10[2024/10/02, 13:07:26.140],2024,-08,00*69
[2024/10/02, 13:07:26.218]$GPRMC,050725,A,0114.2712,N,10339.0545[2024/10/02, 13:07:26.484],E,4.54,100.88,021024,0.16,E,A*26
$GPRMB,A,,,,,,,,,,,,V,A*1C
$GPG[2024/10/02, 13:07:26.624]GA,050725,0114.2712,N,10339.0545,E,1,18,0.67,24.84,M,9.60,M,,*74
$[2024/10/02, 13:07:26.765]GPGSA,A,3,10,12,18,23,25,28,29,32,,,,,1.34,0.67,1.16*0E
$GPGSV,5,[2024/10/02, 13:07:26.906]1,18,10,27,351,25,12,20,075,25,18,56,174,23,23,47,036,29*71
$GPGSV[2024/10/02, 13:07:27.046],5,2,18,25,44,111,28,28,55,247,16,29,12,154,23,32,24,323,14*7E
$GPG[2024/10/02, 13:07:27.187]SV,5,3,18,,33,105,26,,44,147,19,,67,336,26,,54,034,22*79
$GPGSV,5,[2024/10/02, 13:07:27.327]4,18,,49,010,30,,60,354,30,,71,174,27,,46,049,32*76
$GPGSV,5,5,18,[2024/10/02, 13:07:27.468],28,274,22,,42,219,17*71
$GPGLL,0114.2712,N,10339.0545,E,050725,A[2024/10/02, 13:07:27.609],A*4C
$GPBOD,,T,,M,,*47
$GPBWC,050725,,,,,,T,,M,,N,,A*7E
$GPVTG,[2024/10/02, 13:07:27.749]100.88,T,100.72,M,4.54,N,8.41,K,A*2E
$PGRME,13.28,M,13.90,M,19.22[2024/10/02, 13:07:27.890],M*25
$PGRMZ,82,f,3*21
$PGRMM,WGS 84*06
$HCHDM,,M*07
$WIMWV,,R,[2024/10/02, 13:07:28.030],,A*6D
$GPAPB,V,V,,,N,V,V,,,,,,,,N*68
$GPZDA,050725,02,10,2024,-[2024/10/02, 13:07:28.140]08,00*6F
[2024/10/02, 13:07:28.218]$GPRMC,050727,A,0114.2707,N,10339.0569[2024/10/02, 13:07:28.483],E,4.54,100.98,021024,0.16,E,A*2F
$GPRMB,A,,,,,,,,,,,,V,A*1C
$GPG[2024/10/02, 13:07:28.624]GA,050727,0114.2707,N,10339.0569,E,1,18,0.67,24.73,M,9.60,M,,*74
$[2024/10/02, 13:07:28.765]GPGSA,A,3,10,12,18,23,25,28,29,32,,,,,1.34,0.67,1.16*0E
$GPGSV,5,[2024/10/02, 13:07:28.905]1,18,10,27,351,27,12,20,075,26,18,56,174,24,23,47,036,29*77
$GPGSV,[2024/10/02, 13:07:29.046]5,2,18,25,44,111,28,28,55,247,16,29,12,154,24,32,24,323,13*7E
$GPG[2024/10/02, 13:07:29.186]SV,5,3,18,,33,105,26,,44,147,19,,67,336,24,,54,034,24*7D
$GPGSV,5,[2024/10/02, 13:07:29.327]4,18,,49,010,31,,60,354,30,,71,174,26,,46,049,31*75
$GPGSV,5,5,18,[2024/10/02, 13:07:29.467],28,274,21,,42,219,16*73
$GPGLL,0114.2707,N,10339.0569,E,050727,A[2024/10/02, 13:07:29.608],A*44
$GPBOD,,T,,M,,*47
$GPBWC,050727,,,,,,T,,M,,N,,A*7C
$GPVTG,[2024/10/02, 13:07:29.749]100.98,T,100.82,M,4.54,N,8.41,K,A*20
$PGRME,13.29,M,13.90,M,19.24,[2024/10/02, 13:07:29.889]M*22
$PGRMZ,81,f,3*22
$PGRMM,WGS 84*06
$HCHDM,,M*07
$WIMWV,,R,[2024/10/02, 13:07:30.030],,A*6D
$GPAPB,V,V,,,N,V,V,,,,,,,,N*68
$GPZDA,050727,02,10,2024,-[2024/10/02, 13:07:30.139]08,00*6D
[2024/10/02, 13:07:30.217]$GPRMC,050729,A,0114.2700,N,10339.0593[2024/10/02, 13:07:30.483],E,4.55,102.25,021024,0.16,E,A*26
$GPRMB,A,,,,,,,,,,,,V,A*1C
$GP[2024/10/02, 13:07:30.623]GGA,050729,0114.2700,N,10339.0593,E,1,18,0.67,24.41,M,9.60,M,,*79
$[2024/10/02, 13:07:30.764]GPGSA,A,3,10,12,18,23,25,28,29,32,,,,,1.34,0.67,1.16*0E
$GPGSV,5,[2024/10/02, 13:07:30.905]1,18,10,27,351,27,12,20,075,25,18,56,174,21,23,47,036,28*70
$GPGSV[2024/10/02, 13:07:31.045],5,2,18,25,44,111,28,28,55,247,19,29,12,154,25,32,24,323,18*7B
$GP[2024/10/02, 13:07:31.186]GSV,5,3,18,,33,105,26,,44,147,18,,67,336,25,,54,034,20*79
$GPGSV,5,[2024/10/02, 13:07:31.326]4,18,,49,010,30,,60,354,30,,71,174,28,,46,049,31*7A
$GPGSV,5,5,18,[2024/10/02, 13:07:31.467],28,274,22,,42,219,16*70
$GPGLL,0114.2700,N,10339.0593,E,050729,A[2024/10/02, 13:07:31.608],A*48
$GPBOD,,T,,M,,*47
$GPBWC,050729,,,,,,T,,M,,N,,A*72
$GPVTG,[2024/10/02, 13:07:31.748]102.25,T,102.09,M,4.55,N,8.43,K,A*26
$PGRME,13.31,M,13.97,M,19.30[2024/10/02, 13:07:31.889],M*29
$PGRMZ,80,f,3*23
$PGRMM,WGS 84*06
$HCHDM,,M*07
$WIMWV,,R,[2024/10/02, 13:07:32.029],,A*6D
$GPAPB,V,V,,,N,V,V,,,,,,,,N*68
$GPZDA,050729,02,10,2024,-[2024/10/02, 13:07:32.139]08,00*63
[2024/10/02, 13:07:32.217]$GPRMC,050731,A,0114.2694,N,10339.0618[2024/10/02, 13:07:32.482],E,4.54,102.23,021024,0.16,E,A*24
$GPRMB,A,,,,,,,,,,,,V,A*1C
$GP[2024/10/02, 13:07:32.623]GGA,050731,0114.2694,N,10339.0618,E,1,18,0.67,24.12,M,9.60,M,,*7A
[2024/10/02, 13:07:32.764]$GPGSA,A,3,10,12,18,23,25,28,29,32,,,,,1.34,0.67,1.16*0E
$GPGSV,5,[2024/10/02, 13:07:32.904]1,18,10,27,351,26,12,20,075,27,18,56,174,22,23,47,036,28*70
$GPGSV[2024/10/02, 13:07:33.045],5,2,18,25,44,111,28,28,55,247,19,29,12,154,25,32,24,323,17*74
$GP[2024/10/02, 13:07:33.185]GSV,5,3,18,,33,105,27,,44,147,18,,67,336,25,,54,034,24*7C
$GPGSV,5[2024/10/02, 13:07:33.326],4,18,,49,010,30,,60,354,31,,71,174,25,,46,049,31*76
$GPGSV,5,5,18[2024/10/02, 13:07:33.466],,28,274,20,,42,219,16*72
$GPGLL,0114.2694,N,10339.0618,E,050731,A[2024/10/02, 13:07:33.607],A*4D
$GPBOD,,T,,M,,*47
$GPBWC,050731,,,,,,T,,M,,N,,A*7B
$GPVTG,[2024/10/02, 13:07:33.748]102.23,T,102.07,M,4.54,N,8.41,K,A*2D
$PGRME,13.32,M,13.92,M,19.27[2024/10/02, 13:07:33.888],M*29
$PGRMZ,79,f,3*25
$PGRMM,WGS 84*06
$HCHDM,,M*07
$WIMWV,,R[2024/10/02, 13:07:34.029],,,A*6D
$GPAPB,V,V,,,N,V,V,,,,,,,,N*68
$GPZDA,050731,02,10,2024,-[2024/10/02, 13:07:34.138]08,00*6A
[2024/10/02, 13:07:34.216]$GPRMC,050733,A,0114.2688,N,10339.064[2024/10/02, 13:07:34.482]0,E,4.53,102.09,021024,0.16,E,A*29
$GPRMB,A,,,,,,,,,,,,V,A*1C
$GP[2024/10/02, 13:07:34.623]GGA,050733,0114.2688,N,10339.0640,E,1,18,0.67,24.45,M,9.60,M,,*7A
[2024/10/02, 13:07:34.763]$GPGSA,A,3,10,12,18,23,25,28,29,32,,,,,1.34,0.67,1.16*0E
$GPGSV,5,[2024/10/02, 13:07:34.904]1,18,10,27,351,25,12,20,075,25,18,56,174,23,23,47,036,26*7E
$GPGSV[2024/10/02, 13:07:35.044],5,2,18,25,44,111,27,28,55,247,16,29,12,154,23,32,24,323,17*72
$GP[2024/10/02, 13:07:35.185]GSV,5,3,18,,33,105,25,,44,147,20,,67,336,26,,54,034,23*71
$GPGSV,5[2024/10/02, 13:07:35.325],4,18,,49,010,30,,60,354,30,,71,174,25,,46,049,31*77
$GPGSV,5,5,18[2024/10/02, 13:07:35.466],,28,274,22,,42,219,14*72
$GPGLL,0114.2688,N,10339.0640,E,050733,A[2024/10/02, 13:07:35.607],A*4F
$GPBOD,,T,,M,,*47
$GPBWC,050733,,,,,,T,,M,,N,,A*79
$GPVTG[2024/10/02, 13:07:35.747],102.09,T,101.93,M,4.53,N,8.40,K,A*2D
$PGRME,13.33,M,13.97,M,19.31[2024/10/02, 13:07:35.888],M*2A
$PGRMZ,80,f,3*23
$PGRMM,WGS 84*06
$HCHDM,,M*07
$WIMWV,,R[2024/10/02, 13:07:36.029],,,A*6D
$GPAPB,V,V,,,N,V,V,,,,,,,,N*68
$GPZDA,050733,02,10,2024,-[2024/10/02, 13:07:36.138]08,00*68
[2024/10/02, 13:07:36.216]$GPRMC,050735,A,0114.2680,N,10339.066[2024/10/02, 13:07:36.482]4,E,4.50,114.85,021024,0.16,E,A*21
$GPRMB,A,,,,,,,,,,,,V,A*1C
$GP[2024/10/02, 13:07:36.622]GGA,050735,0114.2680,N,10339.0664,E,1,18,0.67,24.46,M,9.60,M,,*71
[2024/10/02, 13:07:36.763]$GPGSA,A,3,10,12,18,23,25,28,29,32,,,,,1.34,0.67,1.16*0E
$GPGSV,5,[2024/10/02, 13:07:36.903]1,18,10,27,351,27,12,20,075,25,18,55,174,22,23,47,036,28*70
$GPGSV[2024/10/02, 13:07:37.044],5,2,18,25,44,111,28,28,55,247,15,29,12,154,24,32,24,323,15*7B
$GP[2024/10/02, 13:07:37.184]GSV,5,3,18,,33,105,26,,44,147,20,,67,336,27,,54,034,21*71
$GPGSV,5[2024/10/02, 13:07:37.325],4,18,,49,010,30,,60,354,30,,71,174,26,,46,049,31*74
$GPGSV,5,5,18[2024/10/02, 13:07:37.466],,28,274,19,,42,219,16*78
$GPGLL,0114.2680,N,10339.0664,E,050735,[2024/10/02, 13:07:37.606]A,A*47
$GPBOD,,T,,M,,*47
$GPBWC,050735,,,,,,T,,M,,N,,A*7F
$GPVT[2024/10/02, 13:07:37.747]G,114.85,T,114.69,M,4.50,N,8.34,K,A*2F
$PGRME,13.35,M,14.04,M,19.3[2024/10/02, 13:07:37.887]7,M*27
$PGRMZ,80,f,3*23
$PGRMM,WGS 84*06
$HCHDM,,M*07
$WIMWV,,[2024/10/02, 13:07:38.028]R,,,A*6D
$GPAPB,V,V,,,N,V,V,,,,,,,,N*68
$GPZDA,050735,02,10,2024,[2024/10/02, 13:07:38.137]-08,00*6E
[2024/10/02, 13:07:38.215]$GPRMC,050737,A,0114.2673,N,10339.068[2024/10/02, 13:07:38.481]4,E,4.33,112.34,021024,0.16,E,A*28
$GPRMB,A,,,,,,,,,,,,V,A*1C
$GP[2024/10/02, 13:07:38.622]GGA,050737,0114.2673,N,10339.0684,E,1,18,0.67,24.79,M,9.60,M,,*7D
[2024/10/02, 13:07:38.762]$GPGSA,A,3,10,12,18,23,25,28,29,32,,,,,1.34,0.67,1.16*0E
$GPGSV,5[2024/10/02, 13:07:38.903],1,18,10,27,351,25,12,20,075,26,18,55,174,23,23,47,036,28*70
$GPGSV[2024/10/02, 13:07:39.043],5,2,18,25,44,111,28,28,55,247,16,29,12,154,25,32,24,323,15*79
$GP[2024/10/02, 13:07:39.184]GSV,5,3,18,,33,105,25,,44,147,20,,67,336,23,,54,034,23*74
$GPGSV,5[2024/10/02, 13:07:39.324],4,18,,49,010,30,,60,354,30,,71,174,25,,46,049,31*77
$GPGSV,5,5,18[2024/10/02, 13:07:39.465],,28,274,21,,42,219,16*73
$GPGLL,0114.2673,N,10339.0684,E,050737,[2024/10/02, 13:07:39.606]A,A*47
$GPBOD,,T,,M,,*47
$GPBWC,050737,,,,,,T,,M,,N,,A*7D
$GPVTG[2024/10/02, 13:07:39.746],112.34,T,112.18,M,4.33,N,8.02,K,A*23
$PGRME,13.36,M,14.03,M,19.37[2024/10/02, 13:07:39.887],M*23
$PGRMZ,81,f,3*22
$PGRMM,WGS 84*06
$HCHDM,,M*07
$WIMWV,,R[2024/10/02, 13:07:40.027],,,A*6D
$GPAPB,V,V,,,N,V,V,,,,,,,,N*68
$GPZDA,050737,02,10,2024,[2024/10/02, 13:07:40.137]-08,00*6C
[2024/10/02, 13:07:40.215]$GPRMC,050739,A,0114.2673,N,10339.070[2024/10/02, 13:07:40.480]9,E,4.40,92.39,021024,0.16,E,A*12
$GPRMB,A,,,,,,,,,,,,V,A*1C
$GP[2024/10/02, 13:07:40.621]GGA,050739,0114.2673,N,10339.0709,E,1,18,0.67,25.90,M,9.60,M,,*71
[2024/10/02, 13:07:40.762]$GPGSA,A,3,10,12,18,23,25,28,29,32,,,,,1.34,0.67,1.16*0E
$GPGSV,5,[2024/10/02, 13:07:40.902]1,18,10,27,351,27,12,20,075,23,18,55,174,22,23,47,036,26*78
$GPGSV[2024/10/02, 13:07:41.043],5,2,18,25,44,111,28,28,55,247,18,29,12,154,25,32,24,323,16*74
$GP[2024/10/02, 13:07:41.183]GSV,5,3,18,,33,105,27,,44,147,20,,67,336,25,,54,034,19*79
$GPGSV,5[2024/10/02, 13:07:41.324],4,18,,49,010,30,,60,354,30,,71,174,26,,46,049,31*74
$GPGSV,5,5,18,[2024/10/02, 13:07:41.465],28,274,20,,42,219,20*77
$GPGLL,0114.2673,N,10339.0709,E,050739,A[2024/10/02, 13:07:41.605],A*4D
$GPBOD,,T,,M,,*47
$GPBWC,050739,,,,,,T,,M,,N,,A*73
$GPVTG,[2024/10/02, 13:07:41.746]92.39,T,92.23,M,4.40,N,8.15,K,A*24
$PGRME,13.38,M,14.07,M,19.41,M[2024/10/02, 13:07:41.887]*28
$PGRMZ,85,f,3*26
$PGRMM,WGS 84*06
$HCHDM,,M*07
$WIMWV,,R,,[2024/10/02, 13:07:42.027],A*6D
$GPAPB,V,V,,,N,V,V,,,,,,,,N*68
$GPZDA,050739,02,10,2024,-08[2024/10/02, 13:07:42.121],00*62
[2024/10/02, 13:07:42.261]$GPRMC,050741,A,0114.2663,N,10339.0732,E,4.35,112.15,021024[2024/10/02, 13:07:42.527],0.16,E,A*21
$GPRMB,A,,,,,,,,,,,,V,A*1C
$GPGGA,050741,0114.2663,[2024/10/02, 13:07:42.668]N,10339.0732,E,1,18,0.67,25.13,M,9.60,M,,*7C
$GPGSA,A,3,10,12,18,2[2024/10/02, 13:07:42.808]3,25,28,29,32,,,,,1.34,0.67,1.16*0E
$GPGSV,5,1,18,10,27,351,23,12,[2024/10/02, 13:07:42.949]20,075,25,18,55,174,23,23,48,037,26*75
$GPGSV,5,2,18,25,44,111,27,[2024/10/02, 13:07:43.089]28,55,247,17,29,12,154,24,32,24,323,15*76
$GPGSV,5,3,18,,33,105,26[2024/10/02, 13:07:43.230],,44,147,20,,67,336,24,,54,034,24*77
$GPGSV,5,4,18,,49,010,30,,60,[2024/10/02, 13:07:43.370]354,30,,71,174,27,,46,049,31*75
$GPGSV,5,5,18,,28,274,19,,42,219,1[2024/10/02, 13:07:43.511]4*7A
$GPGLL,0114.2663,N,10339.0732,E,050741,A,A*4B
$GPBOD,,T,,M,,[2024/10/02, 13:07:43.652]*47
$GPBWC,050741,,,,,,T,,M,,N,,A*7C
$GPVTG,112.15,T,111.99,M,4.[2024/10/02, 13:07:43.792]35,N,8.05,K,A*2B
$PGRME,13.39,M,14.01,M,19.38,M*21
$PGRMZ,82,f,3*[2024/10/02, 13:07:43.933]21
$PGRMM,WGS 84*06
$HCHDM,,M*07
$WIMWV,,R,,,A*6D
$GPAPB,V,V,,[2024/10/02, 13:07:44.073],N,V,V,,,,,,,,N*68
$GPZDA,050741,02,10,2024,-08,00*6D
[2024/10/02, 13:07:44.261]$GPRMC,050743,A,0114.2662,N,10339.0755,E,4.28,110.24,021024[2024/10/02, 13:07:44.526],0.16,E,A*2F
$GPRMB,A,,,,,,,,,,,,V,A*1C
$GPGGA,050743,0114.2662,[2024/10/02, 13:07:44.667]N,10339.0755,E,1,18,0.67,25.11,M,9.60,M,,*7C
$GPGSA,A,3,10,12,18,2[2024/10/02, 13:07:44.808]3,25,28,29,32,,,,,1.34,0.67,1.16*0E
$GPGSV,5,1,18,10,27,351,24,12,[2024/10/02, 13:07:44.948]20,075,23,18,55,174,22,23,48,037,26*75
$GPGSV,5,2,18,25,44,111,28,[2024/10/02, 13:07:45.089]28,55,247,20,29,12,154,25,32,24,323,15*7C
$GPGSV,5,3,18,,33,105,27[2024/10/02, 13:07:45.229],,44,147,23,,67,336,24,,54,034,22*73
$GPGSV,5,4,18,,49,010,31,,60,[2024/10/02, 13:07:45.370]354,30,,71,174,27,,46,049,31*74
$GPGSV,5,5,18,,28,274,18,,42,219,1[2024/10/02, 13:07:45.511]8*77
$GPGLL,0114.2662,N,10339.0755,E,050743,A,A*49
$GPBOD,,T,,M,,[2024/10/02, 13:07:45.651]*47
$GPBWC,050743,,,,,,T,,M,,N,,A*7E
$GPVTG,110.24,T,110.08,M,4.2[2024/10/02, 13:07:45.792]8,N,7.92,K,A*2F
$PGRME,13.41,M,14.06,M,19.43,M*25
$PGRMZ,82,f,3*[2024/10/02, 13:07:45.932]21
$PGRMM,WGS 84*06
$HCHDM,,M*07
$WIMWV,,R,,,A*6D
$GPAPB,V,V,,[2024/10/02, 13:07:46.073],N,V,V,,,,,,,,N*68
$GPZDA,050743,02,10,2024,-08,00*6F
[2024/10/02, 13:07:46.260]$GPRMC,050745,A,0114.2661,N,10339.0777,E,4.35,94.24,021024[2024/10/02, 13:07:46.526],0.16,E,A*1B
$GPRMB,A,,,,,,,,,,,,V,A*1C
$GPGGA,050745,0114.2661,N[2024/10/02, 13:07:46.667],10339.0777,E,1,18,0.67,25.07,M,9.60,M,,*7E
$GPGSA,A,3,10,12,18,23[2024/10/02, 13:07:46.807],25,28,29,32,,,,,1.34,0.67,1.16*0E
$GPGSV,5,1,18,10,27,351,26,12,2[2024/10/02, 13:07:46.948]0,075,24,18,55,174,23,23,48,037,25*72
$GPGSV,5,2,18,25,44,111,28,2[2024/10/02, 13:07:47.088]8,55,248,17,29,12,154,26,32,24,323,15*74
$GPGSV,5,3,18,,33,105,28,[2024/10/02, 13:07:47.229],44,147,18,,67,336,25,,54,034,20*77
$GPGSV,5,4,18,,49,010,30,,60,3[2024/10/02, 13:07:47.370]54,30,,71,174,28,,46,049,31*7A
$GPGSV,5,5,18,,28,274,18,,42,219,15[2024/10/02, 13:07:47.510]*7A
$GPGLL,0114.2661,N,10339.0777,E,050745,A,A*4C
$GPBOD,,T,,M,,*[2024/10/02, 13:07:47.651]47
$GPBWC,050745,,,,,,T,,M,,N,,A*78
$GPVTG,94.24,T,94.08,M,4.35,[2024/10/02, 13:07:47.791]N,8.05,K,A*22
$PGRME,13.42,M,14.06,M,19.44,M*21
$PGRMZ,82,f,3*21[2024/10/02, 13:07:47.932]
$PGRMM,WGS 84*06
$HCHDM,,M*07
$WIMWV,,R,,,A*6D
$GPAPB,V,V,,,N,[2024/10/02, 13:07:48.072]V,V,,,,,,,,N*68
$GPZDA,050745,02,10,2024,-08,00*69
[2024/10/02, 13:07:48.260]$GPRMC,050747,A,0114.2656,N,10339.0799,E,4.32,95.66,021024[2024/10/02, 13:07:48.525],0.16,E,A*1D
$GPRMB,A,,,,,,,,,,,,V,A*1C
$GPGGA,050747,0114.2656,N[2024/10/02, 13:07:48.666],10339.0799,E,1,18,0.67,25.40,M,9.60,M,,*7B
$GPGSA,A,3,10,12,18,2[2024/10/02, 13:07:48.807]3,25,28,29,32,,,,,1.34,0.67,1.16*0E
$GPGSV,5,1,18,10,27,351,26,12,[2024/10/02, 13:07:48.947]20,075,25,18,55,174,22,23,48,037,27*70
$GPGSV,5,2,18,25,44,111,27,[2024/10/02, 13:07:49.088]28,55,248,17,29,12,153,24,32,24,323,16*7D
$GPGSV,5,3,18,,33,105,26[2024/10/02, 13:07:49.228],,44,147,17,,67,336,25,,54,034,22*74
$GPGSV,5,4,18,,49,010,30,,60,[2024/10/02, 13:07:49.369]354,30,,71,174,27,,46,049,31*75
$GPGSV,5,5,18,,28,274,22,,42,219,1[2024/10/02, 13:07:49.510]5*73
$GPGLL,0114.2656,N,10339.0799,E,050747,A,A*4A
$GPBOD,,T,,M,,[2024/10/02, 13:07:49.650]*47
$GPBWC,050747,,,,,,T,,M,,N,,A*7A
$GPVTG,95.66,T,95.50,M,4.32,[2024/10/02, 13:07:49.791]N,8.00,K,A*2B
$PGRME,13.44,M,14.12,M,19.49,M*2F
$PGRMZ,83,f,3*20[2024/10/02, 13:07:49.931]
$PGRMM,WGS 84*06
$HCHDM,,M*07
$WIMWV,,R,,,A*6D
$GPAPB,V,V,,,N[2024/10/02, 13:07:50.072],V,V,,,,,,,,N*68
$GPZDA,050747,02,10,2024,-08,00*6B
[2024/10/02, 13:07:50.259]$GPRMC,050749,A,0114.2652,N,10339.0818,E,4.18,101.09,02102[2024/10/02, 13:07:50.525]4,0.16,E,A*2C
$GPRMB,A,,,,,,,,,,,,V,A*1C
$GPGGA,050749,0114.2652,[2024/10/02, 13:07:50.666]N,10339.0818,E,1,18,0.67,26.03,M,9.60,M,,*73
$GPGSA,A,3,10,12,18,2[2024/10/02, 13:07:50.806]3,25,28,29,32,,,,,1.34,0.67,1.16*0E
$GPGSV,5,1,18,10,27,351,28,12,[2024/10/02, 13:07:50.947]20,075,22,18,55,174,22,23,48,037,28*76
$GPGSV,5,2,18,25,44,111,28,[2024/10/02, 13:07:51.087]28,55,248,17,29,12,153,24,32,24,324,14*77
$GPGSV,5,3,18,,33,105,25[2024/10/02, 13:07:51.228],,44,147,19,,67,336,25,,54,034,23*78
$GPGSV,5,4,18,,49,010,31,,60,[2024/10/02, 13:07:51.368]354,30,,71,174,26,,46,049,31*75
$GPGSV,5,5,18,,28,274,19,,42,219,1[2024/10/02, 13:07:51.509]4*7A
$GPGLL,0114.2652,N,10339.0818,E,050749,A,A*46
$GPBOD,,T,,M,[2024/10/02, 13:07:51.650],*47
$GPBWC,050749,,,,,,T,,M,,N,,A*74
$GPVTG,101.09,T,100.92,M,4.[2024/10/02, 13:07:51.790]18,N,7.74,K,A*29
$PGRME,13.45,M,14.14,M,19.52,M*22
$PGRMZ,85,f,3[2024/10/02, 13:07:51.931]*26
$PGRMM,WGS 84*06
$HCHDM,,M*07
$WIMWV,,R,,,A*6D
$GPAPB,V,V,,[2024/10/02, 13:07:52.071],N,V,V,,,,,,,,N*68
$GPZDA,050749,02,10,2024,-08,00*65
[2024/10/02, 13:07:52.259]$GPRMC,050751,A,0114.2645,N,10339.0839,E,4.17,106.66,02102[2024/10/02, 13:07:52.524]4,0.16,E,A*21
$GPRMB,A,,,,,,,,,,,,V,A*1C
$GPGGA,050751,0114.2645,[2024/10/02, 13:07:52.665]N,10339.0839,E,1,18,0.67,25.97,M,9.61,M,,*70
$GPGSA,A,3,10,12,18,[2024/10/02, 13:07:52.806]23,25,28,29,32,,,,,1.34,0.67,1.16*0E
$GPGSV,5,1,18,10,27,351,27,12[2024/10/02, 13:07:52.946],20,075,24,18,55,174,21,23,48,037,29*7D
$GPGSV,5,2,18,25,44,111,28[2024/10/02, 13:07:53.087],28,55,248,16,29,12,153,22,32,24,324,14*70
$GPGSV,5,3,18,,33,105,2[2024/10/02, 13:07:53.227]5,,44,147,19,,67,336,26,,54,034,21*79
$GPGSV,5,4,18,,49,010,31,,60,[2024/10/02, 13:07:53.368]354,30,,71,174,26,,46,049,31*75
$GPGSV,5,5,18,,28,274,20,,42,219,1[2024/10/02, 13:07:53.509]5*71
$GPGLL,0114.2645,N,10339.0839,E,050751,A,A*4A
$GPBOD,,T,,M,[2024/10/02, 13:07:53.649],*47
$GPBWC,050751,,,,,,T,,M,,N,,A*7D
$GPVTG,106.66,T,106.49,M,4.[2024/10/02, 13:07:53.790]17,N,7.72,K,A*2E
$PGRME,13.47,M,14.19,M,19.57,M*28
$PGRMZ,85,f,3[2024/10/02, 13:07:53.930]*26
$PGRMM,WGS 84*06
$HCHDM,,M*07
$WIMWV,,R,,,A*6D
$GPAPB,V,V,[2024/10/02, 13:07:54.071],,N,V,V,,,,,,,,N*68
$GPZDA,050751,02,10,2024,-08,00*6C
[2024/10/02, 13:07:54.258]$GPRMC,050753,A,0114.2642,N,10339.0861,E,4.08,109.58,02102[2024/10/02, 13:07:54.524]4,0.16,E,A*25
$GPRMB,A,,,,,,,,,,,,V,A*1C
$GPGGA,050753,0114.2642[2024/10/02, 13:07:54.665],N,10339.0861,E,1,18,0.67,25.45,M,9.61,M,,*77
$GPGSA,A,3,10,12,18,[2024/10/02, 13:07:54.805]23,25,28,29,32,,,,,1.34,0.67,1.16*0E
$GPGSV,5,1,18,10,27,351,26,12[2024/10/02, 13:07:54.946],20,075,26,18,55,174,22,23,48,037,28*7C
$GPGSV,5,2,18,25,44,111,28[2024/10/02, 13:07:55.086],28,55,248,15,29,12,153,22,32,24,324,13*74
$GPGSV,5,3,18,,33,105,2[2024/10/02, 13:07:55.227]5,,44,147,20,,67,336,25,,54,034,23*72
$GPGSV,5,4,18,,49,010,30,,60[2024/10/02, 13:07:55.368],354,30,,71,174,26,,46,049,30*75
$GPGSV,5,5,18,,28,274,21,,42,219,[2024/10/02, 13:07:55.508]15*70
$GPGLL,0114.2642,N,10339.0861,E,050753,A,A*42
$GPBOD,,T,,M,[2024/10/02, 13:07:55.649],*47
$GPBWC,050753,,,,,,T,,M,,N,,A*7F
$GPVTG,109.58,T,109.42,M,4.[2024/10/02, 13:07:55.789]08,N,7.55,K,A*23
$PGRME,13.49,M,14.10,M,19.51,M*29
$PGRMZ,83,f,3[2024/10/02, 13:07:55.930]*20
$PGRMM,WGS 84*06
$HCHDM,,M*07
$WIMWV,,R,,,A*6D
$GPAPB,V,V,[2024/10/02, 13:07:56.071],,N,V,V,,,,,,,,N*68
$GPZDA,050753,02,10,2024,-08,00*6E
[2024/10/02, 13:07:56.258]$GPRMC,050755,A,0114.2642,N,10339.0883,E,4.05,94.56,02102[2024/10/02, 13:07:56.524]4,0.16,E,A*19
$GPRMB,A,,,,,,,,,,,,V,A*1C
$GPGGA,050755,0114.2642,[2024/10/02, 13:07:56.664]N,10339.0883,E,1,18,0.67,25.91,M,9.61,M,,*74
$GPGSA,A,3,10,12,18,2[2024/10/02, 13:07:56.805]3,25,28,29,32,,,,,1.34,0.67,1.16*0E
$GPGSV,5,1,18,10,27,351,27,12,[2024/10/02, 13:07:56.945]20,075,26,18,55,174,23,23,48,037,28*7C
$GPGSV,5,2,18,25,44,111,28,[2024/10/02, 13:07:57.086]28,55,248,18,29,12,153,22,32,24,324,15*7F
$GPGSV,5,3,18,,33,105,26[2024/10/02, 13:07:57.226],,44,147,18,,67,336,24,,54,034,22*7A
$GPGSV,5,4,18,,49,010,30,,60,[2024/10/02, 13:07:57.367]354,31,,71,174,27,,46,049,31*74
$GPGSV,5,5,18,,28,274,23,,42,219,1[2024/10/02, 13:07:57.508]4*73
$GPGLL,0114.2642,N,10339.0883,E,050755,A,A*48
$GPBOD,,T,,M,,[2024/10/02, 13:07:57.648]*47
$GPBWC,050755,,,,,,T,,M,,N,,A*79
$GPVTG,94.56,T,94.40,M,4.05[2024/10/02, 13:07:57.789],N,7.50,K,A*27
$PGRME,13.51,M,14.06,M,19.50,M*26
$PGRMZ,85,f,3*26[2024/10/02, 13:07:57.929]
$PGRMM,WGS 84*06
$HCHDM,,M*07
$WIMWV,,R,,,A*6D
$GPAPB,V,V,,,N[2024/10/02, 13:07:58.070],V,V,,,,,,,,N*68
$GPZDA,050755,02,10,2024,-08,00*68
[2024/10/02, 13:07:58.257]$GPRMC,050757,A,0114.2636,N,10339.0905,E,4.08,95.83,02102[2024/10/02, 13:07:58.523]4,0.16,E,A*13
$GPRMB,A,,,,,,,,,,,,V,A*1C
$GPGGA,050757,0114.2636,[2024/10/02, 13:07:58.664]N,10339.0905,E,1,18,0.67,26.26,M,9.61,M,,*75
$GPGSA,A,3,10,12,18,2[2024/10/02, 13:07:58.804]3,25,28,29,32,,,,,1.34,0.67,1.16*0E
$GPGSV,5,1,18,10,27,351,26,12,[2024/10/02, 13:07:58.945]20,075,24,18,55,174,22,23,48,037,28*7E
$GPGSV,5,2,18,25,44,111,28,[2024/10/02, 13:07:59.085]28,55,248,18,29,12,153,25,32,24,324,16*7B
$GPGSV,5,3,18,,33,105,26[2024/10/02, 13:07:59.226],,44,147,19,,67,336,25,,54,034,22*7A
$GPGSV,5,4,18,,49,010,30,,60,[2024/10/02, 13:07:59.367]354,31,,71,174,26,,46,049,31*75
$GPGSV,5,5,18,,28,274,20,,42,219,1[2024/10/02, 13:07:59.507]4*70
$GPGLL,0114.2636,N,10339.0905,E,050757,A,A*46
$GPBOD,,T,,M,[2024/10/02, 13:07:59.648],*47
$GPBWC,050757,,,,,,T,,M,,N,,A*7B
$GPVTG,95.83,T,95.66,M,4.08[2024/10/02, 13:07:59.788],N,7.56,K,A*20
$PGRME,13.52,M,13.96,M,19.43,M*29
$PGRMZ,86,f,3*2[2024/10/02, 13:07:59.929]5
$PGRMM,WGS 84*06
$HCHDM,,M*07
$WIMWV,,R,,,A*6D
$GPAPB,V,V,,,[2024/10/02, 13:08:00.070]N,V,V,,,,,,,,N*68
$GPZDA,050757,02,10,2024,-08,00*6A
[2024/10/02, 13:08:00.257]$GPRMC,050759,A,0114.2629,N,10339.0927,E,4.11,108.29,0210[2024/10/02, 13:08:00.523]24,0.16,E,A*2E
$GPRMB,A,,,,,,,,,,,,V,A*1C
$GPGGA,050759,0114.2629[2024/10/02, 13:08:00.663],N,10339.0927,E,1,18,0.67,26.05,M,9.61,M,,*74
$GPGSA,A,3,10,12,18[2024/10/02, 13:08:00.804],23,25,28,29,32,,,,,1.34,0.67,1.16*0E
$GPGSV,5,1,18,10,27,351,24,1[2024/10/02, 13:08:00.945]2,20,075,23,18,55,174,23,23,48,037,28*7A
$GPGSV,5,2,18,25,44,111,2[2024/10/02, 13:08:01.085]8,28,55,248,18,29,12,153,24,32,24,324,17*7B
$GPGSV,5,3,18,,33,105,[2024/10/02, 13:08:01.226]26,,44,147,19,,66,336,22,,54,034,23*7D
$GPGSV,5,4,18,,49,010,30,,6[2024/10/02, 13:08:01.366]0,354,30,,71,174,27,,46,049,31*75
$GPGSV,5,5,18,,28,274,22,,42,219[2024/10/02, 13:08:01.507],17*71
$GPGLL,0114.2629,N,10339.0927,E,050759,A,A*46
$GPBOD,,T,,M[2024/10/02, 13:08:01.647],,*47
$GPBWC,050759,,,,,,T,,M,,N,,A*75
$GPVTG,108.29,T,108.13,M,[2024/10/02, 13:08:01.788]4.11,N,7.60,K,A*2F
$PGRME,13.54,M,13.98,M,19.46,M*24
$PGRMZ,85,f[2024/10/02, 13:08:01.928],3*26
$PGRMM,WGS 84*06
$HCHDM,,M*07
$WIMWV,,R,,,A*6D
$GPAPB,V,V[2024/10/02, 13:08:02.069],,,N,V,V,,,,,,,,N*68
$GPZDA,050759,02,10,2024,-08,00*64
[2024/10/02, 13:08:02.257]$GPRMC,050801,A,0114.2625,N,10339.0952,E,4.19,106.39,021[2024/10/02, 13:08:02.522]024,0.16,E,A*25
$GPRMB,A,,,,,,,,,,,,V,A*1C
$GPGGA,050801,0114.262[2024/10/02, 13:08:02.663]5,N,10339.0952,E,1,18,0.67,26.70,M,9.61,M,,*7A
$GPGSA,A,3,10,12,18[2024/10/02, 13:08:02.803],23,25,28,29,32,,,,,1.34,0.67,1.16*0E
$GPGSV,5,1,18,10,27,351,26,1[2024/10/02, 13:08:02.944]2,20,075,26,18,55,174,26,23,48,037,26*76
$GPGSV,5,2,18,25,44,111,2[2024/10/02, 13:08:03.084]7,28,55,248,18,29,12,153,26,32,24,324,15*74
$GPGSV,5,3,18,,33,105,[2024/10/02, 13:08:03.225]28,,44,147,22,,66,336,25,,54,034,23*7C
$GPGSV,5,4,18,,49,010,30,,6[2024/10/02, 13:08:03.366]0,354,30,,71,174,27,,46,049,31*75
$GPGSV,5,5,18,,28,274,16,,42,219[2024/10/02, 13:08:03.506],14*75
$GPGLL,0114.2625,N,10339.0952,E,050801,A,A*4A
$GPBOD,,T,,M[2024/10/02, 13:08:03.647],,*47
$GPBWC,050801,,,,,,T,,M,,N,,A*77
$GPVTG,106.39,T,106.23,M,[2024/10/02, 13:08:03.787]4.19,N,7.77,K,A*23
$PGRME,13.55,M,14.01,M,19.49,M*2D
$PGRMZ,88,f[2024/10/02, 13:08:03.928],3*2B
$PGRMM,WGS 84*06
$HCHDM,,M*07
$WIMWV,,R,,,A*6D
$GPAPB,V,V[2024/10/02, 13:08:04.069],,,N,V,V,,,,,,,,N*68
$GPZDA,050801,02,10,2024,-08,00*66
[2024/10/02, 13:08:04.256]$GPRMC,050803,A,0114.2622,N,10339.0980,E,4.49,105.12,021[2024/10/02, 13:08:04.522]024,0.16,E,A*20
$GPRMB,A,,,,,,,,,,,,V,A*1C
$GPGGA,050803,0114.262[2024/10/02, 13:08:04.662]2,N,10339.0980,E,1,18,0.67,28.37,M,9.61,M,,*7D
$GPGSA,A,3,10,12,18[2024/10/02, 13:08:04.803],23,25,28,29,32,,,,,1.34,0.67,1.16*0E
$GPGSV,5,1,18,10,27,351,24,1[2024/10/02, 13:08:04.943]2,20,075,24,18,55,174,25,23,48,037,24*77
$GPGSV,5,2,18,25,44,111,2[2024/10/02, 13:08:05.084]7,28,55,248,20,29,12,153,21,32,24,324,15*78
$GPGSV,5,3,18,,33,105,[2024/10/02, 13:08:05.225]27,,44,147,19,,66,336,21,,54,034,24*78
$GPGSV,5,4,18,,49,010,30,,6[2024/10/02, 13:08:05.365]0,354,30,,71,174,27,,46,049,31*75
$GPGSV,5,5,18,,28,274,16,,42,219[2024/10/02, 13:08:05.506],18*79
$GPGLL,0114.2622,N,10339.0980,E,050803,A,A*40
$GPBOD,,T,,[2024/10/02, 13:08:05.646]M,,*47
$GPBWC,050803,,,,,,T,,M,,N,,A*75
$GPVTG,105.12,T,104.96,M,[2024/10/02, 13:08:05.787]4.49,N,8.32,K,A*2E
$PGRME,13.56,M,13.12,M,18.87,M*28
$PGRMZ,93,f[2024/10/02, 13:08:05.928],3*21
$PGRMM,WGS 84*06
$HCHDM,,M*07
$WIMWV,,R,,,A*6D
$GPAPB,V,V[2024/10/02, 13:08:06.068],,,N,V,V,,,,,,,,N*68
$GPZDA,050803,02,10,2024,-08,00*64
[2024/10/02, 13:08:06.256]$GPRMC,050805,A,0114.2611,N,10339.1001,E,4.40,119.22,021[2024/10/02, 13:08:06.521]024,0.16,E,A*20
$GPRMB,A,,,,,,,,,,,,V,A*1C
$GPGGA,050805,0114.261[2024/10/02, 13:08:06.662]1,N,10339.1001,E,1,18,0.67,28.07,M,9.61,M,,*79
$GPGSA,A,3,10,12,18[2024/10/02, 13:08:06.802],23,25,28,29,32,,,,,1.34,0.67,1.16*0E
$GPGSV,5,1,18,10,27,351,27,1[2024/10/02, 13:08:06.943]2,20,075,23,18,55,174,26,23,48,037,25*71
$GPGSV,5,2,18,25,44,111,2[2024/10/02, 13:08:07.084]7,28,55,248,19,29,12,153,24,32,24,324,15*77
$GPGSV,5,3,18,,33,105,[2024/10/02, 13:08:07.224]28,,44,147,23,,66,336,24,,54,034,22*7D
$GPGSV,5,4,18,,50,010,30,,6[2024/10/02, 13:08:07.365]0,354,30,,71,174,27,,46,049,32*7E
$GPGSV,5,5,18,,28,274,16,,42,219[2024/10/02, 13:08:07.505],16*77
$GPGLL,0114.2611,N,10339.1001,E,050805,A,A*47
$GPBOD,,T,,M[2024/10/02, 13:08:07.646],,*47
$GPBWC,050805,,,,,,T,,M,,N,,A*73
$GPVTG,119.22,T,119.06,M,[2024/10/02, 13:08:07.786]4.40,N,8.15,K,A*29
$PGRME,13.57,M,12.82,M,18.67,M*2F
$PGRMZ,92,f,[2024/10/02, 13:08:07.927]3*20
$PGRMM,WGS 84*06
$HCHDM,,M*07
$WIMWV,,R,,,A*6D
$GPAPB,V,V[2024/10/02, 13:08:08.068],,,N,V,V,,,,,,,,N*68
$GPZDA,050805,02,10,2024,-08,00*62
[2024/10/02, 13:08:08.255]$GPRMC,050807,A,0114.2605,N,10339.1024,E,4.31,117.30,021[2024/10/02, 13:08:08.521]024,0.16,E,A*2B
$GPRMB,A,,,,,,,,,,,,V,A*1C
$GPGGA,050807,0114.26[2024/10/02, 13:08:08.661]05,N,10339.1024,E,1,18,0.67,29.47,M,9.61,M,,*7C
$GPGSA,A,3,10,12,1[2024/10/02, 13:08:08.802]8,23,25,28,29,32,,,,,1.34,0.67,1.16*0E
$GPGSV,5,1,18,10,27,351,26,[2024/10/02, 13:08:08.942]12,20,075,24,18,55,174,25,23,48,037,25*74
$GPGSV,5,2,18,25,44,111,[2024/10/02, 13:08:09.083]27,28,55,248,22,29,12,153,25,32,24,324,16*7D
$GPGSV,5,3,18,,33,105[2024/10/02, 13:08:09.224],28,,44,147,23,,66,336,23,,54,034,22*7A
$GPGSV,5,4,18,,50,010,30,,[2024/10/02, 13:08:09.364]60,354,30,,71,174,27,,46,049,31*7D
$GPGSV,5,5,18,,28,274,18,,42,219[2024/10/02, 13:08:09.505],17*78
$GPGLL,0114.2605,N,10339.1024,E,050807,A,A*47
$GPBOD,,T,,[2024/10/02, 13:08:09.645]M,,*47
$GPBWC,050807,,,,,,T,,M,,N,,A*71
$GPVTG,117.30,T,117.14,M,[2024/10/02, 13:08:09.786]4.31,N,7.99,K,A*24
$PGRME,13.58,M,12.59,M,18.52,M*20
$PGRMZ,97,f[2024/10/02, 13:08:09.927],3*25
$PGRMM,WGS 84*06
$HCHDM,,M*07
$WIMWV,,R,,,A*6D
$GPAPB,V,[2024/10/02, 13:08:10.067]V,,,N,V,V,,,,,,,,N*68
$GPZDA,050807,02,10,2024,-08,00*60
[2024/10/02, 13:08:10.255]$GPRMC,050809,A,0114.2601,N,10339.1048,E,4.32,98.23,0210[2024/10/02, 13:08:10.520]24,0.16,E,A*1C
$GPRMB,A,,,,,,,,,,,,V,A*1C
$GPGGA,050809,0114.2601[2024/10/02, 13:08:10.661],N,10339.1048,E,1,18,0.67,29.52,M,9.61,M,,*78
$GPGSA,A,3,10,12,18[2024/10/02, 13:08:10.801],23,25,28,29,32,,,,,1.34,0.67,1.16*0E
$GPGSV,5,1,18,10,27,351,28,1[2024/10/02, 13:08:10.942]2,20,075,25,18,55,174,23,23,48,037,28*70
$GPGSV,5,2,18,25,44,111,2[2024/10/02, 13:08:11.083]7,28,55,248,20,29,12,153,21,32,24,324,17*7A
$GPGSV,5,3,18,,33,105,[2024/10/02, 13:08:11.223]24,,44,147,18,,66,336,24,,54,034,25*7E
$GPGSV,5,4,18,,50,010,30,,6[2024/10/02, 13:08:11.364]0,354,30,,71,174,26,,46,049,31*7C
$GPGSV,5,5,18,,28,274,22,,42,219[2024/10/02, 13:08:11.504],16*70
$GPGLL,0114.2601,N,10339.1048,E,050809,A,A*47
$GPBOD,,T,,[2024/10/02, 13:08:11.645]M,,*47
$GPBWC,050809,,,,,,T,,M,,N,,A*7F
$GPVTG,98.23,T,98.07,M,4.[2024/10/02, 13:08:11.786]32,N,8.00,K,A*28
$PGRME,13.59,M,12.20,M,18.26,M*2C
$PGRMZ,97,f,3[2024/10/02, 13:08:11.926]*25
$PGRMM,WGS 84*06
$HCHDM,,M*07
$WIMWV,,R,,,A*6D
$GPAPB,V,V,[2024/10/02, 13:08:12.067],,N,V,V,,,,,,,,N*68
$GPZDA,050809,02,10,2024,-08,00*6E
[2024/10/02, 13:08:12.254]$GPRMC,050811,A,0114.2598,N,10339.1069,E,4.13,98.69,0210[2024/10/02, 13:08:12.520]24,0.16,E,A*18
$GPRMB,A,,,,,,,,,,,,V,A*1C
$GPGGA,050811,0114.259[2024/10/02, 13:08:12.660]8,N,10339.1069,E,1,18,0.67,30.55,M,9.61,M,,*7E
$GPGSA,A,3,10,12,18[2024/10/02, 13:08:12.801],23,25,28,29,32,,,,,1.34,0.67,1.16*0E
$GPGSV,5,1,18,10,27,351,25,1[2024/10/02, 13:08:12.942]2,20,075,25,18,55,174,22,23,48,037,29*7D
$GPGSV,5,2,18,25,44,111,2[2024/10/02, 13:08:13.082]8,28,55,248,16,29,12,153,23,32,24,324,16*73
$GPGSV,5,3,18,,33,105,[2024/10/02, 13:08:13.223]25,,44,147,18,,66,336,26,,54,034,23*7B
$GPGSV,5,4,18,,50,010,30,,6[2024/10/02, 13:08:13.363]0,354,29,,71,174,26,,46,049,32*77
$GPGSV,5,5,18,,28,274,19,,42,219[2024/10/02, 13:08:13.504],16*78
$GPGLL,0114.2598,N,10339.1069,E,050811,A,A*4E
$GPBOD,,T,,M[2024/10/02, 13:08:13.644],,*47
$GPBWC,050811,,,,,,T,,M,,N,,A*76
$GPVTG,98.69,T,98.53,M,4.1[2024/10/02, 13:08:13.785]3,N,7.65,K,A*28
$PGRME,13.60,M,11.92,M,18.08,M*20
$PGRMZ,100,f,3[2024/10/02, 13:08:13.926]*1A
$PGRMM,WGS 84*06
$HCHDM,,M*07
$WIMWV,,R,,,A*6D
$GPAPB,V,V,[2024/10/02, 13:08:14.066],,N,V,V,,,,,,,,N*68
$GPZDA,050811,02,10,2024,-08,00*67
[2024/10/02, 13:08:14.254]$GPRMC,050813,A,0114.2597,N,10339.1094,E,4.18,93.73,021[2024/10/02, 13:08:14.519]024,0.16,E,A*1C
$GPRMB,A,,,,,,,,,,,,V,A*1C
$GPGGA,050813,0114.259[2024/10/02, 13:08:14.660]7,N,10339.1094,E,1,18,0.67,31.56,M,9.61,M,,*73
$GPGSA,A,3,10,12,18[2024/10/02, 13:08:14.800],23,25,28,29,32,,,,,1.34,0.67,1.16*0E
$GPGSV,5,1,18,10,27,351,27,1[2024/10/02, 13:08:14.941]2,20,075,26,18,55,174,22,23,48,037,30*74
$GPGSV,5,2,18,25,44,111,2[2024/10/02, 13:08:15.082]8,28,55,248,16,29,12,153,21,32,24,324,23*77
$GPGSV,5,3,18,,33,105,[2024/10/02, 13:08:15.222]25,,44,147,20,,66,336,24,,54,034,23*72
$GPGSV,5,4,18,,50,010,30,,6[2024/10/02, 13:08:15.363]0,354,30,,71,174,26,,46,049,32*7F
$GPGSV,5,5,18,,28,274,20,,42,219[2024/10/02, 13:08:15.504],17*73
$GPGLL,0114.2597,N,10339.1094,E,050813,A,A*41
$GPBOD,,T,,[2024/10/02, 13:08:15.644]M,,*47
$GPBWC,050813,,,,,,T,,M,,N,,A*74
$GPVTG,93.73,T,93.57,M,4.[2024/10/02, 13:08:15.785]18,N,7.74,K,A*2C
$PGRME,13.60,M,11.38,M,17.73,M*23
$PGRMZ,104,f,[2024/10/02, 13:08:15.925]3*1E
$PGRMM,WGS 84*06
$HCHDM,,M*07
$WIMWV,,R,,,A*6D
$GPAPB,V,V[2024/10/02, 13:08:16.066],,,N,V,V,,,,,,,,N*68
$GPZDA,050813,02,10,2024,-08,00*65
[2024/10/02, 13:08:16.253]$GPRMC,050815,A,0114.2593,N,10339.1119,E,4.33,94.96,021[2024/10/02, 13:08:16.519]024,0.16,E,A*1F
$GPRMB,A,,,,,,,,,,,,V,A*1C
$GPGGA,050815,0114.259[2024/10/02, 13:08:16.659]3,N,10339.1119,E,1,18,0.67,31.78,M,9.61,M,,*79
$GPGSA,A,3,10,12,18[2024/10/02, 13:08:16.800],23,25,28,29,32,,,,,1.34,0.67,1.16*0E
$GPGSV,5,1,18,10,27,351,28,[2024/10/02, 13:08:16.941]12,20,075,26,18,55,174,24,23,48,037,29*75
$GPGSV,5,2,18,25,44,111,[2024/10/02, 13:08:17.081]28,28,55,248,15,29,12,153,22,32,24,324,19*7E
$GPGSV,5,3,18,,33,105[2024/10/02, 13:08:17.222],24,,44,147,20,,66,336,24,,54,034,22*72
$GPGSV,5,4,18,,50,010,30,,[2024/10/02, 13:08:17.362]60,354,30,,71,173,25,,46,049,32*7B
$GPGSV,5,5,18,,28,274,22,,42,21[2024/10/02, 13:08:17.503]9,17*71
$GPGLL,0114.2593,N,10339.1119,E,050815,A,A*47
$GPBOD,,T,,[2024/10/02, 13:08:17.644]M,,*47
$GPBWC,050815,,,,,,T,,M,,N,,A*72
$GPVTG,94.96,T,94.80,M,4.[2024/10/02, 13:08:17.784]33,N,8.01,K,A*29
$PGRME,13.60,M,11.15,M,17.59,M*24
$PGRMZ,104,f,[2024/10/02, 13:08:17.925]3*1E
$PGRMM,WGS 84*06
$HCHDM,,M*07
$WIMWV,,R,,,A*6D
$GPAPB,V,V[2024/10/02, 13:08:18.065],,,N,V,V,,,,,,,,N*68
$GPZDA,050815,02,10,2024,-08,00*63
[2024/10/02, 13:08:18.253]$GPRMC,050817,A,0114.2588,N,10339.1144,E,4.38,109.46,02[2024/10/02, 13:08:18.518]1024,0.16,E,A*2C
$GPRMB,A,,,,,,,,,,,,V,A*1C
$GPGGA,050817,0114.25[2024/10/02, 13:08:18.659]88,N,10339.1144,E,1,18,0.67,32.54,M,9.61,M,,*74
$GPGSA,A,3,10,12,1[2024/10/02, 13:08:18.799]8,23,25,28,29,32,,,,,1.34,0.67,1.16*0E
$GPGSV,5,1,18,10,27,351,27,[2024/10/02, 13:08:18.940]12,20,075,26,18,55,174,21,23,48,037,28*7E
$GPGSV,5,2,18,25,44,111,[2024/10/02, 13:08:19.081]28,28,55,248,15,29,12,153,26,32,24,324,19*7A
$GPGSV,5,3,18,,33,105[2024/10/02, 13:08:19.221],26,,44,147,17,,66,336,25,,54,034,21*76
$GPGSV,5,4,18,,50,010,31,,[2024/10/02, 13:08:19.362]60,354,30,,71,173,27,,45,049,32*7B
$GPGSV,5,5,18,,28,274,22,,42,21[2024/10/02, 13:08:19.502]9,15*73
$GPGLL,0114.2588,N,10339.1144,E,050817,A,A*47
$GPBOD,,T,[2024/10/02, 13:08:19.643],M,,*47
$GPBWC,050817,,,,,,T,,M,,N,,A*70
$GPVTG,109.46,T,109.30,M[2024/10/02, 13:08:19.784],4.38,N,8.12,K,A*26
$PGRME,13.57,M,10.94,M,17.43,M*23
$PGRMZ,107,[2024/10/02, 13:08:19.924]f,3*1D
$PGRMM,WGS 84*06
$HCHDM,,M*07
$WIMWV,,R,,,A*6D
$GPAPB,V[2024/10/02, 13:08:20.065],V,,,N,V,V,,,,,,,,N*68
$GPZDA,050817,02,10,2024,-08,00*61
[2024/10/02, 13:08:20.252]$GPRMC,050819,A,0114.2581,N,10339.1167,E,4.38,108.46,02[2024/10/02, 13:08:20.518]1024,0.16,E,A*2B
$GPRMB,A,,,,,,,,,,,,V,A*1C
$GPGGA,050819,0114.25[2024/10/02, 13:08:20.658]81,N,10339.1167,E,1,18,0.67,32.94,M,9.61,M,,*7E
$GPGSA,A,3,10,12,1[2024/10/02, 13:08:20.799]8,23,25,28,29,32,,,,,1.34,0.67,1.16*0E
$GPGSV,5,1,18,10,27,351,24[2024/10/02, 13:08:20.940],12,20,075,26,18,55,174,24,23,48,037,27*77
$GPGSV,5,2,18,25,44,111[2024/10/02, 13:08:21.080],28,28,55,248,18,29,12,153,25,32,24,324,17*7A
$GPGSV,5,3,18,,33,10[2024/10/02, 13:08:21.221]5,27,,44,147,17,,66,336,24,,54,034,23*74
$GPGSV,5,4,18,,50,010,31,,[2024/10/02, 13:08:21.361]60,354,30,,71,173,26,,45,049,31*79
$GPGSV,5,5,18,,28,273,22,,42,21[2024/10/02, 13:08:21.502]9,15*74
$GPGLL,0114.2581,N,10339.1167,E,050819,A,A*41
$GPBOD,,T,[2024/10/02, 13:08:21.643],M,,*47
$GPBWC,050819,,,,,,T,,M,,N,,A*7E
$GPVTG,108.46,T,108.30,M[2024/10/02, 13:08:21.783],4.38,N,8.11,K,A*25
$PGRME,13.40,M,10.76,M,17.18,M*27
$PGRMZ,108[2024/10/02, 13:08:21.924],f,3*12
$PGRMM,WGS 84*06
$HCHDM,,M*07
$WIMWV,,R,,,A*6D
$GPAPB,V[2024/10/02, 13:08:22.064],V,,,N,V,V,,,,,,,,N*68
$GPZDA,050819,02,10,2024,-08,00*6F
[2024/10/02, 13:08:22.252]$GPRMC,050821,A,0114.2576,N,10339.1191,E,4.36,110.19,0[2024/10/02, 13:08:22.517]21024,0.16,E,A*2C
$GPRMB,A,,,,,,,,,,,,V,A*1C
$GPGGA,050821,0114.2[2024/10/02, 13:08:22.658]576,N,10339.1191,E,1,18,0.67,32.83,M,9.61,M,,*72
$GPGSA,A,3,10,12,[2024/10/02, 13:08:22.799]18,23,25,28,29,32,,,,,1.34,0.67,1.16*0E
$GPGSV,5,1,18,10,27,351,26[2024/10/02, 13:08:22.939],12,20,075,22,18,55,174,25,23,48,037,26*71
$GPGSV,5,2,18,25,44,111[2024/10/02, 13:08:23.080],28,28,55,248,20,29,12,153,25,32,24,324,15*73
$GPGSV,5,3,18,,33,10[2024/10/02, 13:08:23.220]5,28,,44,147,18,,66,336,24,,54,034,23*74
$GPGSV,5,4,18,,50,010,31,[2024/10/02, 13:08:23.361],60,354,31,,71,173,27,,45,049,32*7A
$GPGSV,5,5,18,,28,273,18,,42,2[2024/10/02, 13:08:23.502]18,19*70
$GPGLL,0114.2576,N,10339.1191,E,050821,A,A*4B
$GPBOD,,T,[2024/10/02, 13:08:23.642],M,,*47
$GPBWC,050821,,,,,,T,,M,,N,,A*75
$GPVTG,110.19,T,110.03,[2024/10/02, 13:08:23.783]M,4.36,N,8.08,K,A*29
$PGRME,13.24,M,10.39,M,16.83,M*2D
$PGRMZ,108[2024/10/02, 13:08:23.923],f,3*12
$PGRMM,WGS 84*06
$HCHDM,,M*07
$WIMWV,,R,,,A*6D
$GPAPB,[2024/10/02, 13:08:24.064]V,V,,,N,V,V,,,,,,,,N*68
$GPZDA,050821,02,10,2024,-08,00*64
[2024/10/02, 13:08:24.256]$GPRMC,050823,A,0114.2573,N,10339.1215,E,4.37,109.24,021[2024/10/02, 13:08:24.521]024,0.16,E,A*23
$GPRMB,A,,,,,,,,,,,,V,A*1C
$GPGGA,050823,0114.257[2024/10/02, 13:08:24.662]3,N,10339.1215,E,1,18,0.67,33.42,M,9.61,M,,*76
$GPGSA,A,3,10,12,18[2024/10/02, 13:08:24.802],23,25,28,29,32,,,,,1.34,0.67,1.16*0E
$GPGSV,5,1,18,10,27,351,26,1[2024/10/02, 13:08:24.943]2,20,075,23,18,55,174,25,23,48,037,23*75
$GPGSV,5,2,18,25,44,111,2[2024/10/02, 13:08:25.084]7,28,55,248,20,29,12,153,25,32,24,324,15*7C
$GPGSV,5,3,18,,33,105,