[2024/10/02, 13:23:23.061]100,23,28,58,262,26,29,10,147,16,31,27,230,29*77
$GPGSV,5,3,19,32,[2024/10/02, 13:23:23.202]23,331,24,,35,101,20,,42,148,24,,63,337,25*7C
$GPGSV,5,4,19,,58,03[2024/10/02, 13:23:23.342]6,21,,53,010,21,,57,353,25,,78,167,24*76
$GPGSV,5,5,19,,41,043,17,[2024/10/02, 13:23:23.491],28,266,27,,38,212,32*43
$GPGLL,0113.9059,N,10339.1280,E,052321,A,A*45[2024/10/02, 13:23:23.632]
$GPBOD,,T,,M,,*47
$GPBWC,052321,,,,,,T,,M,,N,,A*7C
$GPVTG,292.[2024/10/02, 13:23:23.772]74,T,292.58,M,2.98,N,5.53,K,A*2D
$PGRME,12.71,M,15.88,M,20.34,M*2A[2024/10/02, 13:23:23.913]
$PGRMZ,21,f,3*28
$PGRMM,WGS 84*06
$HCHDM,,M*07
$WIMWV,,R,,,A*[2024/10/02, 13:23:24.054]6D
$GPAPB,V,V,,,N,V,V,,,,,,,,N*68
$GPZDA,052321,02,10,2024,-08,0[2024/10/02, 13:23:24.147]0*6D
[2024/10/02, 13:23:24.225]$GPRMC,052323,A,0113.9066,N,10339.1257,E,3.21,281[2024/10/02, 13:23:24.491].26,021024,0.16,E,A*20
$GPRMB,A,,,,,,,,,,,,V,A*1C
$GPGGA,052323,[2024/10/02, 13:23:24.631]0113.9066,N,10339.1257,E,1,19,0.64,6.98,M,9.63,M,,*45
$GPGSA,A,3,1[2024/10/02, 13:23:24.772]0,12,18,23,25,28,29,31,32,,,,1.29,0.64,1.12*07
$GPGSV,5,1,19,10,33[2024/10/02, 13:23:24.913],355,25,12,18,068,18,18,47,173,28,23,52,047,16*7A
$GPGSV,5,2,19,25[2024/10/02, 13:23:25.053],45,100,22,28,58,262,27,29,10,147,16,31,27,230,30*7F
$GPGSV,5,3,19[2024/10/02, 13:23:25.194],32,23,331,24,,35,101,19,,42,148,21,,63,337,23*75
$GPGSV,5,4,19,,5[2024/10/02, 13:23:25.334]8,036,20,,53,010,20,,57,353,26,,78,167,21*70
$GPGSV,5,5,19,,41,043[2024/10/02, 13:23:25.475],17,,28,266,27,,38,212,32*43
$GPGLL,0113.9066,N,10339.1257,E,05232[2024/10/02, 13:23:25.616]3,A,A*41
$GPBOD,,T,,M,,*47
$GPBWC,052323,,,,,,T,,M,,N,,A*7E
$GP[2024/10/02, 13:23:25.756]VTG,281.26,T,281.09,M,3.21,N,5.95,K,A*27
$PGRME,12.63,M,16.15,M,20[2024/10/02, 13:23:25.897].50,M*2C
$PGRMZ,23,f,3*2A
$PGRMM,WGS 84*06
$HCHDM,,M*07
$WIMWV[2024/10/02, 13:23:26.037],,R,,,A*6D
$GPAPB,V,V,,,N,V,V,,,,,,,,N*68
$GPZDA,052323,02,10,202[2024/10/02, 13:23:26.147]4,-08,00*6F
[2024/10/02, 13:23:26.225]$GPRMC,052325,A,0113.9071,N,10339.1232,E,3.78,27[2024/10/02, 13:23:26.490]9.31,021024,0.16,E,A*2E
$GPRMB,A,,,,,,,,,,,,V,A*1C
$GPGGA,052325,[2024/10/02, 13:23:26.631]0113.9071,N,10339.1232,E,1,19,0.64,7.66,M,9.63,M,,*46
$GPGSA,A,3,1[2024/10/02, 13:23:26.772]0,12,18,23,25,28,29,31,32,,,,1.29,0.64,1.12*07
$GPGSV,5,1,19,10,33[2024/10/02, 13:23:26.912],355,26,12,18,068,19,18,47,173,27,23,52,047,18*79
$GPGSV,5,2,19,25[2024/10/02, 13:23:27.053],45,100,19,28,58,262,28,29,10,147,17,31,27,230,30*79
$GPGSV,5,3,19[2024/10/02, 13:23:27.194],32,23,331,24,,35,101,23,,42,148,25,,63,337,22*79
$GPGSV,5,4,19,,5[2024/10/02, 13:23:27.334]8,036,19,,53,010,19,,57,353,25,,78,167,22*70
$GPGSV,5,5,19,,41,043[2024/10/02, 13:23:27.475],18,,28,266,28,,38,212,32*43
$GPGLL,0113.9071,N,10339.1232,E,05232[2024/10/02, 13:23:27.615]5,A,A*42
$GPBOD,,T,,M,,*47
$GPBWC,052325,,,,,,T,,M,,N,,A*78
$GPV[2024/10/02, 13:23:27.756]TG,279.31,T,279.14,M,3.78,N,7.01,K,A*2E
$PGRME,12.56,M,16.45,M,20[2024/10/02, 13:23:27.896].70,M*2D
$PGRMZ,25,f,3*2C
$PGRMM,WGS 84*06
$HCHDM,,M*07
$WIMWV,[2024/10/02, 13:23:28.037],R,,,A*6D
$GPAPB,V,V,,,N,V,V,,,,,,,,N*68
$GPZDA,052325,02,10,202[2024/10/02, 13:23:28.146]4,-08,00*69
[2024/10/02, 13:23:28.224]$GPRMC,052327,A,0113.9079,N,10339.1211,E,3.97,28[2024/10/02, 13:23:28.490]9.32,021024,0.16,E,A*28
$GPRMB,A,,,,,,,,,,,,V,A*1C
$GPGGA,052327,[2024/10/02, 13:23:28.631]0113.9079,N,10339.1211,E,1,19,0.64,7.41,M,9.63,M,,*48
$GPGSA,A,3,1[2024/10/02, 13:23:28.771]0,12,18,23,25,28,29,31,32,,,,1.29,0.64,1.12*07
$GPGSV,5,1,19,10,33[2024/10/02, 13:23:28.912],355,26,12,18,068,19,18,47,173,26,23,52,047,17*77
$GPGSV,5,2,19,25[2024/10/02, 13:23:29.052],45,100,23,28,58,262,28,29,10,147,13,31,27,230,29*7C
$GPGSV,5,3,19[2024/10/02, 13:23:29.193],32,23,331,24,,35,101,24,,42,148,24,,63,337,23*7E
$GPGSV,5,4,19,,5[2024/10/02, 13:23:29.334]8,036,18,,53,010,19,,57,353,24,,78,167,25*77
$GPGSV,5,5,19,,41,043[2024/10/02, 13:23:29.474],18,,28,266,27,,38,212,32*4C
$GPGLL,0113.9079,N,10339.1211,E,05232[2024/10/02, 13:23:29.615]7,A,A*49
$GPBOD,,T,,M,,*47
$GPBWC,052327,,,,,,T,,M,,N,,A*7A
$GP[2024/10/02, 13:23:29.755]VTG,289.32,T,289.15,M,3.97,N,7.36,K,A*29
$PGRME,12.55,M,16.80,M,20[2024/10/02, 13:23:29.896].97,M*2E
$PGRMZ,24,f,3*2D
$PGRMM,WGS 84*06
$HCHDM,,M*07
$WIMWV[2024/10/02, 13:23:30.037],,R,,,A*6D
$GPAPB,V,V,,,N,V,V,,,,,,,,N*68
$GPZDA,052327,02,10,20[2024/10/02, 13:23:30.146]24,-08,00*6B
[2024/10/02, 13:23:30.224]$GPRMC,052329,A,0113.9077,N,10339.1185,E,4.41,27[2024/10/02, 13:23:30.489]0.11,021024,0.16,E,A*2D
$GPRMB,A,,,,,,,,,,,,V,A*1C
$GPGGA,052329,[2024/10/02, 13:23:30.630]0113.9077,N,10339.1185,E,1,19,0.64,7.62,M,9.63,M,,*47
$GPGSA,A,3,1[2024/10/02, 13:23:30.771]0,12,18,23,25,28,29,31,32,,,,1.29,0.64,1.12*07
$GPGSV,5,1,19,10,33[2024/10/02, 13:23:30.911],355,22,12,18,068,17,18,47,173,24,23,52,047,17*7F
$GPGSV,5,2,19,25[2024/10/02, 13:23:31.052],45,100,20,28,58,262,28,29,10,147,16,31,27,230,26*75
$GPGSV,5,3,19[2024/10/02, 13:23:31.192],32,23,331,23,,35,101,20,,42,148,27,,63,337,22*7F
$GPGSV,5,4,19,,5[2024/10/02, 13:23:31.333]8,036,17,,53,010,16,,57,353,22,,78,167,26*72
$GPGSV,5,5,19,,41,043[2024/10/02, 13:23:31.474],17,,28,266,26,,38,212,31*41
$GPGLL,0113.9077,N,10339.1185,E,05232[2024/10/02, 13:23:31.614]9,A,A*47
$GPBOD,,T,,M,,*47
$GPBWC,052329,,,,,,T,,M,,N,,A*74
$GP[2024/10/02, 13:23:31.755]VTG,270.11,T,269.95,M,4.41,N,8.17,K,A*28
$PGRME,12.56,M,17.03,M,21[2024/10/02, 13:23:31.895].16,M*2F
$PGRMZ,25,f,3*2C
$PGRMM,WGS 84*06
$HCHDM,,M*07
$WIMWV[2024/10/02, 13:23:32.036],,R,,,A*6D
$GPAPB,V,V,,,N,V,V,,,,,,,,N*68
$GPZDA,052329,02,10,202[2024/10/02, 13:23:32.145]4,-08,00*65
[2024/10/02, 13:23:32.224]$GPRMC,052331,A,0113.9076,N,10339.1155,E,4.62,26[2024/10/02, 13:23:32.489]7.32,021024,0.16,E,A*2E
$GPRMB,A,,,,,,,,,,,,V,A*1C
$GPGGA,052331,[2024/10/02, 13:23:32.630]0113.9076,N,10339.1155,E,1,19,0.64,7.26,M,9.63,M,,*42
$GPGSA,A,3,1[2024/10/02, 13:23:32.770]0,12,18,23,25,28,29,31,32,,,,1.29,0.64,1.12*07
$GPGSV,5,1,19,10,3[2024/10/02, 13:23:32.911]3,355,24,12,18,068,16,18,47,173,25,23,52,047,19*77
$GPGSV,5,2,19,2[2024/10/02, 13:23:33.051]5,45,100,23,28,58,262,28,29,10,147,16,31,27,230,27*77
$GPGSV,5,3,19[2024/10/02, 13:23:33.192],32,23,331,24,,35,101,14,,42,148,27,,63,337,24*79
$GPGSV,5,4,19,,5[2024/10/02, 13:23:33.333]8,036,17,,53,010,20,,57,353,22,,78,167,24*75
$GPGSV,5,5,19,,41,043[2024/10/02, 13:23:33.473],15,,28,266,27,,38,212,32*41
$GPGLL,0113.9076,N,10339.1155,E,0523[2024/10/02, 13:23:33.614]31,A,A*42
$GPBOD,,T,,M,,*47
$GPBWC,052331,,,,,,T,,M,,N,,A*7D
$GP[2024/10/02, 13:23:33.754]VTG,267.32,T,267.16,M,4.62,N,8.56,K,A*2E
$PGRME,12.57,M,17.26,M,21[2024/10/02, 13:23:33.895].35,M*28
$PGRMZ,24,f,3*2D
$PGRMM,WGS 84*06
$HCHDM,,M*07
$WIMWV[2024/10/02, 13:23:34.036],,R,,,A*6D
$GPAPB,V,V,,,N,V,V,,,,,,,,N*68
$GPZDA,052331,02,10,20[2024/10/02, 13:23:34.145]24,-08,00*6C
[2024/10/02, 13:23:34.223]$GPRMC,052333,A,0113.9088,N,10339.1135,E,4.29,29[2024/10/02, 13:23:34.489]8.34,021024,0.16,E,A*22
$GPRMB,A,,,,,,,,,,,,V,A*1C
$GPGGA,052333[2024/10/02, 13:23:34.629],0113.9088,N,10339.1135,E,1,19,0.64,6.95,M,9.63,M,,*4E
$GPGSA,A,3,[2024/10/02, 13:23:34.770]10,12,18,23,25,28,29,31,32,,,,1.29,0.64,1.12*07
$GPGSV,5,1,19,10,3[2024/10/02, 13:23:34.910]3,355,23,12,18,068,14,18,47,173,24,23,52,047,21*78
$GPGSV,5,2,19,2[2024/10/02, 13:23:35.051]5,45,100,23,28,58,262,28,29,10,147,18,31,27,230,25*7B
$GPGSV,5,3,1[2024/10/02, 13:23:35.192]9,32,23,331,25,,35,101,14,,42,148,26,,63,337,22*7F
$GPGSV,5,4,19,,[2024/10/02, 13:23:35.332]58,036,15,,53,010,20,,56,353,22,,78,167,23*71
$GPGSV,5,5,19,,41,04[2024/10/02, 13:23:35.473]3,15,,28,266,26,,38,212,32*40
$GPGLL,0113.9088,N,10339.1135,E,0523[2024/10/02, 13:23:35.613]33,A,A*47
$GPBOD,,T,,M,,*47
$GPBWC,052333,,,,,,T,,M,,N,,A*7F
$GP[2024/10/02, 13:23:35.754]VTG,298.34,T,298.18,M,4.29,N,7.95,K,A*29
$PGRME,12.59,M,17.55,M,2[2024/10/02, 13:23:35.895]1.59,M*28
$PGRMZ,23,f,3*2A
$PGRMM,WGS 84*06
$HCHDM,,M*07
$WIMWV[2024/10/02, 13:23:36.035],,R,,,A*6D
$GPAPB,V,V,,,N,V,V,,,,,,,,N*68
$GPZDA,052333,02,10,20[2024/10/02, 13:23:36.144]24,-08,00*6E
[2024/10/02, 13:23:36.222]$GPRMC,052335,A,0113.9079,N,10339.1112,E,4.32,2[2024/10/02, 13:23:36.488]57.21,021024,0.16,E,A*22
$GPRMB,A,,,,,,,,,,,,V,A*1C
$GPGGA,052335[2024/10/02, 13:23:36.629],0113.9079,N,10339.1112,E,1,19,0.64,7.47,M,9.63,M,,*4D
$GPGSA,A,3,[2024/10/02, 13:23:36.769]10,12,18,23,25,28,29,31,32,,,,1.29,0.64,1.12*07
$GPGSV,5,1,19,10,3[2024/10/02, 13:23:36.910]3,355,23,12,18,068,14,18,47,173,22,23,52,047,19*75
$GPGSV,5,2,19,2[2024/10/02, 13:23:37.051]5,45,100,22,28,58,262,28,29,10,147,17,31,27,230,26*76
$GPGSV,5,3,1[2024/10/02, 13:23:37.191]9,32,23,331,24,,35,101,14,,42,148,26,,63,337,22*7E
$GPGSV,5,4,19,,[2024/10/02, 13:23:37.332]58,036,14,,53,010,19,,56,353,24,,78,167,26*79
$GPGSV,5,5,19,,41,04[2024/10/02, 13:23:37.472]3,14,,28,266,25,,38,212,32*42
$GPGLL,0113.9079,N,10339.1112,E,0523[2024/10/02, 13:23:37.613]35,A,A*4A
$GPBOD,,T,,M,,*47
$GPBWC,052335,,,,,,T,,M,,N,,A*79
$GP[2024/10/02, 13:23:37.753]VTG,257.21,T,257.05,M,4.32,N,8.00,K,A*28
$PGRME,12.61,M,17.83,M,2[2024/10/02, 13:23:37.894]1.84,M*28
$PGRMZ,24,f,3*2D
$PGRMM,WGS 84*06
$HCHDM,,M*07
$WIMW[2024/10/02, 13:23:38.035]V,,R,,,A*6D
$GPAPB,V,V,,,N,V,V,,,,,,,,N*68
$GPZDA,052335,02,10,20[2024/10/02, 13:23:38.144]24,-08,00*68
[2024/10/02, 13:23:38.222]$GPRMC,052337,A,0113.9087,N,10339.1088,E,4.33,2[2024/10/02, 13:23:38.488]84.32,021024,0.16,E,A*2E
$GPRMB,A,,,,,,,,,,,,V,A*1C
$GPGGA,052337[2024/10/02, 13:23:38.628],0113.9087,N,10339.1088,E,1,19,0.64,6.83,M,9.63,M,,*45
$GPGSA,A,3,[2024/10/02, 13:23:38.769]10,12,18,23,25,28,29,31,32,,,,1.29,0.64,1.12*07
$GPGSV,5,1,19,10,3[2024/10/02, 13:23:38.909]3,355,23,12,18,068,17,18,47,173,26,23,52,047,18*73
$GPGSV,5,2,19,2[2024/10/02, 13:23:39.050]5,45,100,20,28,58,262,28,29,10,147,19,31,27,230,25*79
$GPGSV,5,3,1[2024/10/02, 13:23:39.191]9,32,23,331,25,,35,101,15,,42,148,26,,63,337,24*78
$GPGSV,5,4,19,,[2024/10/02, 13:23:39.331]58,036,14,,53,010,19,,56,353,22,,78,167,24*7D
$GPGSV,5,5,19,,41,04[2024/10/02, 13:23:39.472]3,14,,28,266,26,,38,212,32*41
$GPGLL,0113.9087,N,10339.1088,E,052[2024/10/02, 13:23:39.612]337,A,A*4B
$GPBOD,,T,,M,,*47
$GPBWC,052337,,,,,,T,,M,,N,,A*7B
$G[2024/10/02, 13:23:39.753]PVTG,284.32,T,284.16,M,4.33,N,8.03,K,A*2A
$PGRME,12.63,M,18.03,M,2[2024/10/02, 13:23:39.894]2.01,M*23
$PGRMZ,22,f,3*2B
$PGRMM,WGS 84*06
$HCHDM,,M*07
$WIM[2024/10/02, 13:23:40.034]WV,,R,,,A*6D
$GPAPB,V,V,,,N,V,V,,,,,,,,N*68
$GPZDA,052337,02,10,2[2024/10/02, 13:23:40.144]024,-08,00*6A
[2024/10/02, 13:23:40.222]$GPRMC,052339,A,0113.9091,N,10339.1071,E,3.83,2[2024/10/02, 13:23:40.487]88.27,021024,0.16,E,A*25
$GPRMB,A,,,,,,,,,,,,V,A*1C
$GPGGA,052339[2024/10/02, 13:23:40.628],0113.9091,N,10339.1071,E,1,19,0.64,5.64,M,9.63,M,,*40
$GPGSA,A,3,[2024/10/02, 13:23:40.768]10,12,18,23,25,28,29,31,32,,,,1.29,0.64,1.12*07
$GPGSV,5,1,19,10,3[2024/10/02, 13:23:40.909]3,355,25,12,18,068,16,18,47,173,25,23,52,047,22*7E
$GPGSV,5,2,19,2[2024/10/02, 13:23:41.050]5,45,100,23,28,58,262,28,29,10,147,19,31,27,230,26*79
$GPGSV,5,3,1[2024/10/02, 13:23:41.190]9,32,23,331,25,,35,101,15,,42,148,26,,63,337,24*78
$GPGSV,5,4,19,,[2024/10/02, 13:23:41.331]58,036,14,,53,010,20,,56,353,23,,79,166,23*71
$GPGSV,5,5,19,,41,04[2024/10/02, 13:23:41.471]3,14,,28,266,26,,38,212,31*42
$GPGLL,0113.9091,N,10339.1071,E,052[2024/10/02, 13:23:41.612]339,A,A*44
$GPBOD,,T,,M,,*47
$GPBWC,052339,,,,,,T,,M,,N,,A*75
$G[2024/10/02, 13:23:41.753]PVTG,288.27,T,288.11,M,3.83,N,7.09,K,A*20
$PGRME,12.66,M,18.12,M,[2024/10/02, 13:23:41.893]22.11,M*27
$PGRMZ,18,f,3*22
$PGRMM,WGS 84*06
$HCHDM,,M*07
$WIMW[2024/10/02, 13:23:42.034]V,,R,,,A*6D
$GPAPB,V,V,,,N,V,V,,,,,,,,N*68
$GPZDA,052339,02,10,2[2024/10/02, 13:23:42.143]024,-08,00*64
[2024/10/02, 13:23:42.221]$GPRMC,052341,A,0113.9086,N,10339.1048,E,3.90,2[2024/10/02, 13:23:42.487]62.06,021024,0.16,E,A*23
$GPRMB,A,,,,,,,,,,,,V,A*1C
$GPGGA,05234[2024/10/02, 13:23:42.627]1,0113.9086,N,10339.1048,E,1,19,0.64,5.50,M,9.63,M,,*44
$GPGSA,A,3[2024/10/02, 13:23:42.768],10,12,18,23,25,28,29,31,32,,,,1.29,0.64,1.12*07
$GPGSV,5,1,19,10,[2024/10/02, 13:23:42.908]33,355,23,12,18,068,14,18,47,173,27,23,52,047,20*7A
$GPGSV,5,2,19,[2024/10/02, 13:23:43.049]25,45,100,20,28,58,262,28,29,10,147,18,31,27,230,25*78
$GPGSV,5,3,[2024/10/02, 13:23:43.190]19,32,23,331,26,,35,101,15,,42,148,26,,63,337,23*7C
$GPGSV,5,4,19,,[2024/10/02, 13:23:43.330]58,036,15,,53,010,19,,56,353,21,,79,166,25*7E
$GPGSV,5,5,19,,40,04[2024/10/02, 13:23:43.471]3,14,,28,266,26,,38,212,31*43
$GPGLL,0113.9086,N,10339.1048,E,052[2024/10/02, 13:23:43.611]341,A,A*47
$GPBOD,,T,,M,,*47
$GPBWC,052341,,,,,,T,,M,,N,,A*7A
$[2024/10/02, 13:23:43.752]GPVTG,262.06,T,261.90,M,3.90,N,7.22,K,A*22
$PGRME,12.68,M,18.35,M,[2024/10/02, 13:23:43.893]22.31,M*2E
$PGRMZ,18,f,3*22
$PGRMM,WGS 84*06
$HCHDM,,M*07
$WIM[2024/10/02, 13:23:44.033]WV,,R,,,A*6D
$GPAPB,V,V,,,N,V,V,,,,,,,,N*68
$GPZDA,052341,02,10,2[2024/10/02, 13:23:44.143]024,-08,00*6B
[2024/10/02, 13:23:44.221]$GPRMC,052343,A,0113.9091,N,10339.1027,E,4.10,2[2024/10/02, 13:23:44.486]76.46,021024,0.16,E,A*20
$GPRMB,A,,,,,,,,,,,,V,A*1C
$GPGGA,05234[2024/10/02, 13:23:44.617]3,0113.9091,N,10339.1027,E,1,19,0.64,4.88,M,9.63,M,,*4D
$GPGS[2024/10/02, 13:23:44.757]A,A,3,10,12,18,23,25,28,29,31,32,,,,1.29,0.64,1.12*07
$GPGSV,5,1,1[2024/10/02, 13:23:44.898]9,10,33,355,23,12,18,068,15,18,47,173,27,23,52,047,20*7B
$GPGSV,5,[2024/10/02, 13:23:45.038]2,19,25,45,100,21,28,58,262,28,29,10,147,20,31,27,230,27*70
$GPGSV,[2024/10/02, 13:23:45.179]5,3,19,32,23,331,26,,35,101,15,,42,148,27,,63,337,24*7A
$GPGSV,5,4[2024/10/02, 13:23:45.320],19,,58,036,15,,53,010,18,,56,353,22,,79,166,26*7F
$GPGSV,5,5,19,,[2024/10/02, 13:23:45.460]40,043,14,,28,266,27,,38,212,31*42
$GPGLL,0113.9091,N,10339.1027,[2024/10/02, 13:23:45.601]E,052343,A,A*4A
$GPBOD,,T,,M,,*47
$GPBWC,052343,,,,,,T,,M,,N,,A*7[2024/10/02, 13:23:45.741]8
$GPVTG,276.46,T,276.30,M,4.10,N,7.60,K,A*26
$PGRME,12.71,M,18.4[2024/10/02, 13:23:45.882]1,M,22.37,M*23
$PGRMZ,16,f,3*2C
$PGRMM,WGS 84*06
$HCHDM,,M*07
[2024/10/02, 13:23:46.023]$WIMWV,,R,,,A*6D
$GPAPB,V,V,,,N,V,V,,,,,,,,N*68
$GPZDA,052343,02[2024/10/02, 13:23:46.148],10,2024,-08,00*69
[2024/10/02, 13:23:46.226]$GPRMC,052345,A,0113.9092,N,10339.1007,E,4.09,276[2024/10/02, 13:23:46.491].20,021024,0.16,E,A*2F
$GPRMB,A,,,,,,,,,,,,V,A*1C
$GPGGA,052345,[2024/10/02, 13:23:46.632]0113.9092,N,10339.1007,E,1,19,0.64,3.71,M,9.63,M,,*4B
$GPGSA,A,3,1[2024/10/02, 13:23:46.772]0,12,18,23,25,28,29,31,32,,,,1.29,0.64,1.12*07
$GPGSV,5,1,19,10,33[2024/10/02, 13:23:46.913],355,25,12,18,068,15,18,47,173,28,23,52,047,23*71
$GPGSV,5,2,19,25[2024/10/02, 13:23:47.054],45,100,18,28,58,262,27,29,10,147,19,31,27,230,27*7F
$GPGSV,5,3,19[2024/10/02, 13:23:47.194],32,23,331,25,,35,101,15,,42,148,28,,63,337,25*77
$GPGSV,5,4,19,,5[2024/10/02, 13:23:47.335]8,036,15,,53,010,19,,56,353,22,,79,166,24*7C
$GPGSV,5,5,19,,40,043[2024/10/02, 13:23:47.475],14,,28,266,25,,38,211,30*42
$GPGLL,0113.9092,N,10339.1007,E,05234[2024/10/02, 13:23:47.616]5,A,A*4D
$GPBOD,,T,,M,,*47
$GPBWC,052345,,,,,,T,,M,,N,,A*7E
$GP[2024/10/02, 13:23:47.757]VTG,276.20,T,276.04,M,4.09,N,7.57,K,A*2D
$PGRME,12.74,M,18.52,M,22[2024/10/02, 13:23:47.897].47,M*23
$PGRMZ,12,f,3*28
$PGRMM,WGS 84*06
$HCHDM,,M*07
$WIMWV[2024/10/02, 13:23:48.038],,R,,,A*6D
$GPAPB,V,V,,,N,V,V,,,,,,,,N*68
$GPZDA,052345,02,10,202[2024/10/02, 13:23:48.147]4,-08,00*6F
[2024/10/02, 13:23:48.225]$GPRMC,052347,A,0113.9090,N,10339.0983,E,4.17,266[2024/10/02, 13:23:48.491].30,021024,0.16,E,A*24
$GPRMB,A,,,,,,,,,,,,V,A*1C
$GPGGA,052347,[2024/10/02, 13:23:48.631]0113.9090,N,10339.0983,E,1,19,0.64,3.98,M,9.63,M,,*48
$GPGSA,A,3,1[2024/10/02, 13:23:48.772]0,12,18,23,25,28,29,31,32,,,,1.29,0.64,1.12*07
$GPGSV,5,1,19,10,33[2024/10/02, 13:23:48.913],355,23,12,18,068,16,18,47,173,25,23,52,047,19*70
$GPGSV,5,2,19,25,[2024/10/02, 13:23:49.053]45,100,21,28,58,262,26,29,10,147,21,31,27,230,26*7E
$GPGSV,5,3,19[2024/10/02, 13:23:49.194],32,23,331,24,,35,101,15,,42,148,26,,63,337,22*7F
$GPGSV,5,4,19,,58[2024/10/02, 13:23:49.334],036,14,,53,010,20,,56,353,22,,79,166,25*76
$GPGSV,5,5,19,,40,043,[2024/10/02, 13:23:49.475]13,,28,266,26,,38,211,31*47
$GPGLL,0113.9090,N,10339.0983,E,05234[2024/10/02, 13:23:49.616]7,A,A*49
$GPBOD,,T,,M,,*47
$GPBWC,052347,,,,,,T,,M,,N,,A*7C
$GPV[2024/10/02, 13:23:49.756]TG,266.30,T,266.14,M,4.17,N,7.73,K,A*24
$PGRME,12.77,M,18.78,M,22.[2024/10/02, 13:23:49.897]71,M*2D
$PGRMZ,13,f,3*29
$PGRMM,WGS 84*06
$HCHDM,,M*07
$WIMWV,[2024/10/02, 13:23:50.037],R,,,A*6D
$GPAPB,V,V,,,N,V,V,,,,,,,,N*68
$GPZDA,052347,02,10,202[2024/10/02, 13:23:50.147]4,-08,00*6D
[2024/10/02, 13:23:50.225]$GPRMC,052349,A,0113.9095,N,10339.0964,E,4.00,281[2024/10/02, 13:23:50.490].06,021024,0.16,E,A*2C
$GPRMB,A,,,,,,,,,,,,V,A*1C
$GPGGA,052349,[2024/10/02, 13:23:50.631]0113.9095,N,10339.0964,E,1,19,0.64,3.39,M,9.63,M,,*41
$GPGSA,A,3,1[2024/10/02, 13:23:50.771]0,12,18,23,25,28,29,31,32,,,,1.29,0.64,1.12*07
$GPGSV,5,1,19,10,33[2024/10/02, 13:23:50.912],355,23,12,18,068,13,18,47,173,23,23,52,047,21*78
$GPGSV,5,2,19,25[2024/10/02, 13:23:51.053],45,100,21,28,58,262,28,29,10,147,19,31,27,230,27*7A
$GPGSV,5,3,19[2024/10/02, 13:23:51.193],32,23,331,24,,35,101,15,,42,148,27,,63,337,22*7E
$GPGSV,5,4,19,,5[2024/10/02, 13:23:51.334]8,036,13,,53,010,20,,56,353,23,,79,166,25*70
$GPGSV,5,5,19,,40,043[2024/10/02, 13:23:51.474],14,,28,266,26,,38,211,32*43
$GPGLL,0113.9095,N,10339.0964,E,05234[2024/10/02, 13:23:51.615]9,A,A*4B
$GPBOD,,T,,M,,*47
$GPBWC,052349,,,,,,T,,M,,N,,A*72
$GP[2024/10/02, 13:23:51.756]VTG,281.06,T,280.90,M,4.00,N,7.42,K,A*28
$PGRME,12.80,M,18.99,M,22[2024/10/02, 13:23:51.896].90,M*25
$PGRMZ,11,f,3*2B
$PGRMM,WGS 84*06
$HCHDM,,M*07
$WIMWV[2024/10/02, 13:23:52.037],,R,,,A*6D
$GPAPB,V,V,,,N,V,V,,,,,,,,N*68
$GPZDA,052349,02,10,202[2024/10/02, 13:23:52.146]4,-08,00*63
[2024/10/02, 13:23:52.224]$GPRMC,052351,A,0113.9092,N,10339.0942,E,3.91,26[2024/10/02, 13:23:52.490]5.96,021024,0.16,E,A*2A
$GPRMB,A,,,,,,,,,,,,V,A*1C
$GPGGA,052351,[2024/10/02, 13:23:52.630]0113.9092,N,10339.0942,E,1,19,0.64,3.59,M,9.63,M,,*4D
$GPGSA,A,3,1[2024/10/02, 13:23:52.771]0,12,18,23,25,28,29,31,32,,,,1.29,0.64,1.12*07
$GPGSV,5,1,19,10,33[2024/10/02, 13:23:52.912],355,24,12,18,068,17,18,47,173,26,23,52,047,21*7E
$GPGSV,5,2,19,25[2024/10/02, 13:23:53.052],45,100,21,28,58,262,26,29,10,147,17,31,27,230,24*79
$GPGSV,5,3,19[2024/10/02, 13:23:53.193],32,23,331,25,,35,101,23,,42,148,24,,63,337,24*7F
$GPGSV,5,4,19,,5[2024/10/02, 13:23:53.333]8,036,15,,53,010,20,,56,353,23,,79,166,24*77
$GPGSV,5,5,19,,40,043[2024/10/02, 13:23:53.478],16,,28,266,26,,38,211,32*41
$GPGLL,0113.9092,N,10339.0942,E,052351,[2024/10/02, 13:23:53.619]A,A*41
$GPBOD,,T,,M,,*47
$GPBWC,052351,,,,,,T,,M,,N,,A*7B
$GPVTG[2024/10/02, 13:23:53.759],265.96,T,265.80,M,3.91,N,7.23,K,A*29
$PGRME,12.83,M,19.28,M,23.1[2024/10/02, 13:23:53.900]6,M*22
$PGRMZ,12,f,3*28
$PGRMM,WGS 84*06
$HCHDM,,M*07
$WIMWV,[2024/10/02, 13:23:54.040],R,,,A*6D
$GPAPB,V,V,,,N,V,V,,,,,,,,N*68
$GPZDA,052351,02,10,2024[2024/10/02, 13:23:54.150],-08,00*6A
[2024/10/02, 13:23:54.228]$GPRMC,052353,A,0113.9101,N,10339.0921,E,3.84,289.[2024/10/02, 13:23:54.493]44,021024,0.16,E,A*2F
$GPRMB,A,,,,,,,,,,,,V,A*1C
$GPGGA,052353,01[2024/10/02, 13:23:54.634]13.9101,N,10339.0921,E,1,19,0.64,2.99,M,9.63,M,,*4C
$GPGSA,A,3,10,[2024/10/02, 13:23:54.775]12,18,23,25,28,29,31,32,,,,1.29,0.64,1.12*07
$GPGSV,5,1,19,10,33,3[2024/10/02, 13:23:54.915]55,24,12,18,068,16,18,47,173,24,23,52,047,20*7C
$GPGSV,5,2,19,25,4[2024/10/02, 13:23:55.056]5,100,22,28,58,262,28,29,10,147,17,31,27,230,27*77
$GPGSV,5,3,19,3[2024/10/02, 13:23:55.200]2,23,331,26,,35,101,22,,42,148,27,,63,337,23*79
$GPGSV,5,4,19,,58,03[2024/10/02, 13:23:55.341]6,17,,53,010,19,,56,353,25,,79,166,24*79
$GPGSV,5,5,19,,40,043,15,[2024/10/02, 13:23:55.481],28,266,24,,38,211,32*40
$GPGLL,0113.9101,N,10339.0921,E,052353,A[2024/10/02, 13:23:55.622],A*4D
$GPBOD,,T,,M,,*47
$GPBWC,052353,,,,,,T,,M,,N,,A*79
$GPVTG[2024/10/02, 13:23:55.762],289.44,T,289.28,M,3.84,N,7.11,K,A*21
$PGRME,12.87,M,19.45,M,23.32[2024/10/02, 13:23:55.903],M*2B
$PGRMZ,10,f,3*2A
$PGRMM,WGS 84*06
$HCHDM,,M*07
$WIMWV,,R[2024/10/02, 13:23:56.043],,,A*6D
$GPAPB,V,V,,,N,V,V,,,,,,,,N*68
$GPZDA,052353,02,10,2024,-[2024/10/02, 13:23:56.153]08,00*68
[2024/10/02, 13:23:56.231]$GPRMC,052355,A,0113.9108,N,10339.0907,E,3.46,295.38[2024/10/02, 13:23:56.496],021024,0.16,E,A*2C
$GPRMB,A,,,,,,,,,,,,V,A*1C
$GPGGA,052355,011[2024/10/02, 13:23:56.637]3.9108,N,10339.0907,E,1,19,0.64,1.38,M,9.63,M,,*4F
$GPGSA,A,3,10,1[2024/10/02, 13:23:56.777]2,18,23,25,28,29,31,32,,,,1.29,0.64,1.12*07
$GPGSV,5,1,19,10,33,35[2024/10/02, 13:23:56.918]5,23,12,18,068,19,18,47,173,26,23,52,047,16*73
$GPGSV,5,2,19,25,45[2024/10/02, 13:23:57.059],100,24,28,58,262,28,29,10,147,22,31,27,230,28*78
$GPGSV,5,3,19,32[2024/10/02, 13:23:57.199],23,331,23,,35,101,24,,42,148,27,,63,337,25*7C
$GPGSV,5,4,19,,58,0[2024/10/02, 13:23:57.340]36,17,,53,010,17,,56,353,24,,79,166,23*71
$GPGSV,5,5,19,,40,043,15[2024/10/02, 13:23:57.480],,28,266,25,,38,211,32*41
$GPGLL,0113.9108,N,10339.0907,E,052355,A[2024/10/02, 13:23:57.621],A*46
$GPBOD,,T,,M,,*47
$GPBWC,052355,,,,,,T,,M,,N,,A*7F
$GPVTG[2024/10/02, 13:23:57.762],295.38,T,295.21,M,3.46,N,6.41,K,A*29
$PGRME,12.90,M,19.42,M,23.31[2024/10/02, 13:23:57.902],M*29
$PGRMZ,5,f,3*1E
$PGRMM,WGS 84*06
$HCHDM,,M*07
$WIMWV,,R,[2024/10/02, 13:23:58.043],,A*6D
$GPAPB,V,V,,,N,V,V,,,,,,,,N*68
$GPZDA,052355,02,10,2024,-0[2024/10/02, 13:23:58.152]8,00*6E
[2024/10/02, 13:23:58.230]$GPRMC,052357,A,0113.9112,N,10339.0886,E,3.58,292.5[2024/10/02, 13:23:58.496]3,021024,0.16,E,A*28
$GPRMB,A,,,,,,,,,,,,V,A*1C
$GPGGA,052357,011[2024/10/02, 13:23:58.636]3.9112,N,10339.0886,E,1,19,0.64,0.71,M,9.63,M,,*42
$GPGSA,A,3,10,1[2024/10/02, 13:23:58.777]2,18,23,25,28,29,31,32,,,,1.29,0.64,1.12*07
$GPGSV,5,1,19,10,33,35[2024/10/02, 13:23:58.918]5,22,12,18,068,14,18,47,173,23,23,52,047,20*7F
$GPGSV,5,2,19,25,45[2024/10/02, 13:23:59.058],100,18,28,58,262,29,29,10,147,21,31,27,230,26*7B
$GPGSV,5,3,19,32[2024/10/02, 13:23:59.199],23,331,22,,35,101,24,,42,148,24,,63,337,23*78
$GPGSV,5,4,19,,58,0[2024/10/02, 13:23:59.339]36,16,,53,010,20,,56,353,21,,79,166,24*76
$GPGSV,5,5,19,,40,043,17[2024/10/02, 13:23:59.480],,28,266,26,,38,211,32*40
$GPGLL,0113.9112,N,10339.0886,E,052357,A[2024/10/02, 13:23:59.620],A*47
$GPBOD,,T,,M,,*47
$GPBWC,052357,,,,,,T,,M,,N,,A*7D
$GPVTG[2024/10/02, 13:23:59.761],292.53,T,292.37,M,3.58,N,6.63,K,A*2C
$PGRME,12.93,M,19.46,M,23.36[2024/10/02, 13:23:59.902],M*29
$PGRMZ,2,f,3*19
$PGRMM,WGS 84*06
$HCHDM,,M*07
$WIMWV,,R,[2024/10/02, 13:24:00.042],,A*6D
$GPAPB,V,V,,,N,V,V,,,,,,,,N*68
$GPZDA,052357,02,10,2024,-0[2024/10/02, 13:24:00.152]8,00*6C
[2024/10/02, 13:24:00.230]$GPRMC,052359,A,0113.9114,N,10339.0866,E,3.71,282.9[2024/10/02, 13:24:00.495]8,021024,0.16,E,A*23
$GPRMB,A,,,,,,,,,,,,V,A*1C
$GPGGA,052359,01[2024/10/02, 13:24:00.636]13.9114,N,10339.0866,E,1,19,0.64,-0.27,M,9.63,M,,*6A
$GPGSA,A,3,10[2024/10/02, 13:24:00.777],12,18,23,25,28,29,31,32,,,,1.29,0.64,1.12*07
$GPGSV,5,1,19,10,33,[2024/10/02, 13:24:00.917]355,24,12,18,068,14,18,47,173,26,23,52,047,19*76
$GPGSV,5,2,19,25,[2024/10/02, 13:24:01.058]45,100,22,28,58,262,28,29,10,147,19,31,27,230,26*78
$GPGSV,5,3,19,[2024/10/02, 13:24:01.198]32,23,331,24,,35,101,16,,42,148,27,,63,337,24*7B
$GPGSV,5,4,19,,58[2024/10/02, 13:24:01.339],036,14,,53,010,19,,56,353,23,,79,166,23*7B
$GPGSV,5,5,19,,40,043,[2024/10/02, 13:24:01.479]14,,28,266,26,,38,211,31*40
$GPGLL,0113.9114,N,10339.0866,E,052359[2024/10/02, 13:24:01.620],A,A*41
$GPBOD,,T,,M,,*47
$GPBWC,052359,,,,,,T,,M,,N,,A*73
$GPVT[2024/10/02, 13:24:01.761]G,282.98,T,282.82,M,3.71,N,6.87,K,A*24
$PGRME,12.95,M,19.44,M,23.[2024/10/02, 13:24:01.901]36,M*2D
$PGRMZ,-1,f,3*37
$PGRMM,WGS 84*06
$HCHDM,,M*07
$WIMWV,,[2024/10/02, 13:24:02.042]R,,,A*6D
$GPAPB,V,V,,,N,V,V,,,,,,,,N*68
$GPZDA,052359,02,10,2024[2024/10/02, 13:24:02.151],-08,00*62
[2024/10/02, 13:24:02.229]$GPRMC,052401,A,0113.9110,N,10339.0844,E,3.81,264.6[2024/10/02, 13:24:02.495]7,021024,0.16,E,A*2A
$GPRMB,A,,,,,,,,,,,,V,A*1C
$GPGGA,052401,01[2024/10/02, 13:24:02.635]13.9110,N,10339.0844,E,1,19,0.64,-0.75,M,9.63,M,,*63
$GPGSA,A,3,10[2024/10/02, 13:24:02.776],12,18,23,25,28,29,31,32,,,,1.29,0.64,1.12*07
$GPGSV,5,1,19,10,33,[2024/10/02, 13:24:02.917]355,25,12,18,068,16,18,47,173,24,23,52,047,19*77
$GPGSV,5,2,19,25,4[2024/10/02, 13:24:03.057]5,100,21,28,58,262,28,29,10,147,19,31,27,230,27*7A
$GPGSV,5,3,19,3[2024/10/02, 13:24:03.198]2,23,331,25,,35,101,15,,42,148,26,,63,337,24*78
$GPGSV,5,4,19,,58,[2024/10/02, 13:24:03.338]036,14,,53,010,20,,56,353,20,,79,166,23*72
$GPGSV,5,5,19,,40,043,1[2024/10/02, 13:24:03.479]4,,28,266,26,,38,211,32*43
$GPGLL,0113.9110,N,10339.0844,E,052401,[2024/10/02, 13:24:03.620]A,A*4F
$GPBOD,,T,,M,,*47
$GPBWC,052401,,,,,,T,,M,,N,,A*79
$GPVT[2024/10/02, 13:24:03.760]G,264.67,T,264.51,M,3.81,N,7.05,K,A*2E
$PGRME,12.98,M,19.58,M,23.4[2024/10/02, 13:24:03.901]9,M*25
$PGRMZ,-2,f,3*34
$PGRMM,WGS 84*06
$HCHDM,,M*07
$WIMWV,,[2024/10/02, 13:24:04.041]R,,,A*6D
$GPAPB,V,V,,,N,V,V,,,,,,,,N*68
$GPZDA,052401,02,10,2024[2024/10/02, 13:24:04.151],-08,00*68
[2024/10/02, 13:24:04.229]$GPRMC,052403,A,0113.9118,N,10339.0826,E,3.86,292.7[2024/10/02, 13:24:04.494]3,021024,0.16,E,A*2F
$GPRMB,A,,,,,,,,,,,,V,A*1C
$GPGGA,052403,01[2024/10/02, 13:24:04.635]13.9118,N,10339.0826,E,1,19,0.64,-1.11,M,9.63,M,,*6E
$GPGSA,A,3,10[2024/10/02, 13:24:04.775],12,18,23,25,28,29,31,32,,,,1.29,0.64,1.12*07
$GPGSV,5,1,19,10,33,[2024/10/02, 13:24:04.916]355,22,12,18,068,14,18,47,173,26,23,52,047,19*70
$GPGSV,5,2,19,25,[2024/10/02, 13:24:05.057]45,100,24,28,58,262,28,29,10,147,17,31,27,230,27*71
$GPGSV,5,3,19,[2024/10/02, 13:24:05.197]32,23,331,22,,35,101,22,,42,148,26,,63,337,25*7A
$GPGSV,5,4,19,,58[2024/10/02, 13:24:05.338],036,14,,53,010,19,,56,353,23,,79,166,22*7A
$GPGSV,5,5,19,,40,043,[2024/10/02, 13:24:05.478]14,,28,266,26,,38,211,31*40
$GPGLL,0113.9118,N,10339.0826,E,052403[2024/10/02, 13:24:05.619],A,A*41
$GPBOD,,T,,M,,*47
$GPBWC,052403,,,,,,T,,M,,N,,A*7B
$GPVT[2024/10/02, 13:24:05.760]G,292.73,T,292.57,M,3.86,N,7.15,K,A*2B
$PGRME,13.00,M,19.69,M,23.6[2024/10/02, 13:24:05.900]0,M*2C
$PGRMZ,-4,f,3*32
$PGRMM,WGS 84*06
$HCHDM,,M*07
$WIMWV,,[2024/10/02, 13:24:06.041]R,,,A*6D
$GPAPB,V,V,,,N,V,V,,,,,,,,N*68
$GPZDA,052403,02,10,2024[2024/10/02, 13:24:06.150],-08,00*6A
[2024/10/02, 13:24:06.228]$GPRMC,052405,A,0113.9126,N,10339.0813,E,3.64,296.[2024/10/02, 13:24:06.494]62,021024,0.16,E,A*2A
$GPRMB,A,,,,,,,,,,,,V,A*1C
$GPGGA,052405,01[2024/10/02, 13:24:06.634]13.9126,N,10339.0813,E,1,19,0.64,-2.25,M,9.63,M,,*67
$GPGSA,A,3,10[2024/10/02, 13:24:06.775],12,18,23,25,28,29,31,32,,,,1.29,0.64,1.12*07
$GPGSV,5,1,19,10,33,[2024/10/02, 13:24:06.916]355,24,12,18,068,16,18,47,173,24,23,52,047,17*78
$GPGSV,5,2,19,25,[2024/10/02, 13:24:07.056]45,100,23,28,58,262,28,29,10,147,17,31,27,230,28*79
$GPGSV,5,3,19,[2024/10/02, 13:24:07.197]32,23,331,24,,35,101,22,,42,148,27,,63,337,23*7B
$GPGSV,5,4,19,,58[2024/10/02, 13:24:07.337],036,14,,53,010,19,,56,353,23,,79,166,22*7A
$GPGSV,5,5,19,,40,043,[2024/10/02, 13:24:07.478]15,,28,266,24,,38,211,32*40
$GPGLL,0113.9126,N,10339.0813,E,052405[2024/10/02, 13:24:07.619],A,A*4C
$GPBOD,,T,,M,,*47
$GPBWC,052405,,,,,,T,,M,,N,,A*7D
$GPV[2024/10/02, 13:24:07.759]TG,296.62,T,296.46,M,3.64,N,6.73,K,A*26
$PGRME,13.02,M,19.77,M,23.[2024/10/02, 13:24:07.912]67,M*26
$PGRMZ,-7,f,3*31
$PGRMM,WGS 84*06
$HCHDM,,M*07
$WIMWV,,R,,,A[2024/10/02, 13:24:08.052]*6D
$GPAPB,V,V,,,N,V,V,,,,,,,,N*68
$GPZDA,052405,02,10,2024,-08,[2024/10/02, 13:24:08.146]00*6C
[2024/10/02, 13:24:08.224]$GPRMC,052407,A,0113.9130,N,10339.0794,E,3.76,29[2024/10/02, 13:24:08.490]3.57,021024,0.16,E,A*2F
$GPRMB,A,,,,,,,,,,,,V,A*1C
$GPGGA,052407,[2024/10/02, 13:24:08.630]0113.9130,N,10339.0794,E,1,19,0.64,-2.96,M,9.63,M,,*6A
$GPGSA,A,3,[2024/10/02, 13:24:08.771]10,12,18,23,25,28,29,31,32,,,,1.29,0.64,1.12*07
$GPGSV,5,1,19,10,3[2024/10/02, 13:24:08.911]3,355,24,12,18,068,19,18,47,173,24,23,52,047,17*77
$GPGSV,5,2,19,2[2024/10/02, 13:24:09.052]5,45,100,21,28,58,262,26,29,10,147,17,31,27,230,29*74
$GPGSV,5,3,1[2024/10/02, 13:24:09.193]9,32,23,331,23,,35,101,23,,42,148,22,,63,337,24*7F
$GPGSV,5,4,19,,[2024/10/02, 13:24:09.333]58,036,18,,53,010,18,,56,353,25,,79,166,23*70
$GPGSV,5,5,19,,40,04[2024/10/02, 13:24:09.474]3,19,,28,266,26,,38,211,32*4E
$GPGLL,0113.9130,N,10339.0794,E,0524[2024/10/02, 13:24:09.614]07,A,A*49
$GPBOD,,T,,M,,*47
$GPBWC,052407,,,,,,T,,M,,N,,A*7F
$G[2024/10/02, 13:24:09.755]PVTG,293.57,T,293.41,M,3.76,N,6.96,K,A*2F
$PGRME,13.05,M,19.95,M,2[2024/10/02, 13:24:09.896]3.84,M*20
$PGRMZ,-10,f,3*07
$PGRMM,WGS 84*06
$HCHDM,,M*07
$WIM[2024/10/02, 13:24:10.036]WV,,R,,,A*6D
$GPAPB,V,V,,,N,V,V,,,,,,,,N*68
$GPZDA,052407,02,10,2[2024/10/02, 13:24:10.161]024,-08,00*6E
[2024/10/02, 13:24:10.239]$GPRMC,052409,A,0113.9136,N,10339.0779,E,3.68,285.47,021[2024/10/02, 13:24:10.505]024,0.16,E,A*2D
$GPRMB,A,,,,,,,,,,,,V,A*1C
$GPGGA,052409,0113.91[2024/10/02, 13:24:10.645]36,N,10339.0779,E,1,19,0.64,-4.05,M,9.63,M,,*6D
$GPGSA,A,3,10,12,[2024/10/02, 13:24:10.786]18,23,25,28,29,31,32,,,,1.29,0.64,1.12*07
$GPGSV,5,1,19,10,33,355,[2024/10/02, 13:24:10.927]26,12,18,068,18,18,47,173,22,23,52,047,17*72
$GPGSV,5,2,19,25,45,1[2024/10/02, 13:24:11.067]00,22,28,58,262,28,29,10,147,14,31,27,230,29*7A
$GPGSV,5,3,19,32,2[2024/10/02, 13:24:11.208]3,331,25,,35,101,20,,42,148,25,,63,337,23*7A
$GPGSV,5,4,19,,58,036[2024/10/02, 13:24:11.348],18,,53,010,19,,56,353,24,,79,166,25*76
$GPGSV,5,5,19,,40,043,19,,[2024/10/02, 13:24:11.489]28,266,25,,38,211,33*4C
$GPGLL,0113.9136,N,10339.0779,E,052409,A,A[2024/10/02, 13:24:11.630]*42
$GPBOD,,T,,M,,*47
$GPBWC,052409,,,,,,T,,M,,N,,A*71
$GPVTG,2[2024/10/02, 13:24:11.770]85.47,T,285.31,M,3.68,N,6.82,K,A*23
$PGRME,13.07,M,20.10,M,23.97,M[2024/10/02, 13:24:11.911]*27
$PGRMZ,-13,f,3*04
$PGRMM,WGS 84*06
$HCHDM,,M*07
$WIMWV,,R,[2024/10/02, 13:24:12.051],,A*6D
$GPAPB,V,V,,,N,V,V,,,,,,,,N*68
$GPZDA,052409,02,10,2024,-0[2024/10/02, 13:24:12.161]8,00*60
[2024/10/02, 13:24:12.239]$GPRMC,052411,A,0113.9141,N,10339.0762,E,3.43,279.48,02[2024/10/02, 13:24:12.504]1024,0.16,E,A*2B
$GPRMB,A,,,,,,,,,,,,V,A*1C
$GPGGA,052411,0113.91[2024/10/02, 13:24:12.645]41,N,10339.0762,E,1,19,0.64,-4.99,M,9.63,M,,*6B
$GPGSA,A,3,10,12,1[2024/10/02, 13:24:12.785]8,23,25,28,29,31,32,,,,1.29,0.64,1.12*07
$GPGSV,5,1,19,10,33,355,2[2024/10/02, 13:24:12.926]1,12,18,067,20,18,47,173,26,23,52,047,16*74
$GPGSV,5,2,19,25,45,10[2024/10/02, 13:24:13.067]0,23,28,58,262,27,29,10,147,14,31,27,230,29*74
$GPGSV,5,3,19,32,23[2024/10/02, 13:24:13.207],331,25,,35,101,24,,42,148,26,,63,337,22*7C
$GPGSV,5,4,19,,58,036,[2024/10/02, 13:24:13.348]17,,53,010,17,,56,353,22,,79,166,23*77
$GPGSV,5,5,19,,40,043,17,,2[2024/10/02, 13:24:13.488]8,266,26,,38,211,33*41
$GPGLL,0113.9141,N,10339.0762,E,052411,A,A*[2024/10/02, 13:24:13.629]41
$GPBOD,,T,,M,,*47
$GPBWC,052411,,,,,,T,,M,,N,,A*78
$GPVTG,279[2024/10/02, 13:24:13.770].48,T,279.32,M,3.43,N,6.36,K,A*29
$PGRME,13.08,M,20.26,M,24.12,M*[2024/10/02, 13:24:13.910]27
$PGRMZ,-16,f,3*01
$PGRMM,WGS 84*06
$HCHDM,,M*07
$WIMWV,,R,,,[2024/10/02, 13:24:14.051]A*6D
$GPAPB,V,V,,,N,V,V,,,,,,,,N*68
$GPZDA,052411,02,10,2024,-08[2024/10/02, 13:24:14.145],00*69
[2024/10/02, 13:24:14.223]$GPRMC,052413,A,0113.9143,N,10339.0740,E,3.73,27[2024/10/02, 13:24:14.488]0.88,021024,0.16,E,A*2D
$GPRMB,A,,,,,,,,,,,,V,A*1C
$GPGGA,052413[2024/10/02, 13:24:14.629],0113.9143,N,10339.0740,E,1,19,0.64,-5.54,M,9.63,M,,*6B
$GPGSA,A,3[2024/10/02, 13:24:14.769],10,12,18,23,25,28,29,31,32,,,,1.29,0.64,1.12*07
$GPGSV,5,1,19,10[2024/10/02, 13:24:14.910],33,355,19,12,18,067,16,18,47,173,25,23,52,047,18*77
$GPGSV,5,2,19[2024/10/02, 13:24:15.051],25,45,100,21,28,58,262,28,29,10,147,16,31,27,230,26*74
$GPGSV,5,3[2024/10/02, 13:24:15.191],19,32,23,331,25,,35,101,24,,42,148,26,,63,337,23*7D
$GPGSV,5,4,19,[2024/10/02, 13:24:15.332],58,036,17,,53,010,18,,56,353,23,,79,166,24*7E
$GPGSV,5,5,19,,40,0[2024/10/02, 13:24:15.472]43,15,,28,266,25,,38,211,32*41
$GPGLL,0113.9143,N,10339.0740,E,052[2024/10/02, 13:24:15.613]413,A,A*41
$GPBOD,,T,,M,,*47
$GPBWC,052413,,,,,,T,,M,,N,,A*7A
$[2024/10/02, 13:24:15.754]GPVTG,270.88,T,270.72,M,3.73,N,6.91,K,A*2F
$PGRME,13.10,M,20.34,M,[2024/10/02, 13:24:15.894]24.20,M*2C
$PGRMZ,-18,f,3*0F
$PGRMM,WGS 84*06
$HCHDM,,M*07
$WI[2024/10/02, 13:24:16.035]MWV,,R,,,A*6D
$GPAPB,V,V,,,N,V,V,,,,,,,,N*68
$GPZDA,052413,02,10[2024/10/02, 13:24:16.160],2024,-08,00*6B
[2024/10/02, 13:24:16.238]$GPRMC,052415,A,0113.9148,N,10339.0722,E,3.68,273.00,02[2024/10/02, 13:24:16.503]1024,0.16,E,A*2D
$GPRMB,A,,,,,,,,,,,,V,A*1C
$GPGGA,052415,0113.91[2024/10/02, 13:24:16.644]48,N,10339.0722,E,1,19,0.64,-7.77,M,9.63,M,,*61
$GPGSA,A,3,10,12,[2024/10/02, 13:24:16.785]18,23,25,28,29,31,32,,,,1.29,0.64,1.12*07
$GPGSV,5,1,19,10,33,355,[2024/10/02, 13:24:16.925]23,12,18,067,16,18,47,173,24,23,52,047,19*7E
$GPGSV,5,2,19,25,45,1[2024/10/02, 13:24:17.066]00,21,28,58,262,28,29,10,147,16,31,27,230,26*74
$GPGSV,5,3,19,32,2[2024/10/02, 13:24:17.206]3,331,25,,35,101,17,,42,148,26,,63,337,23*7D
$GPGSV,5,4,19,,58,036[2024/10/02, 13:24:17.347],16,,53,010,18,,56,353,24,,79,166,24*78
$GPGSV,5,5,19,,40,043,15,,[2024/10/02, 13:24:17.487]28,266,27,,38,211,32*43
$GPGLL,0113.9148,N,10339.0722,E,052415,A,A[2024/10/02, 13:24:17.628]*48
$GPBOD,,T,,M,,*47
$GPBWC,052415,,,,,,T,,M,,N,,A*7C
$GPVTG,27[2024/10/02, 13:24:17.769]3.00,T,272.83,M,3.68,N,6.81,K,A*2B
$PGRME,13.11,M,20.20,M,24.08,M[2024/10/02, 13:24:17.909]*22
$PGRMZ,-26,f,3*02
$PGRMM,WGS 84*06
$HCHDM,,M*07
$WIMWV,,R,,[2024/10/02, 13:24:18.050],A*6D
$GPAPB,V,V,,,N,V,V,,,,,,,,N*68
$GPZDA,052415,02,10,2024,-0[2024/10/02, 13:24:18.159]8,00*6D
[2024/10/02, 13:24:18.237]$GPRMC,052417,A,0113.9149,N,10339.0702,E,3.74,269.54,02[2024/10/02, 13:24:18.503]1024,0.16,E,A*2B
$GPRMB,A,,,,,,,,,,,,V,A*1C
$GPGGA,052417,0113.9[2024/10/02, 13:24:18.643]149,N,10339.0702,E,1,19,0.64,-8.53,M,9.63,M,,*69
$GPGSA,A,3,10,12,[2024/10/02, 13:24:18.784]18,23,25,28,29,31,32,,,,1.29,0.64,1.12*07
$GPGSV,5,1,19,10,33,355,[2024/10/02, 13:24:18.925]23,12,18,067,18,18,47,172,25,23,52,047,18*71
$GPGSV,5,2,19,25,45,10[2024/10/02, 13:24:19.065]0,23,28,58,262,27,29,10,147,19,31,27,230,24*74
$GPGSV,5,3,19,32,23[2024/10/02, 13:24:19.206],331,24,,35,101,19,,42,148,27,,63,337,23*73
$GPGSV,5,4,19,,58,036,[2024/10/02, 13:24:19.346]16,,53,010,20,,56,353,22,,79,166,22*73
$GPGSV,5,5,19,,40,043,15,,2[2024/10/02, 13:24:19.487]8,266,26,,38,211,32*42
$GPGLL,0113.9149,N,10339.0702,E,052417,A,A[2024/10/02, 13:24:19.628]*49
$GPBOD,,T,,M,,*47
$GPBWC,052417,,,,,,T,,M,,N,,A*7E
$GPVTG,26[2024/10/02, 13:24:19.768]9.54,T,269.37,M,3.74,N,6.92,K,A*2B
$PGRME,13.12,M,20.17,M,24.07,M*[2024/10/02, 13:24:19.909]2A
$PGRMZ,-28,f,3*0C
$PGRMM,WGS 84*06
$HCHDM,,M*07
$WIMWV,,R,,[2024/10/02, 13:24:20.049],A*6D
$GPAPB,V,V,,,N,V,V,,,,,,,,N*68
$GPZDA,052417,02,10,2024,-0[2024/10/02, 13:24:20.159]8,00*6F
[2024/10/02, 13:24:20.237]$GPRMC,052419,A,0113.9149,N,10339.0676,E,4.13,269.53,02[2024/10/02, 13:24:20.502]1024,0.16,E,A*26
$GPRMB,A,,,,,,,,,,,,V,A*1C
$GPGGA,052419,0113.9[2024/10/02, 13:24:20.643]149,N,10339.0676,E,1,19,0.64,-8.85,M,9.63,M,,*6E
$GPGSA,A,3,10,12,[2024/10/02, 13:24:20.784]18,23,25,28,29,31,32,,,,1.29,0.64,1.12*07
$GPGSV,5,1,19,10,33,355,[2024/10/02, 13:24:20.924]24,12,18,067,14,18,47,172,25,23,52,047,19*7B
$GPGSV,5,2,19,25,45,1[2024/10/02, 13:24:21.065]00,21,28,58,262,28,29,10,147,17,31,27,230,27*74
$GPGSV,5,3,19,32,2[2024/10/02, 13:24:21.205]3,331,22,,35,101,19,,42,148,27,,63,337,23*75
$GPGSV,5,4,19,,58,036[2024/10/02, 13:24:21.346],17,,53,010,19,,56,353,24,,79,166,23*7F
$GPGSV,5,5,19,,40,043,14,,[2024/10/02, 13:24:21.487]28,266,24,,38,211,32*41
$GPGLL,0113.9149,N,10339.0676,E,052419,A,A[2024/10/02, 13:24:21.627]*45
$GPBOD,,T,,M,,*47
$GPBWC,052419,,,,,,T,,M,,N,,A*70
$GPVTG,26[2024/10/02, 13:24:21.768]9.53,T,269.37,M,4.13,N,7.64,K,A*22
$PGRME,13.14,M,20.29,M,24.17,M*[2024/10/02, 13:24:21.908]20
$PGRMZ,-29,f,3*0D
$PGRMM,WGS 84*06
$HCHDM,,M*07
$WIMWV,,R,,[2024/10/02, 13:24:22.049],A*6D
$GPAPB,V,V,,,N,V,V,,,,,,,,N*68
$GPZDA,052419,02,10,2024,-0[2024/10/02, 13:24:22.158]8,00*61
[2024/10/02, 13:24:22.236]$GPRMC,052421,A,0113.9160,N,10339.0658,E,4.01,291.93,0[2024/10/02, 13:24:22.502]21024,0.16,E,A*22
$GPRMB,A,,,,,,,,,,,,V,A*1C
$GPGGA,052421,0113.9[2024/10/02, 13:24:22.643]160,N,10339.0658,E,1,19,0.64,-9.73,M,9.63,M,,*6A
$GPGSA,A,3,10,12,[2024/10/02, 13:24:22.783]18,23,25,28,29,31,32,,,,1.29,0.64,1.12*07
$GPGSV,5,1,19,10,33,355,[2024/10/02, 13:24:22.924]24,12,18,067,19,18,47,172,23,23,52,048,17*71
$GPGSV,5,2,19,25,45,1[2024/10/02, 13:24:23.064]00,22,28,58,262,28,29,10,147,16,31,27,230,27*76
$GPGSV,5,3,19,32,2[2024/10/02, 13:24:23.205]3,331,24,,35,101,23,,42,148,26,,63,337,23*7B
$GPGSV,5,4,19,,58,036[2024/10/02, 13:24:23.345],16,,53,010,18,,56,353,23,,79,166,24*7F
$GPGSV,5,5,19,,40,043,17,,[2024/10/02, 13:24:23.486]28,266,24,,38,211,32*42
$GPGLL,0113.9160,N,10339.0658,E,052421,A,A[2024/10/02, 13:24:23.627]*49
$GPBOD,,T,,M,,*47
$GPBWC,052421,,,,,,T,,M,,N,,A*7B
$GPVTG,2[2024/10/02, 13:24:23.767]91.93,T,291.77,M,4.01,N,7.43,K,A*2C
$PGRME,13.16,M,20.42,M,24.29,M[2024/10/02, 13:24:23.908]*22
$PGRMZ,-32,f,3*07
$PGRMM,WGS 84*06
$HCHDM,,M*07
$WIMWV,,R,[2024/10/02, 13:24:24.048],,A*6D
$GPAPB,V,V,,,N,V,V,,,,,,,,N*68
$GPZDA,052421,02,10,2024,-0[2024/10/02, 13:24:24.158]8,00*6A
[2024/10/02, 13:24:24.236]$GPRMC,052423,A,0113.9160,N,10339.0638,E,4.01,268.65,0[2024/10/02, 13:24:24.501]21024,0.16,E,A*29
$GPRMB,A,,,,,,,,,,,,V,A*1C
$GPGGA,052423,0113.9[2024/10/02, 13:24:24.642]160,N,10339.0638,E,1,19,0.64,-10.13,M,9.63,M,,*50
$GPGSA,A,3,10,1[2024/10/02, 13:24:24.783]2,18,23,25,28,29,31,32,,,,1.29,0.64,1.12*07
$GPGSV,5,1,19,10,33,35[2024/10/02, 13:24:24.923]5,22,12,18,067,20,18,47,172,25,23,52,048,17*7B
$GPGSV,5,2,19,25,45[2024/10/02, 13:24:25.064],099,23,28,58,262,27,29,10,147,16,31,27,230,27*79
$GPGSV,5,3,19,32[2024/10/02, 13:24:25.204],23,331,23,,35,101,20,,42,148,26,,63,337,23*7F
$GPGSV,5,4,19,,58,0[2024/10/02, 13:24:25.345]36,16,,53,010,16,,56,353,23,,79,166,23*76
$GPGSV,5,5,19,,40,043,16[2024/10/02, 13:24:25.486],,28,266,25,,38,211,32*42
$GPGLL,0113.9160,N,10339.0638,E,052423,A[2024/10/02, 13:24:25.626],A*4D
$GPBOD,,T,,M,,*47
$GPBWC,052423,,,,,,T,,M,,N,,A*79
$GPVTG[2024/10/02, 13:24:25.767],268.65,T,268.49,M,4.01,N,7.42,K,A*29
$PGRME,13.17,M,20.42,M,24.30[2024/10/02, 13:24:25.907],M*2B
$PGRMZ,-33,f,3*06
$PGRMM,WGS 84*06
$HCHDM,,M*07
$WIMWV,,[2024/10/02, 13:24:26.048]R,,,A*6D
$GPAPB,V,V,,,N,V,V,,,,,,,,N*68
$GPZDA,052423,02,10,2024[2024/10/02, 13:24:26.157],-08,00*68
[2024/10/02, 13:24:26.235]$GPRMC,052425,A,0113.9169,N,10339.0616,E,4.11,290.06,0[2024/10/02, 13:24:26.501]21024,0.16,E,A*29
$GPRMB,A,,,,,,,,,,,,V,A*1C
$GPGGA,052425,0113.9[2024/10/02, 13:24:26.642]169,N,10339.0616,E,1,19,0.64,-10.41,M,9.63,M,,*54
$GPGSA,A,3,10,1[2024/10/02, 13:24:26.782]2,18,23,25,28,29,31,32,,,,1.29,0.64,1.12*07
$GPGSV,5,1,19,10,33,35[2024/10/02, 13:24:26.923]5,21,12,18,067,21,18,47,172,24,23,52,048,19*76
$GPGSV,5,2,19,25,45[2024/10/02, 13:24:27.063],099,23,28,58,262,27,29,10,147,21,31,27,230,28*72
$GPGSV,5,3,19,32[2024/10/02, 13:24:27.204],23,331,23,,35,101,18,,42,148,26,,63,337,23*74
$GPGSV,5,4,19,,58,0[2024/10/02, 13:24:27.345]36,15,,53,010,19,,56,353,24,,79,166,22*7C
$GPGSV,5,5,19,,40,043,13[2024/10/02, 13:24:27.485],,28,266,26,,38,211,31*47
$GPGLL,0113.9169,N,10339.0616,E,052425,A[2024/10/02, 13:24:27.626],A*4E
$GPBOD,,T,,M,,*47
$GPBWC,052425,,,,,,T,,M,,N,,A*7F
$GPVTG,[2024/10/02, 13:24:27.766]290.06,T,289.90,M,4.11,N,7.61,K,A*20
$PGRME,13.18,M,20.35,M,24.25[2024/10/02, 13:24:27.907],M*20
$PGRMZ,-34,f,3*01
$PGRMM,WGS 84*06
$HCHDM,,M*07
$WIMWV,,R[2024/10/02, 13:24:28.047],,,A*6D
$GPAPB,V,V,,,N,V,V,,,,,,,,N*68
$GPZDA,052425,02,10,2024,[2024/10/02, 13:24:28.157]-08,00*6E
[2024/10/02, 13:24:28.235]$GPRMC,052427,A,0113.9171,N,10339.0596,E,3.70,276.66,0[2024/10/02, 13:24:28.501]21024,0.16,E,A*27
$GPRMB,A,,,,,,,,,,,,V,A*1C
$GPGGA,052427,0113.[2024/10/02, 13:24:28.641]9171,N,10339.0596,E,1,19,0.64,-10.94,M,9.63,M,,*5C
$GPGSA,A,3,10,1[2024/10/02, 13:24:28.782]2,18,23,25,28,29,31,32,,,,1.29,0.64,1.12*07
$GPGSV,5,1,19,10,33,35[2024/10/02, 13:24:28.923]5,24,12,18,067,18,18,47,172,25,23,52,048,20*72
$GPGSV,5,2,19,25,45[2024/10/02, 13:24:29.063],099,20,28,58,263,28,29,10,147,21,31,27,230,26*71
$GPGSV,5,3,19,32[2024/10/02, 13:24:29.204],23,331,23,,35,101,18,,42,148,26,,63,337,21*76
$GPGSV,5,4,19,,58,0[2024/10/02, 13:24:29.344]36,14,,53,010,20,,56,353,22,,79,166,24*77
$GPGSV,5,5,19,,40,043,13[2024/10/02, 13:24:29.485],,28,266,24,,38,211,32*46
$GPGLL,0113.9171,N,10339.0596,E,052427,A[2024/10/02, 13:24:29.625],A*4E
$GPBOD,,T,,M,,*47
$GPBWC,052427,,,,,,T,,M,,N,,A*7D
$GPVTG[2024/10/02, 13:24:29.766],276.66,T,276.50,M,3.70,N,6.86,K,A*2A
$PGRME,13.20,M,20.41,M,24.30[2024/10/02, 13:24:29.906],M*2C
$PGRMZ,-36,f,3*03
$PGRMM,WGS 84*06
$HCHDM,,M*07
$WIMWV,,[2024/10/02, 13:24:30.047]R,,,A*6D
$GPAPB,V,V,,,N,V,V,,,,,,,,N*68
$GPZDA,052427,02,10,2024[2024/10/02, 13:24:30.156],-08,00*6C
[2024/10/02, 13:24:30.234]$GPRMC,052429,A,0113.9173,N,10339.0574,E,3.78,271.68,[2024/10/02, 13:24:30.500]021024,0.16,E,A*26
$GPRMB,A,,,,,,,,,,,,V,A*1C
$GPGGA,052429,0113.[2024/10/02, 13:24:30.641]9173,N,10339.0574,E,1,19,0.64,-10.81,M,9.63,M,,*58
$GPGSA,A,3,10,1[2024/10/02, 13:24:30.781]2,18,23,25,28,29,31,32,,,,1.29,0.64,1.12*07
$GPGSV,5,1,19,10,33,35[2024/10/02, 13:24:30.922]5,24,12,18,067,18,18,47,172,26,23,52,048,21*70
$GPGSV,5,2,19,25,45[2024/10/02, 13:24:31.062],099,25,28,58,263,26,29,10,147,18,31,27,231,24*73
$GPGSV,5,3,19,32[2024/10/02, 13:24:31.203],23,331,24,,35,101,17,,42,148,26,,63,337,22*7D
$GPGSV,5,4,19,,58,0[2024/10/02, 13:24:31.344]36,14,,53,010,17,,56,353,23,,79,166,23*75
$GPGSV,5,5,19,,40,043,14[2024/10/02, 13:24:31.484],,28,266,27,,38,211,31*41
$GPGLL,0113.9173,N,10339.0574,E,052429,A[2024/10/02, 13:24:31.625],A*4E
$GPBOD,,T,,M,,*47
$GPBWC,052429,,,,,,T,,M,,N,,A*73
$GPVTG[2024/10/02, 13:24:31.765],271.68,T,271.52,M,3.78,N,7.01,K,A*20
$PGRME,13.21,M,20.53,M,24.4[2024/10/02, 13:24:31.906]1,M*28
$PGRMZ,-35,f,3*00
$PGRMM,WGS 84*06
$HCHDM,,M*07
$WIMWV,,[2024/10/02, 13:24:32.047]R,,,A*6D
$GPAPB,V,V,,,N,V,V,,,,,,,,N*68
$GPZDA,052429,02,10,2024[2024/10/02, 13:24:32.156],-08,00*62
[2024/10/02, 13:24:32.234]$GPRMC,052431,A,0113.9182,N,10339.0552,E,3.74,291.12,[2024/10/02, 13:24:32.500]021024,0.16,E,A*2A
$GPRMB,A,,,,,,,,,,,,V,A*1C
$GPGGA,052431,0113.[2024/10/02, 13:24:32.640]9182,N,10339.0552,E,1,19,0.64,-11.63,M,9.63,M,,*56
$GPGSA,A,3,10,1[2024/10/02, 13:24:32.781]2,18,23,25,28,29,31,32,,,,1.29,0.64,1.12*07
$GPGSV,5,1,19,10,33,3[2024/10/02, 13:24:32.921]55,25,12,18,067,18,18,47,172,27,23,52,048,21*70
$GPGSV,5,2,19,25,45[2024/10/02, 13:24:33.062],099,25,28,58,263,27,29,10,147,20,31,27,231,26*7B
$GPGSV,5,3,19,32[2024/10/02, 13:24:33.203],23,331,27,,35,101,17,,42,148,27,,63,337,21*7C
$GPGSV,5,4,19,,58,0[2024/10/02, 13:24:33.343]36,14,,53,010,22,,56,353,22,,79,166,26*77
$GPGSV,5,5,19,,40,043,14[2024/10/02, 13:24:33.484],,28,266,27,,38,211,31*41
$GPGLL,0113.9182,N,10339.0552,E,052431,A[2024/10/02, 13:24:33.624],A*4D
$GPBOD,,T,,M,,*47
$GPBWC,052431,,,,,,T,,M,,N,,A*7A
$GPVTG[2024/10/02, 13:24:33.765],291.12,T,290.96,M,3.74,N,6.92,K,A*23
$PGRME,13.23,M,20.42,M,24.33[2024/10/02, 13:24:33.905],M*2F
$PGRMZ,-38,f,3*0D
$PGRMM,WGS 84*06
$HCHDM,,M*07
$WIMWV,,[2024/10/02, 13:24:34.046]R,,,A*6D
$GPAPB,V,V,,,N,V,V,,,,,,,,N*68
$GPZDA,052431,02,10,2024[2024/10/02, 13:24:34.155],-08,00*6B
[2024/10/02, 13:24:34.234]$GPRMC,052433,A,0113.9179,N,10339.0529,E,3.68,269.80,[2024/10/02, 13:24:34.499]021024,0.16,E,A*21
$GPRMB,A,,,,,,,,,,,,V,A*1C
$GPGGA,052433,0113.[2024/10/02, 13:24:34.640]9179,N,10339.0529,E,1,19,0.64,-11.68,M,9.63,M,,*57
$GPGSA,A,3,10,[2024/10/02, 13:24:34.780]12,18,23,25,28,29,31,32,,,,1.29,0.64,1.12*07
$GPGSV,5,1,19,10,33,3[2024/10/02, 13:24:34.921]55,23,12,18,067,16,18,47,172,28,23,52,048,21*77
$GPGSV,5,2,19,25,4[2024/10/02, 13:24:35.061]5,099,20,28,58,263,26,29,10,147,24,31,27,231,26*7B
$GPGSV,5,3,19,3[2024/10/02, 13:24:35.202]2,23,331,24,,35,101,15,,42,148,27,,63,337,23*7F
$GPGSV,5,4,19,,58,[2024/10/02, 13:24:35.343]036,15,,53,010,18,,56,353,23,,79,166,25*7D
$GPGSV,5,5,19,,40,043,14[2024/10/02, 13:24:35.483],,28,266,27,,38,211,28*49
$GPGLL,0113.9179,N,10339.0529,E,052433,[2024/10/02, 13:24:35.624]A,A*47
$GPBOD,,T,,M,,*47
$GPBWC,052433,,,,,,T,,M,,N,,A*78
$GPVTG[2024/10/02, 13:24:35.764],269.80,T,269.64,M,3.68,N,6.81,K,A*2B
$PGRME,13.24,M,20.31,M,24.24[2024/10/02, 13:24:35.905],M*2A
$PGRMZ,-38,f,3*0D
$PGRMM,WGS 84*06
$HCHDM,,M*07
$WIMWV,,[2024/10/02, 13:24:36.046]R,,,A*6D
$GPAPB,V,V,,,N,V,V,,,,,,,,N*68
$GPZDA,052433,02,10,2024[2024/10/02, 13:24:36.155],-08,00*69
[2024/10/02, 13:24:36.233]$GPRMC,052435,A,0113.9183,N,10339.0508,E,3.85,285.01,[2024/10/02, 13:24:36.499]021024,0.16,E,A*29
$GPRMB,A,,,,,,,,,,,,V,A*1C
$GPGGA,052435,0113.[2024/10/02, 13:24:36.639]9183,N,10339.0508,E,1,19,0.64,-10.86,M,9.63,M,,*56
$GPGSA,A,3,10,[2024/10/02, 13:24:36.780]12,18,23,25,28,29,31,32,,,,1.29,0.64,1.12*07
$GPGSV,5,1,19,10,33,3[2024/10/02, 13:24:36.920]55,22,12,18,067,16,18,47,172,26,23,52,048,19*73
$GPGSV,5,2,19,25,4[2024/10/02, 13:24:37.061]5,099,21,28,58,263,27,29,10,147,18,31,27,231,24*76
$GPGSV,5,3,19,3[2024/10/02, 13:24:37.202]2,23,331,24,,35,101,15,,42,148,26,,63,337,22*7F
$GPGSV,5,4,19,,58,[2024/10/02, 13:24:37.342]036,16,,53,010,20,,56,353,22,,79,166,23*72
$GPGSV,5,5,19,,40,043,1[2024/10/02, 13:24:37.483]4,,28,266,27,,38,211,29*48
$GPGLL,0113.9183,N,10339.0508,E,052435,[2024/10/02, 13:24:37.623]A,A*47
$GPBOD,,T,,M,,*47
$GPBWC,052435,,,,,,T,,M,,N,,A*7E
$GPVTG[2024/10/02, 13:24:37.764],285.01,T,284.85,M,3.85,N,7.14,K,A*22
$PGRME,13.25,M,20.33,M,24.2[2024/10/02, 13:24:37.905]7,M*2A
$PGRMZ,-36,f,3*03
$PGRMM,WGS 84*06
$HCHDM,,M*07
$WIMWV,,[2024/10/02, 13:24:38.045]R,,,A*6D
$GPAPB,V,V,,,N,V,V,,,,,,,,N*68
$GPZDA,052435,02,10,2024[2024/10/02, 13:24:38.154],-08,00*6F
[2024/10/02, 13:24:38.233]$GPRMC,052437,A,0113.9188,N,10339.0489,E,3.79,291.05,[2024/10/02, 13:24:38.498]021024,0.16,E,A*2A
$GPRMB,A,,,,,,,,,,,,V,A*1C
$GPGGA,052437,0113[2024/10/02, 13:24:38.639].9188,N,10339.0489,E,1,19,0.64,-11.16,M,9.63,M,,*5F
$GPGSA,A,3,10,[2024/10/02, 13:24:38.779]12,18,23,25,28,29,31,32,,,,1.29,0.64,1.12*07
$GPGSV,5,1,19,10,33,3[2024/10/02, 13:24:38.920]55,24,12,18,067,18,18,47,172,26,23,52,048,20*71
$GPGSV,5,2,19,25,4[2024/10/02, 13:24:39.061]5,099,22,28,58,263,28,29,10,147,18,31,27,231,25*7B
$GPGSV,5,3,19,3[2024/10/02, 13:24:39.201]2,23,331,25,,35,101,15,,42,148,25,,63,337,22*7D
$GPGSV,5,4,19,,58,[2024/10/02, 13:24:39.342]036,15,,53,010,19,,56,353,22,,79,166,24*7C
$GPGSV,5,5,19,,40,043,1[2024/10/02, 13:24:39.482]4,,28,266,27,,38,211,30*40
$GPGLL,0113.9188,N,10339.0489,E,052437,[2024/10/02, 13:24:39.623]A,A*46
$GPBOD,,T,,M,,*47
$GPBWC,052437,,,,,,T,,M,,N,,A*7C
$GPVT[2024/10/02, 13:24:39.763]G,291.05,T,290.89,M,3.79,N,7.03,K,A*2F
$PGRME,13.27,M,20.40,M,24.3[2024/10/02, 13:24:39.904]3,M*29
$PGRMZ,-37,f,3*02
$PGRMM,WGS 84*06
$HCHDM,,M*07
$WIMWV,[2024/10/02, 13:24:40.045],R,,,A*6D
$GPAPB,V,V,,,N,V,V,,,,,,,,N*68
$GPZDA,052437,02,10,2024[2024/10/02, 13:24:40.154],-08,00*6D
[2024/10/02, 13:24:40.232]$GPRMC,052439,A,0113.9185,N,10339.0468,E,3.82,272.46[2024/10/02, 13:24:40.498],021024,0.16,E,A*28
$GPRMB,A,,,,,,,,,,,,V,A*1C
$GPGGA,052439,0113[2024/10/02, 13:24:40.638].9185,N,10339.0468,E,1,19,0.64,-11.42,M,9.63,M,,*52
$GPGSA,A,3,10,[2024/10/02, 13:24:40.779]12,18,23,25,28,29,31,32,,,,1.29,0.64,1.12*07
$GPGSV,5,1,19,10,33,3[2024/10/02, 13:24:40.919]55,25,12,18,067,18,18,47,172,26,23,52,048,20*70
$GPGSV,5,2,19,25,4[2024/10/02, 13:24:41.060]5,099,22,28,58,263,27,29,10,147,18,31,27,231,24*75
$GPGSV,5,3,19,3[2024/10/02, 13:24:41.201]2,23,331,24,,35,101,16,,42,148,27,,62,337,24*7A
$GPGSV,5,4,19,,58,[2024/10/02, 13:24:41.341]036,14,,53,010,19,,56,353,24,,79,166,24*7B
$GPGSV,5,5,19,,40,043,1[2024/10/02, 13:24:41.482]3,,28,266,26,,38,211,31*47
$GPGLL,0113.9185,N,10339.0468,E,052439,[2024/10/02, 13:24:41.623]A,A*4A
$GPBOD,,T,,M,,*47
$GPBWC,052439,,,,,,T,,M,,N,,A*72
$GPVT[2024/10/02, 13:24:41.763]G,272.46,T,272.30,M,3.82,N,7.07,K,A*2B
$PGRME,13.28,M,20.32,M,24.2[2024/10/02, 13:24:41.904]8,M*29
$PGRMZ,-37,f,3*02
$PGRMM,WGS 84*06
$HCHDM,,M*07
$WIMWV,[2024/10/02, 13:24:42.044],R,,,A*6D
$GPAPB,V,V,,,N,V,V,,,,,,,,N*68
$GPZDA,052439,02,10,2024[2024/10/02, 13:24:42.154],-08,00*63
[2024/10/02, 13:24:42.232]$GPRMC,052441,A,0113.9185,N,10339.0444,E,4.15,268.78[2024/10/02, 13:24:42.497],021024,0.16,E,A*26
$GPRMB,A,,,,,,,,,,,,V,A*1C
$GPGGA,052441,0113[2024/10/02, 13:24:42.638].9185,N,10339.0444,E,1,19,0.64,-11.37,M,9.63,M,,*51
$GPGSA,A,3,10,[2024/10/02, 13:24:42.778]12,18,23,25,28,29,31,32,,,,1.29,0.64,1.12*07
$GPGSV,5,1,19,10,33,[2024/10/02, 13:24:42.919]355,25,12,18,067,16,18,47,172,26,23,52,048,24*7A
$GPGSV,5,2,19,25,4[2024/10/02, 13:24:43.060]5,099,24,28,58,263,27,29,10,147,21,31,27,231,25*78
$GPGSV,5,3,19,3[2024/10/02, 13:24:43.200]2,23,331,25,,35,101,16,,42,148,25,,62,337,24*79
$GPGSV,5,4,19,,59,[2024/10/02, 13:24:43.341]036,14,,53,010,20,,56,353,23,,79,166,25*76
$GPGSV,5,5,19,,40,043,1[2024/10/02, 13:24:43.481]4,,28,266,26,,38,211,31*40
$GPGLL,0113.9185,N,10339.0444,E,052441,[2024/10/02, 13:24:43.622]A,A*4B
$GPBOD,,T,,M,,*47
$GPBWC,052441,,,,,,T,,M,,N,,A*7D
$GPVT[2024/10/02, 13:24:43.763]G,268.78,T,268.62,M,4.15,N,7.69,K,A*20
$PGRME,13.29,M,20.38,M,24.3[2024/10/02, 13:24:43.903]3,M*28
$PGRMZ,-37,f,3*02
$PGRMM,WGS 84*06
$HCHDM,,M*07
$WIMWV,[2024/10/02, 13:24:44.044],R,,,A*6D
$GPAPB,V,V,,,N,V,V,,,,,,,,N*68
$GPZDA,052441,02,10,2024[2024/10/02, 13:24:44.153],-08,00*6C
[2024/10/02, 13:24:44.231]$GPRMC,052443,A,0113.9191,N,10339.0427,E,4.04,286.88[2024/10/02, 13:24:44.497],021024,0.16,E,A*2B
$GPRMB,A,,,,,,,,,,,,V,A*1C
$GPGGA,052443,011[2024/10/02, 13:24:44.637]3.9191,N,10339.0427,E,1,19,0.64,-11.85,M,9.63,M,,*5A
$GPGSA,A,3,10[2024/10/02, 13:24:44.778],12,18,23,25,28,29,31,32,,,,1.29,0.64,1.12*07
$GPGSV,5,1,19,10,33,[2024/10/02, 13:24:44.919]355,22,12,18,067,15,18,47,172,27,23,52,048,20*7B
$GPGSV,5,2,19,25,[2024/10/02, 13:24:45.059]45,099,22,28,58,263,27,29,10,147,19,31,27,231,26*76
$GPGSV,5,3,19,[2024/10/02, 13:24:45.200]32,23,331,24,,35,101,15,,42,148,27,,62,337,24*79
$GPGSV,5,4,19,,59[2024/10/02, 13:24:45.340],036,14,,53,010,20,,56,353,22,,79,166,23*71
$GPGSV,5,5,19,,40,043,[2024/10/02, 13:24:45.481]14,,28,266,25,,38,211,31*43
$GPGLL,0113.9191,N,10339.0427,E,052443[2024/10/02, 13:24:45.621],A,A*49
$GPBOD,,T,,M,,*47
$GPBWC,052443,,,,,,T,,M,,N,,A*7F
$GPV[2024/10/02, 13:24:45.762]TG,286.88,T,286.72,M,4.04,N,7.48,K,A*2D
$PGRME,13.30,M,20.43,M,24.[2024/10/02, 13:24:45.903]38,M*27
$PGRMZ,-39,f,3*0C
$PGRMM,WGS 84*06
$HCHDM,,M*07
$WIMWV[2024/10/02, 13:24:46.043],,R,,,A*6D
$GPAPB,V,V,,,N,V,V,,,,,,,,N*68
$GPZDA,052443,02,10,20[2024/10/02, 13:24:46.153]24,-08,00*6E
[2024/10/02, 13:24:46.231]$GPRMC,052445,A,0113.9187,N,10339.0408,E,4.01,266.55[2024/10/02, 13:24:46.496],021024,0.16,E,A*2C
$GPRMB,A,,,,,,,,,,,,V,A*1C
$GPGGA,052445,011[2024/10/02, 13:24:46.637]3.9187,N,10339.0408,E,1,19,0.64,-11.21,M,9.63,M,,*58
$GPGSA,A,3,10[2024/10/02, 13:24:46.777],12,18,23,25,28,29,31,32,,,,1.29,0.64,1.12*07
$GPGSV,5,1,19,10,33,[2024/10/02, 13:24:46.918]355,24,12,18,067,15,18,47,172,28,23,52,048,20*72
$GPGSV,5,2,19,25,[2024/10/02, 13:24:47.059]45,099,21,28,58,263,27,29,10,147,19,31,27,231,24*77
$GPGSV,5,3,19,[2024/10/02, 13:24:47.199]32,23,331,25,,35,101,15,,42,148,27,,62,337,24*78
$GPGSV,5,4,19,,59[2024/10/02, 13:24:47.340],036,14,,53,010,19,,56,353,23,,79,166,26*7F
$GPGSV,5,5,19,,40,043,[2024/10/02, 13:24:47.480]14,,28,266,26,,38,211,31*40
$GPGLL,0113.9187,N,10339.0408,E,052445[2024/10/02, 13:24:47.621],A,A*45
$GPBOD,,T,,M,,*47
$GPBWC,052445,,,,,,T,,M,,N,,A*79
$GPV[2024/10/02, 13:24:47.762]TG,266.55,T,266.39,M,4.01,N,7.42,K,A*2D
$PGRME,13.31,M,20.78,M,24.[2024/10/02, 13:24:47.902]68,M*2B
$PGRMZ,-37,f,3*02
$PGRMM,WGS 84*06
$HCHDM,,M*07
$WIMWV[2024/10/02, 13:24:48.043],,R,,,A*6D
$GPAPB,V,V,,,N,V,V,,,,,,,,N*68
$GPZDA,052445,02,10,20[2024/10/02, 13:24:48.152]24,-08,00*68
[2024/10/02, 13:24:48.230]$GPRMC,052447,A,0113.9193,N,10339.0392,E,3.91,287.25[2024/10/02, 13:24:48.496],021024,0.16,E,A*29
$GPRMB,A,,,,,,,,,,,,V,A*1C
$GPGGA,052447,011[2024/10/02, 13:24:48.636]3.9193,N,10339.0392,E,1,19,0.64,-11.05,M,9.63,M,,*5D
$GPGSA,A,3,10[2024/10/02, 13:24:48.777],12,18,23,25,28,29,31,32,,,,1.29,0.64,1.12*07
$GPGSV,5,1,19,10,33,[2024/10/02, 13:24:48.918]355,25,12,18,067,17,18,47,172,27,23,52,048,19*74
$GPGSV,5,2,19,25,[2024/10/02, 13:24:49.058]45,099,22,28,58,263,27,29,10,147,22,31,27,231,25*7D
$GPGSV,5,3,19,[2024/10/02, 13:24:49.199]32,23,331,24,,35,101,15,,42,148,28,,62,337,23*71
$GPGSV,5,4,19,,59[2024/10/02, 13:24:49.339],036,14,,53,010,18,,56,353,23,,79,166,23*7B
$GPGSV,5,5,19,,40,043,[2024/10/02, 13:24:49.480]14,,28,266,26,,38,211,31*40
$GPGLL,0113.9193,N,10339.0392,E,052447[2024/10/02, 13:24:49.621],A,A*46
$GPBOD,,T,,M,,*47
$GPBWC,052447,,,,,,T,,M,,N,,A*7B
$GPV[2024/10/02, 13:24:49.761]TG,287.25,T,287.09,M,3.91,N,7.25,K,A*26
$PGRME,13.33,M,20.97,M,24.[2024/10/02, 13:24:49.902]85,M*2B
$PGRMZ,-36,f,3*03
$PGRMM,WGS 84*06
$HCHDM,,M*07
$WIMWV[2024/10/02, 13:24:50.042],,R,,,A*6D
$GPAPB,V,V,,,N,V,V,,,,,,,,N*68
$GPZDA,052447,02,10,20[2024/10/02, 13:24:50.152]24,-08,00*6A
[2024/10/02, 13:24:50.230]$GPRMC,052449,A,0113.9189,N,10339.0376,E,3.47,268.4[2024/10/02, 13:24:50.495]9,021024,0.16,E,A*26
$GPRMB,A,,,,,,,,,,,,V,A*1C
$GPGGA,052449,011[2024/10/02, 13:24:50.636]3.9189,N,10339.0376,E,1,19,0.64,-10.54,M,9.63,M,,*57
$GPGSA,A,3,10[2024/10/02, 13:24:50.776],12,18,23,25,28,29,31,32,,,,1.29,0.64,1.12*07
$GPGSV,5,1,19,10,33,[2024/10/02, 13:24:50.917]355,24,12,18,067,15,18,47,172,25,23,52,048,19*75
$GPGSV,5,2,19,25,[2024/10/02, 13:24:51.058]45,099,21,28,58,263,27,29,10,147,22,31,27,231,23*78
$GPGSV,5,3,19,[2024/10/02, 13:24:51.198]32,23,331,25,,35,101,15,,42,148,26,,62,337,23*7E
$GPGSV,5,4,19,,59[2024/10/02, 13:24:51.339],036,14,,53,010,21,,56,353,23,,79,166,22*70
$GPGSV,5,5,19,,40,043,[2024/10/02, 13:24:51.479]15,,28,266,24,,38,211,31*43
$GPGLL,0113.9189,N,10339.0376,E,052449[2024/10/02, 13:24:51.620],A,A*49
$GPBOD,,T,,M,,*47
$GPBWC,052449,,,,,,T,,M,,N,,A*75
$GPV[2024/10/02, 13:24:51.761]TG,268.49,T,268.33,M,3.47,N,6.42,K,A*2E
$PGRME,13.35,M,21.14,M,25.[2024/10/02, 13:24:51.901]00,M*2B
$PGRMZ,-35,f,3*00
$PGRMM,WGS 84*06
$HCHDM,,M*07
$WIMWV[2024/10/02, 13:24:52.042],,R,,,A*6D
$GPAPB,V,V,,,N,V,V,,,,,,,,N*68
$GPZDA,052449,02,10,202[2024/10/02, 13:24:52.151]4,-08,00*64
[2024/10/02, 13:24:52.229]$GPRMC,052451,A,0113.9190,N,10339.0358,E,3.52,266.1[2024/10/02, 13:24:52.495]8,021024,0.16,E,A*25
$GPRMB,A,,,,,,,,,,,,V,A*1C
$GPGGA,052451,011[2024/10/02, 13:24:52.635]3.9190,N,10339.0358,E,1,19,0.64,-10.47,M,9.63,M,,*58
$GPGSA,A,3,1[2024/10/02, 13:24:52.776]0,12,18,23,25,28,29,31,32,,,,1.29,0.64,1.12*07
$GPGSV,5,1,19,10,33[2024/10/02, 13:24:52.917],355,23,12,18,067,15,18,47,172,26,23,52,048,22*79
$GPGSV,5,2,19,25[2024/10/02, 13:24:53.057],45,099,21,28,58,263,26,29,10,147,23,31,27,231,25*7E
$GPGSV,5,3,19,[2024/10/02, 13:24:53.198]32,23,331,22,,35,101,15,,42,148,27,,62,337,25*7E
$GPGSV,5,4,19,,59[2024/10/02, 13:24:53.338],036,15,,53,010,20,,56,353,24,,79,166,24*71
$GPGSV,5,5,19,,40,043,[2024/10/02, 13:24:53.479]14,,28,266,26,,38,211,32*43
$GPGLL,0113.9190,N,10339.0358,E,052451[2024/10/02, 13:24:53.620],A,A*44
$GPBOD,,T,,M,,*47
$GPBWC,052451,,,,,,T,,M,,N,,A*7C
$GPV[2024/10/02, 13:24:53.760]TG,266.18,T,266.02,M,3.52,N,6.52,K,A*2D
$PGRME,13.36,M,21.25,M,25.[2024/10/02, 13:24:53.901]10,M*2B
$PGRMZ,-34,f,3*01
$PGRMM,WGS 84*06
$HCHDM,,M*07
$WIMWV[2024/10/02, 13:24:54.041],,R,,,A*6D
$GPAPB,V,V,,,N,V,V,,,,,,,,N*68
$GPZDA,052451,02,10,20[2024/10/02, 13:24:54.151]24,-08,00*6D
[2024/10/02, 13:24:54.229]$GPRMC,052453,A,0113.9200,N,10339.0343,E,3.43,289.8[2024/10/02, 13:24:54.494]7,021024,0.16,E,A*20
$GPRMB,A,,,,,,,,,,,,V,A*1C
$GPGGA,052453,011[2024/10/02, 13:24:54.635]3.9200,N,10339.0343,E,1,19,0.64,-11.18,M,9.63,M,,*51
$GPGSA,A,3,1[2024/10/02, 13:24:54.776]0,12,18,23,25,28,29,31,32,,,,1.29,0.64,1.12*07
$GPGSV,5,1,19,10,33[2024/10/02, 13:24:54.916],355,22,12,18,067,15,18,47,172,27,23,52,048,19*71
$GPGSV,5,2,19,25[2024/10/02, 13:24:55.047],45,099,20,28,58,263,26,29,10,147,20,31,27,231,26*7F
$GPGSV,5,[2024/10/02, 13:24:55.188]3,19,32,23,331,21,,35,101,15,,42,148,27,,62,337,24*7C
$GPGSV,5,4,1[2024/10/02, 13:24:55.328]9,,59,036,14,,53,010,20,,56,353,20,,79,166,23*73
$GPGSV,5,5,19,,40[2024/10/02, 13:24:55.469],043,14,,28,266,27,,38,211,31*41
$GPGLL,0113.9200,N,10339.0343,E,0[2024/10/02, 13:24:55.609]52453,A,A*46
$GPBOD,,T,,M,,*47
$GPBWC,052453,,,,,,T,,M,,N,,A*7E[2024/10/02, 13:24:55.750]
$GPVTG,289.87,T,289.71,M,3.43,N,6.35,K,A*2E
$PGRME,13.37,M,21.21,[2024/10/02, 13:24:55.890]M,25.07,M*28
$PGRMZ,-37,f,3*02
$PGRMM,WGS 84*06
$HCHDM,,M*07
$[2024/10/02, 13:24:56.031]WIMWV,,R,,,A*6D
$GPAPB,V,V,,,N,V,V,,,,,,,,N*68
$GPZDA,052453,02,[2024/10/02, 13:24:56.156]10,2024,-08,00*6F
[2024/10/02, 13:24:56.234]$GPRMC,052455,A,0113.9205,N,10339.0328,E,3.25,288.87,0[2024/10/02, 13:24:56.500]21024,0.16,E,A*2F
$GPRMB,A,,,,,,,,,,,,V,A*1C
$GPGGA,052455,0113.[2024/10/02, 13:24:56.640]9205,N,10339.0328,E,1,19,0.64,-11.83,M,9.63,M,,*5D
$GPGSA,A,3,10,1[2024/10/02, 13:24:56.781]2,18,23,25,28,29,31,32,,,,1.29,0.64,1.12*07
$GPGSV,5,1,19,10,33,3[2024/10/02, 13:24:56.921]55,25,12,18,067,16,18,47,172,28,23,52,048,24*74
$GPGSV,5,2,19,25,4[2024/10/02, 13:24:57.062]5,099,22,28,58,263,26,29,10,147,20,31,27,231,27*7C
$GPGSV,5,3,19,3[2024/10/02, 13:24:57.203]2,23,331,21,,35,101,15,,42,148,28,,62,337,23*74
$GPGSV,5,4,19,,59,[2024/10/02, 13:24:57.343]036,14,,53,010,19,,56,353,21,,79,166,24*7F
$GPGSV,5,5,19,,40,043,15[2024/10/02, 13:24:57.484],,28,266,27,,38,211,31*40
$GPGLL,0113.9205,N,10339.0328,E,052455,[2024/10/02, 13:24:57.624]A,A*48
$GPBOD,,T,,M,,*47
$GPBWC,052455,,,,,,T,,M,,N,,A*78
$GPVTG[2024/10/02, 13:24:57.765],288.87,T,288.71,M,3.25,N,6.03,K,A*2B
$PGRME,13.38,M,21.30,M,25.15[2024/10/02, 13:24:57.906],M*24
$PGRMZ,-39,f,3*0C
$PGRMM,WGS 84*06
$HCHDM,,M*07
$WIMWV,,[2024/10/02, 13:24:58.046]R,,,A*6D
$GPAPB,V,V,,,N,V,V,,,,,,,,N*68
$GPZDA,052455,02,10,2024[2024/10/02, 13:24:58.156],-08,00*69
[2024/10/02, 13:24:58.234]$GPRMC,052457,A,0113.9205,N,10339.0308,E,3.40,270.64,[2024/10/02, 13:24:58.499]021024,0.16,E,A*26
$GPRMB,A,,,,,,,,,,,,V,A*1C
$GPGGA,052457,0113.[2024/10/02, 13:24:58.640]9205,N,10339.0308,E,1,19,0.64,-11.68,M,9.63,M,,*58
$GPGSA,A,3,10,1[2024/10/02, 13:24:58.780]2,18,23,25,28,29,31,32,,,,1.29,0.64,1.12*07
$GPGSV,5,1,19,10,33,35[2024/10/02, 13:24:58.921]5,24,12,18,067,16,18,47,172,28,23,52,048,21*70
$GPGSV,5,2,19,25,45[2024/10/02, 13:24:59.062],099,20,28,58,263,27,29,10,147,18,31,27,231,26*75
$GPGSV,5,3,19,32[2024/10/02, 13:24:59.202],23,331,14,,35,101,15,,42,148,27,,62,337,23*7D
$GPGSV,5,4,19,,59,0[2024/10/02, 13:24:59.343]36,15,,53,010,21,,56,353,23,,79,165,24*74
$GPGSV,5,5,19,,40,043,15[2024/10/02, 13:24:59.483],,28,266,27,,38,211,30*41
$GPGLL,0113.9205,N,10339.0308,E,052457,A[2024/10/02, 13:24:59.624],A*48
$GPBOD,,T,,M,,*47
$GPBWC,052457,,,,,,T,,M,,N,,A*7A
$GPVTG[2024/10/02, 13:24:59.765],270.64,T,270.48,M,3.40,N,6.29,K,A*27
$PGRME,13.39,M,21.28,M,25.14[2024/10/02, 13:24:59.905],M*2D
$PGRMZ,-38,f,3*0D
$PGRMM,WGS 84*06
$HCHDM,,M*07
$WIMWV,,[2024/10/02, 13:25:00.046]R,,,A*6D
$GPAPB,V,V,,,N,V,V,,,,,,,,N*68
$GPZDA,052457,02,10,2024,[2024/10/02, 13:25:00.155]-08,00*6B
[2024/10/02, 13:25:00.233]$GPRMC,052459,A,0113.9204,N,10339.0288,E,3.41,270.80,[2024/10/02, 13:25:00.499]021024,0.16,E,A*2B
$GPRMB,A,,,,,,,,,,,,V,A*1C
$GPGGA,052459,0113.[2024/10/02, 13:25:00.639]9204,N,10339.0288,E,1,19,0.64,-11.53,M,9.62,M,,*57
