[2024/10/02, 12:34:55.334]*7D
$GPGSV,5,4,17,,05,152,12,,68,359,24,,56,180,24,,25,290,30*7A
[2024/10/02, 12:34:55.474]$GPGSV,5,5,17,,49,238,26*4F
$GPGLL,0114.3157,N,10338.6895,E,043453[2024/10/02, 12:34:55.615],A,D*48
$GPBOD,,T,,M,,*47
$GPBWC,043453,,,,,,T,,M,,N,,D*7B
$GPVT[2024/10/02, 12:34:55.756]G,347.86,T,347.70,M,3.11,N,5.76,K,D*28
$PGRME,15.58,M,16.30,M,22.[2024/10/02, 12:34:55.896]55,M*23
$PGRMZ,115,f,3*1E
$PGRMM,WGS 84*06
$HCHDM,,M*07
$WIMWV,[2024/10/02, 12:34:56.037],R,,,A*6D
$GPAPB,V,V,,,N,V,V,,,,,,,,N*68
$GPZDA,043453,02,10,202[2024/10/02, 12:34:56.146]4,-08,00*6F
[2024/10/02, 12:34:56.287]$GPRMC,043455,A,0114.3172,N,10338.6884,E,3.14,336.41,021[2024/10/02, 12:34:56.552]024,0.16,E,D*22
$GPRMB,A,,,,,,,,,,,,V,D*19
$GPGGA,043455,0114.317[2024/10/02, 12:34:56.693]2,N,10338.6884,E,2,16,0.72,35.18,M,9.58,M,,*73
$GPGSA,A,3,10,12,18[2024/10/02, 12:34:56.834],23,25,28,29,32,,,,,1.23,0.72,0.99*0A
$GPGSV,5,1,17,10,17,342,26,1[2024/10/02, 12:34:56.974]2,22,091,17,18,73,177,24,23,38,019,23*79
$GPGSV,5,2,17,25,40,132,1[2024/10/02, 12:34:57.115]5,28,45,227,25,29,17,166,16,32,26,308,25*76
$GPGSV,5,3,17,41,65,26[2024/10/02, 12:34:57.255]6,31,,31,111,16,,49,143,17,,75,336,27*77
$GPGSV,5,4,17,,05,152,14,[2024/10/02, 12:34:57.396],68,359,25,,56,180,26,,25,290,30*7F
$GPGSV,5,5,17,,49,238,27*4E
$[2024/10/02, 12:34:57.536]GPGLL,0114.3172,N,10338.6884,E,043455,A,D*49
$GPBOD,,T,,M,,*47
$G[2024/10/02, 12:34:57.677]PBWC,043455,,,,,,T,,M,,N,,D*7D
$GPVTG,336.41,T,336.25,M,3.14,N,5.[2024/10/02, 12:34:57.818]81,K,D*2E
$PGRME,15.59,M,16.32,M,22.57,M*22
$PGRMZ,115,f,3*1E
$P[2024/10/02, 12:34:57.958]GRMM,WGS 84*06
$HCHDM,,M*07
$WIMWV,,R,,,A*6D
$GPAPB,V,V,,,N,V,V[2024/10/02, 12:34:58.083],,,,,,,,N*68
$GPZDA,043455,02,10,2024,-08,00*69
[2024/10/02, 12:34:58.286]$GPRMC,043457,A,0114.3195,N,10338.6875,E,3.35,348.45,021[2024/10/02, 12:34:58.552]024,0.16,E,D*29
$GPRMB,A,,,,,,,,,,,,V,D*19
$GPGGA,043457,0114.319[2024/10/02, 12:34:58.692]5,N,10338.6875,E,2,16,0.72,34.74,M,9.58,M,,*7D
$GPGSA,A,3,10,12,18[2024/10/02, 12:34:58.833],23,25,28,29,32,,,,,1.23,0.72,0.99*0A
$GPGSV,5,1,17,10,17,342,25,1[2024/10/02, 12:34:58.973]2,22,091,15,18,73,177,24,23,38,019,21*7A
$GPGSV,5,2,17,25,40,132,1[2024/10/02, 12:34:59.114]5,28,45,227,23,29,17,166,14,32,26,308,26*71
$GPGSV,5,3,17,41,65,26[2024/10/02, 12:34:59.255]6,32,,31,111,15,,49,143,16,,75,336,27*76
$GPGSV,5,4,17,,05,152,14,[2024/10/02, 12:34:59.395],68,359,26,,56,180,25,,25,289,30*77
$GPGSV,5,5,17,,49,238,26*4F
$[2024/10/02, 12:34:59.536]GPGLL,0114.3195,N,10338.6875,E,043457,A,D*4C
$GPBOD,,T,,M,,*47
$[2024/10/02, 12:34:59.676]GPBWC,043457,,,,,,T,,M,,N,,D*7F
$GPVTG,348.45,T,348.29,M,3.35,N,6.[2024/10/02, 12:34:59.817]21,K,D*2C
$PGRME,15.60,M,16.49,M,22.70,M*21
$PGRMZ,114,f,3*1F
$[2024/10/02, 12:34:59.958]PGRMM,WGS 84*06
$HCHDM,,M*07
$WIMWV,,R,,,A*6D
$GPAPB,V,V,,,N,V,V[2024/10/02, 12:35:00.083],,,,,,,,N*68
$GPZDA,043457,02,10,2024,-08,00*6B
[2024/10/02, 12:35:00.286]$GPRMC,043459,A,0114.3223,N,10338.6871,E,3.60,344.02,021[2024/10/02, 12:35:00.551]024,0.16,E,D*22
$GPRMB,A,,,,,,,,,,,,V,D*19
$GPGGA,043459,0114.322[2024/10/02, 12:35:00.692]3,N,10338.6871,E,2,16,0.72,36.40,M,9.58,M,,*7C
$GPGSA,A,3,10,12,18[2024/10/02, 12:35:00.832],23,25,28,29,32,,,,,1.23,0.72,0.99*0A
$GPGSV,5,1,17,10,17,342,25,[2024/10/02, 12:35:00.973]12,22,091,15,18,73,177,22,23,38,019,20*7D
$GPGSV,5,2,17,25,40,132,[2024/10/02, 12:35:01.114]15,28,45,227,23,29,17,166,14,32,26,308,24*73
$GPGSV,5,3,17,41,65,2[2024/10/02, 12:35:01.254]66,32,,31,111,15,,49,143,16,,75,336,27*76
$GPGSV,5,4,17,,05,152,13,[2024/10/02, 12:35:01.395],68,359,25,,56,180,24,,25,289,29*7A
$GPGSV,5,5,17,,49,237,27*41
[2024/10/02, 12:35:01.535]$GPGLL,0114.3223,N,10338.6871,E,043459,A,D*48
$GPBOD,,T,,M,,*47
$[2024/10/02, 12:35:01.676]GPBWC,043459,,,,,,T,,M,,N,,D*71
$GPVTG,344.02,T,343.86,M,3.60,N,6.[2024/10/02, 12:35:01.817]67,K,D*2F
$PGRME,15.62,M,16.84,M,22.97,M*2B
$PGRMZ,119,f,3*12
$[2024/10/02, 12:35:01.957]PGRMM,WGS 84*06
$HCHDM,,M*07
$WIMWV,,R,,,A*6D
$GPAPB,V,V,,,N,V,[2024/10/02, 12:35:02.082]V,,,,,,,,N*68
$GPZDA,043459,02,10,2024,-08,00*65
[2024/10/02, 12:35:02.285]$GPRMC,043501,A,0114.3250,N,10338.6861,E,3.87,344.84,021[2024/10/02, 12:35:02.551]024,0.16,E,D*2C
$GPRMB,A,,,,,,,,,,,,V,D*19
$GPGGA,043501,0114.32[2024/10/02, 12:35:02.692]50,N,10338.6861,E,2,16,0.72,36.32,M,9.58,M,,*70
$GPGSA,A,3,10,12,1[2024/10/02, 12:35:02.832]8,23,25,28,29,32,,,,,1.23,0.72,0.99*0A
$GPGSV,5,1,17,10,17,342,25,[2024/10/02, 12:35:02.973]12,22,091,15,18,73,177,23,23,38,019,22*7E
$GPGSV,5,2,17,25,40,132,[2024/10/02, 12:35:03.113]15,28,45,227,24,29,17,166,13,32,26,308,25*72
$GPGSV,5,3,17,41,65,2[2024/10/02, 12:35:03.254]66,32,,31,111,16,,49,143,16,,75,336,26*74
$GPGSV,5,4,17,,05,152,13[2024/10/02, 12:35:03.394],,68,359,26,,56,180,24,,25,289,30*71
$GPGSV,5,5,17,,49,237,27*41
[2024/10/02, 12:35:03.535]$GPGLL,0114.3250,N,10338.6861,E,043501,A,D*41
$GPBOD,,T,,M,,*47
$[2024/10/02, 12:35:03.675]GPBWC,043501,,,,,,T,,M,,N,,D*7D
$GPVTG,344.84,T,344.68,M,3.87,N,7.[2024/10/02, 12:35:03.816]16,K,D*28
$PGRME,15.64,M,17.25,M,23.29,M*23
$PGRMZ,119,f,3*12
$[2024/10/02, 12:35:03.957]PGRMM,WGS 84*06
$HCHDM,,M*07
$WIMWV,,R,,,A*6D
$GPAPB,V,V,,,N,V,V[2024/10/02, 12:35:04.082],,,,,,,,N*68
$GPZDA,043501,02,10,2024,-08,00*69
[2024/10/02, 12:35:04.285]$GPRMC,043503,A,0114.3277,N,10338.6853,E,4.21,352.62,02[2024/10/02, 12:35:04.550]1024,0.16,E,D*2E
$GPRMB,A,,,,,,,,,,,,V,D*19
$GPGGA,043503,0114.32[2024/10/02, 12:35:04.691]77,N,10338.6853,E,2,16,0.72,35.90,M,9.58,M,,*7D
$GPGSA,A,3,10,12,1[2024/10/02, 12:35:04.831]8,23,25,28,29,32,,,,,1.23,0.72,0.99*0A
$GPGSV,5,1,17,10,17,342,25,[2024/10/02, 12:35:04.972]12,22,091,16,18,73,177,22,23,38,019,21*7F
$GPGSV,5,2,17,25,40,132,[2024/10/02, 12:35:05.113]15,28,45,227,25,29,17,166,13,32,26,308,24*72
$GPGSV,5,3,17,41,65,2[2024/10/02, 12:35:05.253]66,32,,31,111,16,,49,143,19,,75,336,27*7A
$GPGSV,5,4,17,,05,152,14[2024/10/02, 12:35:05.394],,68,359,26,,56,180,23,,25,289,30*71
$GPGSV,5,5,17,,49,237,26*40
[2024/10/02, 12:35:05.534]$GPGLL,0114.3277,N,10338.6853,E,043503,A,D*47
$GPBOD,,T,,M,,*47
$[2024/10/02, 12:35:05.675]GPBWC,043503,,,,,,T,,M,,N,,D*7F
$GPVTG,352.62,T,352.46,M,4.21,N,7[2024/10/02, 12:35:05.816].80,K,D*28
$PGRME,15.67,M,17.42,M,23.43,M*2D
$PGRMZ,118,f,3*13
$[2024/10/02, 12:35:05.956]PGRMM,WGS 84*06
$HCHDM,,M*07
$WIMWV,,R,,,A*6D
$GPAPB,V,V,,,N,V,[2024/10/02, 12:35:06.081]V,,,,,,,,N*68
$GPZDA,043503,02,10,2024,-08,00*6B
[2024/10/02, 12:35:06.284]$GPRMC,043505,A,0114.3302,N,10338.6847,E,4.37,350.33,02[2024/10/02, 12:35:06.550]1024,0.16,E,D*2F
$GPRMB,A,,,,,,,,,,,,V,D*19
$GPGGA,043505,0114.33[2024/10/02, 12:35:06.691]02,N,10338.6847,E,2,16,0.72,34.73,M,9.58,M,,*71
$GPGSA,A,3,10,12,1[2024/10/02, 12:35:06.831]8,23,25,28,29,32,,,,,1.23,0.72,0.99*0A
$GPGSV,5,1,17,10,17,342,25,[2024/10/02, 12:35:06.972]12,22,091,16,18,73,177,24,23,38,019,25*7D
$GPGSV,5,2,17,25,40,132,[2024/10/02, 12:35:07.112]15,28,45,227,25,29,17,166,18,32,26,308,26*7B
$GPGSV,5,3,17,41,65,2[2024/10/02, 12:35:07.253]66,32,,31,111,16,,49,143,17,,75,336,27*74
$GPGSV,5,4,17,,05,152,17[2024/10/02, 12:35:07.393],,68,359,25,,56,180,20,,25,289,30*72
$GPGSV,5,5,17,,49,237,24*42
[2024/10/02, 12:35:07.534]$GPGLL,0114.3302,N,10338.6847,E,043505,A,D*47
$GPBOD,,T,,M,,*47
$[2024/10/02, 12:35:07.675]GPBWC,043505,,,,,,T,,M,,N,,D*79
$GPVTG,350.33,T,350.17,M,4.37,N,8[2024/10/02, 12:35:07.815].09,K,D*21
$PGRME,15.69,M,17.49,M,23.49,M*22
$PGRMZ,114,f,3*1F
$[2024/10/02, 12:35:07.956]PGRMM,WGS 84*06
$HCHDM,,M*07
$WIMWV,,R,,,A*6D
$GPAPB,V,V,,,N,V,[2024/10/02, 12:35:08.081]V,,,,,,,,N*68
$GPZDA,043505,02,10,2024,-08,00*6D
[2024/10/02, 12:35:08.284]$GPRMC,043507,A,0114.3330,N,10338.6841,E,4.46,353.07,02[2024/10/02, 12:35:08.550]1024,0.16,E,D*28
$GPRMB,A,,,,,,,,,,,,V,D*19
$GPGGA,043507,0114.33[2024/10/02, 12:35:08.690]30,N,10338.6841,E,2,16,0.72,33.97,M,9.58,M,,*79
$GPGSA,A,3,10,12,1[2024/10/02, 12:35:08.831]8,23,25,28,29,32,,,,,1.23,0.72,0.99*0A
$GPGSV,5,1,17,10,17,342,24,[2024/10/02, 12:35:08.971]12,22,091,15,18,73,177,20,23,38,019,26*78
$GPGSV,5,2,17,25,40,132,[2024/10/02, 12:35:09.112]15,28,45,227,26,29,17,166,18,32,26,308,26*78
$GPGSV,5,3,17,41,65,2[2024/10/02, 12:35:09.252]66,32,,31,111,16,,49,143,17,,75,336,27*74
$GPGSV,5,4,17,,05,152,14[2024/10/02, 12:35:09.393],,68,359,25,,56,180,19,,25,289,31*7A
$GPGSV,5,5,17,,49,237,25*43
[2024/10/02, 12:35:09.534]$GPGLL,0114.3330,N,10338.6841,E,043507,A,D*42
$GPBOD,,T,,M,,*47
[2024/10/02, 12:35:09.674]$GPBWC,043507,,,,,,T,,M,,N,,D*7B
$GPVTG,353.07,T,352.91,M,4.46,N,8[2024/10/02, 12:35:09.815].26,K,D*22
$PGRME,15.70,M,17.61,M,23.59,M*21
$PGRMZ,111,f,3*1A
[2024/10/02, 12:35:09.955]$PGRMM,WGS 84*06
$HCHDM,,M*07
$WIMWV,,R,,,A*6D
$GPAPB,V,V,,,N,V[2024/10/02, 12:35:10.080],V,,,,,,,,N*68
$GPZDA,043507,02,10,2024,-08,00*6F
[2024/10/02, 12:35:10.283]$GPRMC,043509,A,0114.3359,N,10338.6835,E,4.55,354.97,02[2024/10/02, 12:35:10.549]1024,0.16,E,D*26
$GPRMB,A,,,,,,,,,,,,V,D*19
$GPGGA,043509,0114.33[2024/10/02, 12:35:10.689]59,N,10338.6835,E,2,16,0.72,32.87,M,9.58,M,,*7B
$GPGSA,A,3,10,12,[2024/10/02, 12:35:10.830]18,23,25,28,29,32,,,,,1.23,0.72,0.99*0A
$GPGSV,5,1,17,10,17,342,22[2024/10/02, 12:35:10.971],12,22,091,15,18,73,177,20,23,38,019,27*7F
$GPGSV,5,2,17,25,40,132[2024/10/02, 12:35:11.111],14,28,45,227,26,29,17,166,14,32,26,308,27*74
$GPGSV,5,3,17,41,65,[2024/10/02, 12:35:11.252]266,32,,31,111,16,,49,143,17,,75,336,27*74
$GPGSV,5,4,17,,05,152,1[2024/10/02, 12:35:11.393]4,,68,359,25,,56,180,20,,25,289,30*71
$GPGSV,5,5,17,,49,237,26*40[2024/10/02, 12:35:11.533]
$GPGLL,0114.3359,N,10338.6835,E,043509,A,D*40
$GPBOD,,T,,M,,*47
[2024/10/02, 12:35:11.674]$GPBWC,043509,,,,,,T,,M,,N,,D*75
$GPVTG,354.97,T,354.81,M,4.55,N,[2024/10/02, 12:35:11.814]8.43,K,D*2A
$PGRME,15.72,M,17.83,M,23.77,M*23
$PGRMZ,108,f,3*12[2024/10/02, 12:35:11.955]
$PGRMM,WGS 84*06
$HCHDM,,M*07
$WIMWV,,R,,,A*6D
$GPAPB,V,V,,,N,V[2024/10/02, 12:35:12.095],V,,,,,,,,N*68
$GPZDA,043509,02,10,2024,-08,00*61
[2024/10/02, 12:35:12.283]$GPRMC,043511,A,0114.3389,N,10338.6827,E,4.58,354.24,02[2024/10/02, 12:35:12.548]1024,0.16,E,D*24
$GPRMB,A,,,,,,,,,,,,V,D*19
$GPGGA,043511,0114.3[2024/10/02, 12:35:12.689]389,N,10338.6827,E,2,16,0.72,31.96,M,9.58,M,,*7F
$GPGSA,A,3,10,12,[2024/10/02, 12:35:12.830]18,23,25,28,29,32,,,,,1.23,0.72,0.99*0A
$GPGSV,5,1,17,10,17,342,23[2024/10/02, 12:35:12.970],12,22,091,16,18,73,177,22,23,38,019,27*7F
$GPGSV,5,2,17,25,40,132[2024/10/02, 12:35:13.111],14,28,45,227,25,29,17,166,14,32,26,308,25*75
$GPGSV,5,3,17,41,65,[2024/10/02, 12:35:13.251]266,32,,31,111,16,,49,143,17,,75,336,27*74
$GPGSV,5,4,17,,05,152,1[2024/10/02, 12:35:13.392]4,,68,359,25,,56,180,21,,25,289,30*70
$GPGSV,5,5,17,,49,237,23*45[2024/10/02, 12:35:13.533]
$GPGLL,0114.3389,N,10338.6827,E,043511,A,D*47
$GPBOD,,T,,M,,*47
[2024/10/02, 12:35:13.673]$GPBWC,043511,,,,,,T,,M,,N,,D*7C
$GPVTG,354.24,T,354.08,M,4.58,N,8[2024/10/02, 12:35:13.814].49,K,D*24
$PGRME,15.73,M,18.05,M,23.94,M*2E
$PGRMZ,105,f,3*1F
[2024/10/02, 12:35:13.954]$PGRMM,WGS 84*06
$HCHDM,,M*07
$WIMWV,,R,,,A*6D
$GPAPB,V,V,,,N,V,[2024/10/02, 12:35:14.079]V,,,,,,,,N*68
$GPZDA,043511,02,10,2024,-08,00*68
[2024/10/02, 12:35:14.282]$GPRMC,043513,A,0114.3415,N,10338.6821,E,4.55,354.09,0[2024/10/02, 12:35:14.548]21024,0.16,E,D*20
$GPRMB,A,,,,,,,,,,,,V,D*19
$GPGGA,043513,0114.3[2024/10/02, 12:35:14.689]415,N,10338.6821,E,2,16,0.72,30.97,M,9.58,M,,*79
$GPGSA,A,3,10,12,[2024/10/02, 12:35:14.829]18,23,25,28,29,32,,,,,1.23,0.72,0.99*0A
$GPGSV,5,1,17,10,17,342,26[2024/10/02, 12:35:14.970],12,22,091,15,18,73,177,20,23,38,019,24*78
$GPGSV,5,2,17,25,40,132[2024/10/02, 12:35:15.110],14,28,45,227,26,29,17,166,16,32,26,308,24*75
$GPGSV,5,3,17,41,65,[2024/10/02, 12:35:15.251]266,32,,31,111,13,,49,143,15,,75,336,27*73
$GPGSV,5,4,17,,05,152,1[2024/10/02, 12:35:15.391]3,,68,359,25,,56,180,20,,25,289,30*76
$GPGSV,5,5,17,,49,237,24*42[2024/10/02, 12:35:15.532]
$GPGLL,0114.3415,N,10338.6821,E,043513,A,D*41
$GPBOD,,T,,M,,*47
[2024/10/02, 12:35:15.673]$GPBWC,043513,,,,,,T,,M,,N,,D*7E
$GPVTG,354.09,T,353.93,M,4.55,N,[2024/10/02, 12:35:15.813]8.42,K,D*28
$PGRME,15.75,M,18.32,M,24.16,M*21
$PGRMZ,102,f,3*18
[2024/10/02, 12:35:15.954]$PGRMM,WGS 84*06
$HCHDM,,M*07
$WIMWV,,R,,,A*6D
$GPAPB,V,V,,,N,V[2024/10/02, 12:35:16.079],V,,,,,,,,N*68
$GPZDA,043513,02,10,2024,-08,00*6A
[2024/10/02, 12:35:16.282]$GPRMC,043515,A,0114.3439,N,10338.6817,E,4.56,352.78,0[2024/10/02, 12:35:16.548]21024,0.16,E,D*2E
$GPRMB,A,,,,,,,,,,,,V,D*19
$GPGGA,043515,0114.3[2024/10/02, 12:35:16.688]439,N,10338.6817,E,2,16,0.72,29.83,M,9.58,M,,*79
$GPGSA,A,3,10,12,[2024/10/02, 12:35:16.829]18,23,25,28,29,32,,,,,1.23,0.72,0.99*0A
$GPGSV,5,1,17,10,17,342,25[2024/10/02, 12:35:16.969],12,22,091,14,18,73,177,21,23,38,019,25*7A
$GPGSV,5,2,17,25,40,132[2024/10/02, 12:35:17.110],14,28,45,227,26,29,17,166,18,32,26,308,25*7A
$GPGSV,5,3,17,41,65,[2024/10/02, 12:35:17.250]266,32,,31,111,16,,49,143,16,,75,336,27*75
$GPGSV,5,4,17,,05,152,1[2024/10/02, 12:35:17.391]5,,68,359,25,,56,180,24,,25,289,30*74
$GPGSV,5,5,17,,49,237,26*40[2024/10/02, 12:35:17.532]
$GPGLL,0114.3439,N,10338.6817,E,043515,A,D*4C
$GPBOD,,T,,M,,*47
[2024/10/02, 12:35:17.672]$GPBWC,043515,,,,,,T,,M,,N,,D*78
$GPVTG,352.78,T,352.62,M,4.56,N,[2024/10/02, 12:35:17.813]8.44,K,D*22
$PGRME,15.77,M,18.47,M,24.29,M*2D
$PGRMZ,98,f,3*2A
$[2024/10/02, 12:35:17.953]PGRMM,WGS 84*06
$HCHDM,,M*07
$WIMWV,,R,,,A*6D
$GPAPB,V,V,,,N,V,[2024/10/02, 12:35:18.078]V,,,,,,,,N*68
$GPZDA,043515,02,10,2024,-08,00*6C
[2024/10/02, 12:35:18.281]$GPRMC,043517,A,0114.3462,N,10338.6817,E,4.60,351.81,0[2024/10/02, 12:35:18.547]21024,0.16,E,D*22
$GPRMB,A,,,,,,,,,,,,V,D*19
$GPGGA,043517,0114.3[2024/10/02, 12:35:18.688]462,N,10338.6817,E,2,16,0.72,26.77,M,9.58,M,,*71
$GPGSA,A,3,10,12[2024/10/02, 12:35:18.828],18,23,25,28,29,32,,,,,1.23,0.72,0.99*0A
$GPGSV,5,1,17,10,17,342,2[2024/10/02, 12:35:18.969]6,12,22,091,15,18,73,177,23,23,38,019,23*7C
$GPGSV,5,2,17,25,40,13[2024/10/02, 12:35:19.109]2,13,28,45,227,25,29,17,166,17,32,26,308,26*72
$GPGSV,5,3,17,41,65[2024/10/02, 12:35:19.250],266,32,,31,111,17,,49,143,19,,75,336,27*7B
$GPGSV,5,4,17,,05,152,[2024/10/02, 12:35:19.391]16,,68,359,25,,56,180,23,,25,289,30*70
$GPGSV,5,5,17,,49,237,26*40[2024/10/02, 12:35:19.531]
$GPGLL,0114.3462,N,10338.6817,E,043517,A,D*40
$GPBOD,,T,,M,,*47[2024/10/02, 12:35:19.672]
$GPBWC,043517,,,,,,T,,M,,N,,D*7A
$GPVTG,351.81,T,351.65,M,4.60,N[2024/10/02, 12:35:19.812],8.51,K,D*22
$PGRME,15.79,M,18.30,M,24.17,M*2E
$PGRMZ,88,f,3*2B
[2024/10/02, 12:35:19.953]$PGRMM,WGS 84*06
$HCHDM,,M*07
$WIMWV,,R,,,A*6D
$GPAPB,V,V,,,N,V[2024/10/02, 12:35:20.078],V,,,,,,,,N*68
$GPZDA,043517,02,10,2024,-08,00*6E
[2024/10/02, 12:35:20.281]$GPRMC,043519,A,0114.3487,N,103[2024/10/02, 12:35:20.500]38.6819,E,4.64,352.03,021024,0.16,E,D*24
$GPRMB,A,,,,,,,,,,,,V,D*1[2024/10/02, 12:35:20.640]9
$GPGGA,043519,0114.3487,N,10338.6819,E,2,16,0.72,24.15,M,9.58,M,[2024/10/02, 12:35:20.781],*7C
$GPGSA,A,3,10,12,18,23,25,28,29,32,,,,,1.23,0.72,0.99*0A
$GP[2024/10/02, 12:35:20.921]GSV,5,1,17,10,17,342,25,12,22,091,15,18,73,177,22,23,38,019,23*7E
[2024/10/02, 12:35:21.062]$GPGSV,5,2,17,25,40,132,13,28,45,227,26,29,17,166,16,32,26,308,26*7[2024/10/02, 12:35:21.203]0
$GPGSV,5,3,17,41,65,266,33,,31,111,16,,49,143,17,,75,336,26*74
[2024/10/02, 12:35:21.343]$GPGSV,5,4,17,,05,152,16,,68,359,26,,56,180,21,,25,289,30*71
$GPGS[2024/10/02, 12:35:21.484]V,5,5,17,,49,237,26*40
$GPGLL,0114.3487,N,10338.6819,E,043519,A,D*[2024/10/02, 12:35:21.624]4B
$GPBOD,,T,,M,,*47
$GPBWC,043519,,,,,,T,,M,,N,,D*74
$GPVTG,35[2024/10/02, 12:35:21.765]2.03,T,351.87,M,4.64,N,8.59,K,D*2B
$PGRME,15.80,M,18.29,M,24.17,M*[2024/10/02, 12:35:21.906]20
$PGRMZ,79,f,3*25
$PGRMM,WGS 84*06
$HCHDM,,M*07
$WIMWV,,R,,,[2024/10/02, 12:35:22.046]A*6D
$GPAPB,V,V,,,N,V,V,,,,,,,,N*68
$GPZDA,043519,02,10,2024,-08,[2024/10/02, 12:35:22.140]00*60
[2024/10/02, 12:35:22.281]$GPRMC,043521,A,0114.3516,N,103[2024/10/02, 12:35:22.499]38.6817,E,4.79,351.61,021024,0.16,E,D*23
$GPRMB,A,,,,,,,,,,,,V,D*1[2024/10/02, 12:35:22.640]9
$GPGGA,043521,0114.3516,N,10338.6817,E,2,16,0.72,22.06,M,9.58,M,[2024/10/02, 12:35:22.780],*74
$GPGSA,A,3,10,12,18,23,25,28,29,32,,,,,1.23,0.72,0.99*0A
$GP[2024/10/02, 12:35:22.921]GSV,5,1,17,10,17,342,23,12,22,091,16,18,73,177,21,23,38,019,22*79
[2024/10/02, 12:35:23.062]$GPGSV,5,2,17,25,40,132,13,28,45,227,22,29,17,166,16,32,26,308,23*7[2024/10/02, 12:35:23.202]1
$GPGSV,5,3,17,41,65,266,32,,31,111,15,,49,143,17,,75,336,27*77
[2024/10/02, 12:35:23.343]$GPGSV,5,4,17,,05,152,15,,68,359,26,,56,180,24,,25,289,30*77
$GPGS[2024/10/02, 12:35:23.483]V,5,5,17,,49,237,26*40
$GPGLL,0114.3516,N,10338.6817,E,043521,A,D*[2024/10/02, 12:35:23.624]47
$GPBOD,,T,,M,,*47
$GPBWC,043521,,,,,,T,,M,,N,,D*7F
$GPVTG,35[2024/10/02, 12:35:23.764]1.61,T,351.45,M,4.79,N,8.88,K,D*22
$PGRME,15.82,M,18.47,M,24.32,M*[2024/10/02, 12:35:23.905]2D
$PGRMZ,72,f,3*2E
$PGRMM,WGS 84*06
$HCHDM,,M*07
$WIMWV,,R,,,[2024/10/02, 12:35:24.046]A*6D
$GPAPB,V,V,,,N,V,V,,,,,,,,N*68
$GPZDA,043521,02,10,2024,-08,[2024/10/02, 12:35:24.140]00*6B
[2024/10/02, 12:35:24.280]$GPRMC,043523,A,0114.3543,N,103[2024/10/02, 12:35:24.499]38.6815,E,4.77,351.33,021024,0.16,E,D*2A
$GPRMB,A,,,,,,,,,,,,V,D*1[2024/10/02, 12:35:24.639]9
$GPGGA,043523,0114.3543,N,10338.6815,E,2,16,0.72,19.55,M,9.58,M,[2024/10/02, 12:35:24.780],*7A
$GPGSA,A,3,10,12,18,23,25,28,29,32,,,,,1.23,0.72,0.99*0A
$G[2024/10/02, 12:35:24.920]PGSV,5,1,17,10,17,342,27,12,22,091,15,18,73,177,23,23,38,019,24*7A
[2024/10/02, 12:35:25.061]$GPGSV,5,2,17,25,40,132,13,28,45,227,26,29,17,166,13,32,26,308,23*7[2024/10/02, 12:35:25.202]0
$GPGSV,5,3,17,41,65,266,32,,31,111,16,,49,143,17,,75,336,27*74
[2024/10/02, 12:35:25.342]$GPGSV,5,4,17,,05,152,13,,68,359,24,,56,180,23,,25,289,30*74
$GPGS[2024/10/02, 12:35:25.483]V,5,5,17,,49,237,26*40
$GPGLL,0114.3543,N,10338.6815,E,043523,A,D*[2024/10/02, 12:35:25.624]47
$GPBOD,,T,,M,,*47
$GPBWC,043523,,,,,,T,,M,,N,,D*7D
$GPVTG,35[2024/10/02, 12:35:25.764]1.33,T,351.17,M,4.77,N,8.84,K,D*20
$PGRME,15.83,M,18.68,M,24.48,M[2024/10/02, 12:35:25.905]*2C
$PGRMZ,64,f,3*29
$PGRMM,WGS 84*06
$HCHDM,,M*07
$WIMWV,,R,,,[2024/10/02, 12:35:26.045]A*6D
$GPAPB,V,V,,,N,V,V,,,,,,,,N*68
$GPZDA,043523,02,10,2024,-08[2024/10/02, 12:35:26.139],00*69
[2024/10/02, 12:35:26.280]$GPRMC,043525,A,0114.3571,N,103[2024/10/02, 12:35:26.498]38.6817,E,4.75,352.48,021024,0.16,E,D*22
$GPRMB,A,,,,,,,,,,,,V,D*1[2024/10/02, 12:35:26.639]9
$GPGGA,043525,0114.3571,N,10338.6817,E,2,16,0.72,17.64,M,9.58,M,[2024/10/02, 12:35:26.779],*73
$GPGSA,A,3,10,12,18,23,25,28,29,32,,,,,1.23,0.72,0.99*0A
$G[2024/10/02, 12:35:26.920]PGSV,5,1,17,10,17,342,25,12,22,091,16,18,73,177,21,23,38,019,22*7F[2024/10/02, 12:35:27.061]
$GPGSV,5,2,17,25,40,132,13,28,45,227,25,29,17,166,13,32,26,308,26*[2024/10/02, 12:35:27.201]76
$GPGSV,5,3,17,41,65,266,32,,31,111,16,,49,143,20,,75,336,26*71[2024/10/02, 12:35:27.342]
$GPGSV,5,4,17,,05,152,14,,68,359,26,,56,180,22,,25,289,29*78
$GPGS[2024/10/02, 12:35:27.482]V,5,5,17,,49,237,26*40
$GPGLL,0114.3571,N,10338.6817,E,043525,A,D[2024/10/02, 12:35:27.623]*42
$GPBOD,,T,,M,,*47
$GPBWC,043525,,,,,,T,,M,,N,,D*7B
$GPVTG,35[2024/10/02, 12:35:27.764]2.48,T,352.32,M,4.75,N,8.79,K,D*2B
$PGRME,15.85,M,19.03,M,24.77,M*[2024/10/02, 12:35:27.904]2A
$PGRMZ,58,f,3*26
$PGRMM,WGS 84*06
$HCHDM,,M*07
$WIMWV,,R,,,[2024/10/02, 12:35:28.045]A*6D
$GPAPB,V,V,,,N,V,V,,,,,,,,N*68
$GPZDA,043525,02,10,2024,-08[2024/10/02, 12:35:28.139],00*6F
[2024/10/02, 12:35:28.279]$GPRMC,043527,A,0114.3600,N,103[2024/10/02, 12:35:28.498]38.6816,E,4.74,353.03,021024,0.16,E,D*2B
$GPRMB,A,,,,,,,,,,,,V,D*[2024/10/02, 12:35:28.638]19
$GPGGA,043527,0114.3600,N,10338.6816,E,2,16,0.72,16.23,M,9.58,M[2024/10/02, 12:35:28.779],,*77
$GPGSA,A,3,10,12,18,23,25,28,29,32,,,,,1.23,0.72,0.99*0A
$G[2024/10/02, 12:35:28.920]PGSV,5,1,17,10,17,342,24,12,22,091,16,18,73,177,23,23,38,019,26*78[2024/10/02, 12:35:29.060]
$GPGSV,5,2,17,25,40,132,13,28,45,227,25,29,17,166,16,32,26,308,24*[2024/10/02, 12:35:29.201]71
$GPGSV,5,3,17,41,65,266,32,,31,111,16,,49,143,20,,75,336,27*70[2024/10/02, 12:35:29.341]
$GPGSV,5,4,17,,05,152,13,,68,359,25,,56,180,21,,25,289,30*77
$GPG[2024/10/02, 12:35:29.482]SV,5,5,17,,49,237,24*42
$GPGLL,0114.3600,N,10338.6816,E,043527,A,D[2024/10/02, 12:35:29.622]*44
$GPBOD,,T,,M,,*47
$GPBWC,043527,,,,,,T,,M,,N,,D*79
$GPVTG,35[2024/10/02, 12:35:29.763]3.03,T,352.87,M,4.74,N,8.77,K,D*24
$PGRME,15.87,M,19.33,M,25.01,M[2024/10/02, 12:35:29.904]*2B
$PGRMZ,53,f,3*2D
$PGRMM,WGS 84*06
$HCHDM,,M*07
$WIMWV,,R,,,[2024/10/02, 12:35:30.044]A*6D
$GPAPB,V,V,,,N,V,V,,,,,,,,N*68
$GPZDA,043527,02,10,2024,-08[2024/10/02, 12:35:30.138],00*6D
[2024/10/02, 12:35:30.279]$GPRMC,043529,A,0114.3629,N,10[2024/10/02, 12:35:30.497]338.6815,E,4.79,355.01,021024,0.16,E,D*24
$GPRMB,A,,,,,,,,,,,,V,D*[2024/10/02, 12:35:30.638]19
$GPGGA,043529,0114.3629,N,10338.6815,E,2,16,0.72,14.38,M,9.58,M[2024/10/02, 12:35:30.779],,*79
$GPGSA,A,3,10,12,18,23,25,28,29,32,,,,,1.23,0.72,0.99*0A
$G[2024/10/02, 12:35:30.919]PGSV,5,1,17,10,17,342,21,12,22,091,13,18,73,177,19,23,38,019,26*71[2024/10/02, 12:35:31.060]
$GPGSV,5,2,17,25,40,132,14,28,45,227,26,29,17,166,15,32,26,308,24*[2024/10/02, 12:35:31.200]76
$GPGSV,5,3,17,41,65,266,31,,31,111,15,,49,143,17,,75,336,26*75[2024/10/02, 12:35:31.341]
$GPGSV,5,4,17,,05,152,13,,68,359,26,,56,180,19,,25,289,30*7F
$GPG[2024/10/02, 12:35:31.481]SV,5,5,17,,49,237,27*41
$GPGLL,0114.3629,N,10338.6815,E,043529,A,D[2024/10/02, 12:35:31.622]*42
$GPBOD,,T,,M,,*47
$GPBWC,043529,,,,,,T,,M,,N,,D*77
$GPVTG,3[2024/10/02, 12:35:31.763]55.01,T,354.85,M,4.79,N,8.87,K,D*26
$PGRME,15.89,M,19.30,M,25.00,M[2024/10/02, 12:35:31.903]*27
$PGRMZ,47,f,3*28
$PGRMM,WGS 84*06
$HCHDM,,M*07
$WIMWV,,R,,[2024/10/02, 12:35:32.044],A*6D
$GPAPB,V,V,,,N,V,V,,,,,,,,N*68
$GPZDA,043529,02,10,2024,-08[2024/10/02, 12:35:32.153],00*63
[2024/10/02, 12:35:32.294]$GPRMC,043531,A,0114.3661,N,10338.6816,E,4.99,356.89,021024,[2024/10/02, 12:35:32.559]0.16,E,D*2F
$GPRMB,A,,,,,,,,,,,,V,D*19
$GPGGA,043531,0114.3661,N,[2024/10/02, 12:35:32.700]10338.6816,E,2,16,0.72,12.87,M,9.58,M,,*7D
$GPGSA,A,3,10,12,18,23,[2024/10/02, 12:35:32.840]25,28,29,32,,,,,1.23,0.72,0.99*0A
$GPGSV,5,1,17,10,17,342,24,12,22[2024/10/02, 12:35:32.981],091,15,18,72,177,20,23,38,019,25*7A
$GPGSV,5,2,17,25,40,132,14,28[2024/10/02, 12:35:33.122],45,227,25,29,17,166,15,32,26,308,26*77
$GPGSV,5,3,17,41,65,266,31[2024/10/02, 12:35:33.262],,31,111,14,,49,143,15,,75,336,27*77
$GPGSV,5,4,17,,05,152,13,,68,[2024/10/02, 12:35:33.403]359,25,,56,180,19,,25,289,30*7C
$GPGSV,5,5,17,,49,237,26*40
$GPG[2024/10/02, 12:35:33.544]LL,0114.3661,N,10338.6816,E,043531,A,D*44
$GPBOD,,T,,M,,*47
$GPBW[2024/10/02, 12:35:33.684]C,043531,,,,,,T,,M,,N,,D*7E
$GPVTG,356.89,T,356.73,M,4.99,N,9.25,K[2024/10/02, 12:35:33.825],D*29
$PGRME,15.91,M,19.41,M,25.10,M*29
$PGRMZ,42,f,3*2D
$PGRMM[2024/10/02, 12:35:33.965],WGS 84*06
$HCHDM,,M*07
$WIMWV,,R,,,A*6D
$GPAPB,V,V,,,N,V,V,,,,,[2024/10/02, 12:35:34.090],,,N*68
$GPZDA,043531,02,10,2024,-08,00*6A
[2024/10/02, 12:35:34.293]$GPRMC,043533,A,0114.3690,N,10338.6817,E,5.07,358.03,021024,[2024/10/02, 12:35:34.559]0.16,E,D*28
$GPRMB,A,,,,,,,,,,,,V,D*19
$GPGGA,043533,0114.3690,N[2024/10/02, 12:35:34.700],10338.6817,E,2,16,0.72,11.24,M,9.58,M,,*7A
$GPGSA,A,3,10,12,18,23[2024/10/02, 12:35:34.840],25,28,29,32,,,,,1.23,0.72,0.99*0A
$GPGSV,5,1,17,10,17,342,24,12,2[2024/10/02, 12:35:34.981]2,091,15,18,72,177,21,23,38,019,26*78
$GPGSV,5,2,17,25,40,132,13,2[2024/10/02, 12:35:35.121]8,45,227,25,29,17,166,14,32,26,308,27*70
$GPGSV,5,3,17,41,65,266,3[2024/10/02, 12:35:35.262]2,,31,111,14,,49,143,14,,75,336,27*75
$GPGSV,5,4,17,,05,152,13,,68[2024/10/02, 12:35:35.402],359,25,,56,180,18,,25,289,30*7D
$GPGSV,5,5,17,,49,237,26*40
$GPG[2024/10/02, 12:35:35.543]LL,0114.3690,N,10338.6817,E,043533,A,D*49
$GPBOD,,T,,M,,*47
$GPBW[2024/10/02, 12:35:35.684]C,043533,,,,,,T,,M,,N,,D*7C
$GPVTG,358.03,T,357.87,M,5.07,N,9.40,[2024/10/02, 12:35:35.824]K,D*2A
$PGRME,15.94,M,19.72,M,25.35,M*2B
$PGRMZ,37,f,3*2F
$PGRMM[2024/10/02, 12:35:35.965],WGS 84*06
$HCHDM,,M*07
$WIMWV,,R,,,A*6D
$GPAPB,V,V,,,N,V,V,,,,[2024/10/02, 12:35:36.090],,,,N*68
$GPZDA,043533,02,10,2024,-08,00*68
[2024/10/02, 12:35:36.293]$GPRMC,043535,A,0114.3719,N,10338.6815,E,5.11,358.30,021024,[2024/10/02, 12:35:36.558]0.16,E,D*2B
$GPRMB,A,,,,,,,,,,,,V,D*19
$GPGGA,043535,0114.3719,N[2024/10/02, 12:35:36.699],10338.6815,E,2,16,0.72,10.40,M,9.58,M,,*7D
$GPGSA,A,3,10,12,18,23[2024/10/02, 12:35:36.840],25,28,29,32,,,,,1.23,0.72,0.99*0A
$GPGSV,5,1,17,10,17,342,22,12,2[2024/10/02, 12:35:36.980]2,091,14,18,72,177,20,23,38,020,23*71
$GPGSV,5,2,17,25,40,132,15,2[2024/10/02, 12:35:37.121]8,45,227,24,29,17,166,17,32,26,308,23*70
$GPGSV,5,3,17,41,65,266,3[2024/10/02, 12:35:37.261]2,,31,111,13,,49,143,14,,75,336,27*72
$GPGSV,5,4,17,,05,152,14,,68[2024/10/02, 12:35:37.402],359,26,,56,180,19,,25,289,30*78
$GPGSV,5,5,17,,49,237,24*42
$GPG[2024/10/02, 12:35:37.542]LL,0114.3719,N,10338.6815,E,043535,A,D*4D
$GPBOD,,T,,M,,*47
$GPB[2024/10/02, 12:35:37.683]WC,043535,,,,,,T,,M,,N,,D*7A
$GPVTG,358.30,T,358.14,M,5.11,N,9.46,[2024/10/02, 12:35:37.824]K,D*2E
$PGRME,15.97,M,20.04,M,25.62,M*21
$PGRMZ,34,f,3*2C
$PGRM[2024/10/02, 12:35:37.964]M,WGS 84*06
$HCHDM,,M*07
$WIMWV,,R,,,A*6D
$GPAPB,V,V,,,N,V,V,,,[2024/10/02, 12:35:38.089],,,,,N*68
$GPZDA,043535,02,10,2024,-08,00*6E
[2024/10/02, 12:35:38.292]$GPRMC,043537,A,0114.3745,N,10338.6812,E,5.05,357.53,021024[2024/10/02, 12:35:38.558],0.16,E,D*28
$GPRMB,A,,,,,,,,,,,,V,D*19
$GPGGA,043537,0114.3745,N[2024/10/02, 12:35:38.699],10338.6812,E,2,16,0.72,8.55,M,9.58,M,,*4C
$GPGSA,A,3,10,12,18,23[2024/10/02, 12:35:38.839],25,28,29,32,,,,,1.23,0.72,0.99*0A
$GPGSV,5,1,17,10,17,342,24,12,2[2024/10/02, 12:35:38.980]2,091,14,18,72,177,23,23,38,020,23*74
$GPGSV,5,2,17,25,40,131,13,2[2024/10/02, 12:35:39.120]8,45,227,24,29,17,166,16,32,26,308,27*70
$GPGSV,5,3,17,41,65,266,3[2024/10/02, 12:35:39.261]2,,31,111,17,,49,143,18,,75,336,27*7A
$GPGSV,5,4,17,,05,152,16,,68,[2024/10/02, 12:35:39.401]359,25,,56,180,24,,25,289,30*77
$GPGSV,5,5,17,,49,237,26*40
$GPG[2024/10/02, 12:35:39.542]LL,0114.3745,N,10338.6812,E,043537,A,D*41
$GPBOD,,T,,M,,*47
$GPBW[2024/10/02, 12:35:39.683]C,043537,,,,,,T,,M,,N,,D*78
$GPVTG,357.53,T,357.37,M,5.05,N,9.35,K[2024/10/02, 12:35:39.823],D*2B
$PGRME,15.99,M,19.84,M,25.49,M*24
$PGRMZ,28,f,3*21
$PGRMM[2024/10/02, 12:35:39.964],WGS 84*06
$HCHDM,,M*07
$WIMWV,,R,,,A*6D
$GPAPB,V,V,,,N,V,V,,,,,[2024/10/02, 12:35:40.089],,,N*68
$GPZDA,043537,02,10,2024,-08,00*6C
[2024/10/02, 12:35:40.292]$GPRMC,043539,A,0114.3769,N,10338.6811,E,4.90,355.69,021024[2024/10/02, 12:35:40.557],0.16,E,D*2D
$GPRMB,A,,,,,,,,,,,,V,D*19
$GPGGA,043539,0114.3769,N[2024/10/02, 12:35:40.698],10338.6811,E,2,16,0.72,6.82,M,9.58,M,,*4B
$GPGSA,A,3,10,12,18,23,[2024/10/02, 12:35:40.839]25,28,29,32,,,,,1.23,0.72,0.99*0A
$GPGSV,5,1,17,10,17,342,26,12,22[2024/10/02, 12:35:40.979],091,17,18,72,177,23,23,38,020,22*74
$GPGSV,5,2,17,25,40,131,13,28[2024/10/02, 12:35:41.120],45,227,26,29,17,166,16,32,26,308,24*71
$GPGSV,5,3,17,41,65,266,32[2024/10/02, 12:35:41.260],,31,111,17,,49,143,19,,75,336,27*7B
$GPGSV,5,4,17,,05,152,16,,68,[2024/10/02, 12:35:41.401]359,25,,56,180,22,,25,289,30*71
$GPGSV,5,5,17,,49,237,26*40
$GPGL[2024/10/02, 12:35:41.542]L,0114.3769,N,10338.6811,E,043539,A,D*42
$GPBOD,,T,,M,,*47
$GPBW[2024/10/02, 12:35:41.682]C,043539,,,,,,T,,M,,N,,D*76
$GPVTG,355.69,T,355.53,M,4.90,N,9.07,K[2024/10/02, 12:35:41.823],D*2C
$PGRME,16.02,M,19.49,M,25.23,M*28
$PGRMZ,22,f,3*2B
$PGRMM[2024/10/02, 12:35:41.963],WGS 84*06
$HCHDM,,M*07
$WIMWV,,R,,,A*6D
$GPAPB,V,V,,,N,V,V,,,,,[2024/10/02, 12:35:42.088],,,N*68
$GPZDA,043539,02,10,2024,-08,00*62
[2024/10/02, 12:35:42.291]$GPRMC,043541,A,0114.3795,N,10338.6812,E,4.91,354.06,021024[2024/10/02, 12:35:42.557],0.16,E,D*2B
$GPRMB,A,,,,,,,,,,,,V,D*19
$GPGGA,043541,0114.3795,N[2024/10/02, 12:35:42.697],10338.6812,E,2,16,0.72,5.26,M,9.58,M,,*49
$GPGSA,A,3,10,12,18,23,[2024/10/02, 12:35:42.838]25,28,29,32,,,,,1.23,0.72,0.99*0A
$GPGSV,5,1,17,10,17,342,26,12,2[2024/10/02, 12:35:42.979]2,091,17,18,72,177,22,23,38,020,23*74
$GPGSV,5,2,17,25,40,131,13,2[2024/10/02, 12:35:43.119]8,46,228,24,29,17,165,15,32,26,308,25*7E
$GPGSV,5,3,17,41,65,266,3[2024/10/02, 12:35:43.260]2,,31,111,16,,49,143,19,,75,336,27*7A
$GPGSV,5,4,17,,05,152,15,,68,[2024/10/02, 12:35:43.400]359,26,,56,180,20,,25,289,30*73
$GPGSV,5,5,17,,49,237,25*43
$GPG[2024/10/02, 12:35:43.541]LL,0114.3795,N,10338.6812,E,043541,A,D*4D
$GPBOD,,T,,M,,*47
$GPBW[2024/10/02, 12:35:43.682]C,043541,,,,,,T,,M,,N,,D*79
$GPVTG,354.06,T,353.90,M,4.91,N,9.09,K[2024/10/02, 12:35:43.822],D*22
$PGRME,16.03,M,19.47,M,25.22,M*26
$PGRMZ,17,f,3*2D
$PGRMM[2024/10/02, 12:35:43.963],WGS 84*06
$HCHDM,,M*07
$WIMWV,,R,,,A*6D
$GPAPB,V,V,,,N,V,V,,,,,[2024/10/02, 12:35:44.088],,,N*68
$GPZDA,043541,02,10,2024,-08,00*6D
[2024/10/02, 12:35:44.291]$GPRMC,043543,A,0114.3823,N,10338.6812,E,4.94,354.02,021024[2024/10/02, 12:35:44.557],0.16,E,D*2A
$GPRMB,A,,,,,,,,,,,,V,D*19
$GPGGA,043543,0114.3823,[2024/10/02, 12:35:44.697]N,10338.6812,E,2,16,0.72,3.97,M,9.58,M,,*45
$GPGSA,A,3,10,12,18,23[2024/10/02, 12:35:44.838],25,28,29,32,,,,,1.23,0.72,0.99*0A
$GPGSV,5,1,17,10,17,342,25,12,2[2024/10/02, 12:35:44.978]2,091,16,18,72,177,24,23,38,020,23*70
$GPGSV,5,2,17,25,40,131,14,2[2024/10/02, 12:35:45.119]8,46,228,25,29,17,165,15,32,26,308,25*78
$GPGSV,5,3,17,41,65,266,3[2024/10/02, 12:35:45.260]2,,31,111,16,,49,143,19,,75,336,27*7A
$GPGSV,5,4,17,,05,152,14,,68[2024/10/02, 12:35:45.400],359,24,,56,180,23,,25,289,30*73
$GPGSV,5,5,17,,49,237,26*40
$GPG[2024/10/02, 12:35:45.541]LL,0114.3823,N,10338.6812,E,043543,A,D*4D
$GPBOD,,T,,M,,*47
$GPBW[2024/10/02, 12:35:45.681]C,043543,,,,,,T,,M,,N,,D*7B
$GPVTG,354.02,T,353.86,M,4.94,N,9.14,K[2024/10/02, 12:35:45.822],D*28
$PGRME,16.05,M,19.68,M,25.40,M*29
$PGRMZ,13,f,3*29
$PGRMM[2024/10/02, 12:35:45.962],WGS 84*06
$HCHDM,,M*07
$WIMWV,,R,,,A*6D
$GPAPB,V,V,,,N,V,V,,,,[2024/10/02, 12:35:46.087],,,,N*68
$GPZDA,043543,02,10,2024,-08,00*6F
[2024/10/02, 12:35:46.290]$GPRMC,043545,A,0114.3852,N,10338.6809,E,5.01,354.15,02102[2024/10/02, 12:35:46.556]4,0.16,E,D*2B
$GPRMB,A,,,,,,,,,,,,V,D*19
$GPGGA,043545,0114.3852,[2024/10/02, 12:35:46.697]N,10338.6809,E,2,16,0.72,3.07,M,9.58,M,,*46
$GPGSA,A,3,10,12,18,23[2024/10/02, 12:35:46.837],25,28,29,32,,,,,1.23,0.72,0.99*0A
$GPGSV,5,1,17,10,17,342,25,12,2[2024/10/02, 12:35:46.978]2,091,16,18,72,177,25,23,38,020,22*70
$GPGSV,5,2,17,25,40,131,15,2[2024/10/02, 12:35:47.118]8,46,228,25,29,17,165,14,32,26,309,25*79
$GPGSV,5,3,17,41,65,266,3[2024/10/02, 12:35:47.259]2,,31,111,15,,49,143,21,,75,336,28*7D
$GPGSV,5,4,17,,05,152,14,,68[2024/10/02, 12:35:47.400],359,24,,56,180,21,,25,289,30*71
$GPGSV,5,5,17,,49,237,26*40
$GPG[2024/10/02, 12:35:47.540]LL,0114.3852,N,10338.6809,E,043545,A,D*47
$GPBOD,,T,,M,,*47
$GPBW[2024/10/02, 12:35:47.681]C,043545,,,,,,T,,M,,N,,D*7D
$GPVTG,354.15,T,353.99,M,5.01,N,9.28,[2024/10/02, 12:35:47.821]K,D*22
$PGRME,16.08,M,20.02,M,25.68,M*28
$PGRMZ,10,f,3*2A
$PGRMM[2024/10/02, 12:35:47.962],WGS 84*06
$HCHDM,,M*07
$WIMWV,,R,,,A*6D
$GPAPB,V,V,,,N,V,V,,,,[2024/10/02, 12:35:48.087],,,,N*68
$GPZDA,043545,02,10,2024,-08,00*69
[2024/10/02, 12:35:48.290]$GPRMC,043547,A,0114.3880,N,10338.6806,E,5.11,354.78,02102[2024/10/02, 12:35:48.555]4,0.16,E,D*23
$GPRMB,A,,,,,,,,,,,,V,D*19
$GPGGA,043547,0114.3880,[2024/10/02, 12:35:48.696]N,10338.6806,E,2,16,0.72,2.47,M,9.58,M,,*41
$GPGSA,A,3,10,12,18,23[2024/10/02, 12:35:48.837],25,28,29,32,,,,,1.23,0.72,0.99*0A
$GPGSV,5,1,17,10,17,342,25,12,2[2024/10/02, 12:35:48.977]2,091,18,18,72,177,22,23,38,020,23*78
$GPGSV,5,2,17,25,40,131,13,2[2024/10/02, 12:35:49.118]8,46,228,24,29,17,165,17,32,26,309,27*7F
$GPGSV,5,3,17,41,65,266,3[2024/10/02, 12:35:49.259]2,,31,111,15,,49,143,20,,75,336,28*7C
$GPGSV,5,4,17,,05,152,14,,68[2024/10/02, 12:35:49.399],359,25,,56,180,21,,25,289,31*71
$GPGSV,5,5,17,,49,237,26*40
$GPG[2024/10/02, 12:35:49.540]LL,0114.3880,N,10338.6806,E,043547,A,D*45
$GPBOD,,T,,M,,*47
$GPBW[2024/10/02, 12:35:49.680]C,043547,,,,,,T,,M,,N,,D*7F
$GPVTG,354.78,T,354.62,M,5.11,N,9.46,[2024/10/02, 12:35:49.821]K,D*23
$PGRME,16.10,M,20.06,M,25.72,M*2E
$PGRMZ,8,f,3*13
$PGRMM,[2024/10/02, 12:35:49.961]WGS 84*06
$HCHDM,,M*07
$WIMWV,,R,,,A*6D
$GPAPB,V,V,,,N,V,V,,,,,[2024/10/02, 12:35:50.086],,,N*68
$GPZDA,043547,02,10,2024,-08,00*6B
[2024/10/02, 12:35:50.290]$GPRMC,043549,A,0114.3908,N,10338.6805,E,5.13,356.70,02102[2024/10/02, 12:35:50.555]4,0.16,E,D*27
$GPRMB,A,,,,,,,,,,,,V,D*19
$GPGGA,043549,0114.3908,[2024/10/02, 12:35:50.696]N,10338.6805,E,2,16,0.72,1.54,M,9.58,M,,*4C
$GPGSA,A,3,10,12,18,23[2024/10/02, 12:35:50.836],25,28,29,32,,,,,1.23,0.72,0.99*0A
$GPGSV,5,1,17,10,17,342,24,12,2[2024/10/02, 12:35:50.977]2,091,15,18,72,177,23,23,38,020,25*73
$GPGSV,5,2,17,25,40,131,13,2[2024/10/02, 12:35:51.117]8,46,228,26,29,17,165,17,32,26,309,24*7E
$GPGSV,5,3,17,41,65,266,3[2024/10/02, 12:35:51.258]2,,31,111,16,,49,143,20,,75,336,27*70
$GPGSV,5,4,17,,05,152,14,,68[2024/10/02, 12:35:51.399],359,26,,56,180,22,,25,289,31*71
$GPGSV,5,5,17,,49,237,24*42
$GPG[2024/10/02, 12:35:51.539]LL,0114.3908,N,10338.6805,E,043549,A,D*49
$GPBOD,,T,,M,,*47
$GPB[2024/10/02, 12:35:51.680]WC,043549,,,,,,T,,M,,N,,D*71
$GPVTG,356.70,T,356.54,M,5.13,N,9.50,[2024/10/02, 12:35:51.820]K,D*2B
$PGRME,16.12,M,20.07,M,25.74,M*2B
$PGRMZ,5,f,3*1E
$PGRMM[2024/10/02, 12:35:51.961],WGS 84*06
$HCHDM,,M*07
$WIMWV,,R,,,A*6D
$GPAPB,V,V,,,N,V,V,,,,,[2024/10/02, 12:35:52.086],,,N*68
$GPZDA,043549,02,10,2024,-08,00*65
[2024/10/02, 12:35:52.289]$GPRMC,043551,A,0114.3935,N,10338.6802,E,5.13,348.36,02102[2024/10/02, 12:35:52.555]4,0.16,E,D*2A
$GPRMB,A,,,,,,,,,,,,V,D*19
$GPGGA,043551,0114.3935,[2024/10/02, 12:35:52.695]N,10338.6802,E,2,16,0.72,1.35,M,9.58,M,,*4B
$GPGSA,A,3,10,12,18,2[2024/10/02, 12:35:52.836]3,25,28,29,32,,,,,1.23,0.72,0.99*0A
$GPGSV,5,1,17,10,17,342,23,12,[2024/10/02, 12:35:52.976]22,091,14,18,72,177,24,23,38,020,26*71
$GPGSV,5,2,17,25,40,131,15,[2024/10/02, 12:35:53.117]28,46,228,25,29,17,165,18,32,26,309,26*76
$GPGSV,5,3,17,41,65,266,[2024/10/02, 12:35:53.257]32,,31,111,16,,49,143,17,,75,336,28*7B
$GPGSV,5,4,17,,05,152,14,,68[2024/10/02, 12:35:53.398],359,26,,56,180,19,,25,289,31*79
$GPGSV,5,5,17,,49,237,25*43
$GP[2024/10/02, 12:35:53.539]GLL,0114.3935,N,10338.6802,E,043551,A,D*49
$GPBOD,,T,,M,,*47
$GPB[2024/10/02, 12:35:53.679]WC,043551,,,,,,T,,M,,N,,D*78
$GPVTG,348.36,T,348.20,M,5.13,N,9.50,[2024/10/02, 12:35:53.820]K,D*2A
$PGRME,16.13,M,20.05,M,25.73,M*2F
$PGRMZ,4,f,3*1F
$PGRMM[2024/10/02, 12:35:53.960],WGS 84*06
$HCHDM,,M*07
$WIMWV,,R,,,A*6D
$GPAPB,V,V,,,N,V,V,,,,,[2024/10/02, 12:35:54.085],,,N*68
$GPZDA,043551,02,10,2024,-08,00*6C
[2024/10/02, 12:35:54.289]$GPRMC,043553,A,0114.3965,N,10338.6798,E,5.21,348.37,02102[2024/10/02, 12:35:54.554]4,0.16,E,D*21
$GPRMB,A,,,,,,,,,,,,V,D*19
$GPGGA,043553,0114.3965[2024/10/02, 12:35:54.695],N,10338.6798,E,2,16,0.72,0.80,M,9.58,M,,*4F
$GPGSA,A,3,10,12,18,2[2024/10/02, 12:35:54.835]3,25,28,29,32,,,,,1.23,0.72,0.99*0A
$GPGSV,5,1,17,10,17,342,25,12,[2024/10/02, 12:35:54.976]22,091,14,18,72,177,23,23,38,020,26*70
$GPGSV,5,2,17,25,40,131,16,[2024/10/02, 12:35:55.116]28,46,228,26,29,17,165,18,32,26,309,24*74
$GPGSV,5,3,17,41,65,266,[2024/10/02, 12:35:55.257]32,,31,111,14,,49,143,19,,74,336,28*76
$GPGSV,5,4,17,,05,152,13,,6[2024/10/02, 12:35:55.398]8,359,26,,56,180,21,,25,289,30*74
$GPGSV,5,5,17,,49,237,25*43
$GP[2024/10/02, 12:35:55.538]GLL,0114.3965,N,10338.6798,E,043553,A,D*42
$GPBOD,,T,,M,,*47
$GPB[2024/10/02, 12:35:55.679]WC,043553,,,,,,T,,M,,N,,D*7A
$GPVTG,348.37,T,348.21,M,5.21,N,9.64,[2024/10/02, 12:35:55.819]K,D*2C
$PGRME,16.15,M,20.17,M,25.84,M*22
$PGRMZ,3,f,3*18
$PGRMM[2024/10/02, 12:35:55.960],WGS 84*06
$HCHDM,,M*07
$WIMWV,,R,,,A*6D
$GPAPB,V,V,,,N,V,V,,,,[2024/10/02, 12:35:56.085],,,,N*68
$GPZDA,043553,02,10,2024,-08,00*6E
[2024/10/02, 12:35:56.288]$GPRMC,043555,A,0114.3991,N,10338.6803,E,5.14,7.94,021024[2024/10/02, 12:35:56.554],0.16,E,D*26
$GPRMB,A,,,,,,,,,,,,V,D*19
$GPGGA,043555,0114.3991,N[2024/10/02, 12:35:56.694],10338.6803,E,2,16,0.72,-1.00,M,9.58,M,,*6B
$GPGSA,A,3,10,12,18,23[2024/10/02, 12:35:56.835],25,28,29,32,,,,,1.23,0.72,0.99*0A
$GPGSV,5,1,17,10,17,342,24,12,2[2024/10/02, 12:35:56.975]2,091,14,18,72,177,21,23,38,020,26*73
$GPGSV,5,2,17,25,40,131,15,2[2024/10/02, 12:35:57.116]8,46,228,24,29,17,165,16,32,26,309,26*79
$GPGSV,5,3,17,41,65,266,3[2024/10/02, 12:35:57.257]2,,31,111,14,,49,143,20,,74,336,28*7C
$GPGSV,5,4,17,,05,152,14,,68[2024/10/02, 12:35:57.397],359,26,,56,180,20,,25,289,31*73
$GPGSV,5,5,17,,49,237,26*40
$GPG[2024/10/02, 12:35:57.538]LL,0114.3991,N,10338.6803,E,043555,A,D*42
$GPBOD,,T,,M,,*47
$GPBW[2024/10/02, 12:35:57.678]C,043555,,,,,,T,,M,,N,,D*7C
$GPVTG,7.94,T,7.78,M,5.14,N,9.51,K,D*[2024/10/02, 12:35:57.819]29
$PGRME,16.17,M,20.25,M,25.91,M*25
$PGRMZ,-3,f,3*35
$PGRMM,WG[2024/10/02, 12:35:57.960]S 84*06
$HCHDM,,M*07
$WIMWV,,R,,,A*6D
$GPAPB,V,V,,,N,V,V,,,,,,,,[2024/10/02, 12:35:58.069]N*68
$GPZDA,043555,02,10,2024,-08,00*68
[2024/10/02, 12:35:58.288]$GPRMC,043557,A,0114.4015,N,10338.6794,E,4.95,349.76,0210[2024/10/02, 12:35:58.553]24,0.16,E,D*2A
$GPRMB,A,,,,,,,,,,,,V,D*19
$GPGGA,043557,0114.4015[2024/10/02, 12:35:58.694],N,10338.6794,E,2,16,0.72,-2.56,M,9.58,M,,*6A
$GPGSA,A,3,10,12,18,[2024/10/02, 12:35:58.834]23,25,28,29,32,,,,,1.23,0.72,0.99*0A
$GPGSV,5,1,17,10,17,342,24,12[2024/10/02, 12:35:58.975],22,091,14,18,72,177,21,23,38,020,26*73
$GPGSV,5,2,17,25,40,131,15[2024/10/02, 12:35:59.115],28,46,228,26,29,17,165,15,32,26,309,23*7D
$GPGSV,5,3,17,41,65,266[2024/10/02, 12:35:59.256],32,,31,111,14,,49,143,18,,74,336,27*78
$GPGSV,5,4,17,,05,152,14,,[2024/10/02, 12:35:59.397]68,359,25,,56,180,19,,25,289,30*7B
$GPGSV,5,5,17,,49,237,24*42
$G[2024/10/02, 12:35:59.537]PGLL,0114.4015,N,10338.6794,E,043557,A,D*43
$GPBOD,,T,,M,,*47
$G[2024/10/02, 12:35:59.678]PBWC,043557,,,,,,T,,M,,N,,D*7E
$GPVTG,349.76,T,349.60,M,4.95,N,9.1[2024/10/02, 12:35:59.818]6,K,D*27
$PGRME,16.19,M,20.26,M,25.94,M*2D
$PGRMZ,-8,f,3*3E
$PGR[2024/10/02, 12:35:59.959]MM,WGS 84*06
$HCHDM,,M*07
$WIMWV,,R,,,A*6D
$GPAPB,V,V,,,N,V,V,,[2024/10/02, 12:36:00.084],,,,,,N*68
$GPZDA,043557,02,10,2024,-08,00*6A
[2024/10/02, 12:36:00.287]$GPRMC,043559,A,0114.4042,N,10338.6790,E,4.91,350.38,0210[2024/10/02, 12:36:00.553]24,0.16,E,D*24
$GPRMB,A,,,,,,,,,,,,V,D*19
$GPGGA,043559,0114.4042[2024/10/02, 12:36:00.693],N,10338.6790,E,2,16,0.72,-3.44,M,9.58,M,,*60
$GPGSA,A,3,10,12,18,[2024/10/02, 12:36:00.834]23,25,28,29,32,,,,,1.23,0.72,0.99*0A
$GPGSV,5,1,17,10,17,342,24,12[2024/10/02, 12:36:00.974],22,091,14,18,72,177,20,23,38,020,25*71
$GPGSV,5,2,17,25,40,131,15[2024/10/02, 12:36:01.115],28,46,228,24,29,17,165,17,32,26,309,25*7B
$GPGSV,5,3,17,41,65,266[2024/10/02, 12:36:01.256],32,,31,111,16,,49,143,17,,74,336,27*75
$GPGSV,5,4,17,,05,152,14,,[2024/10/02, 12:36:01.396]68,359,25,,56,180,20,,25,289,31*70
$GPGSV,5,5,17,,49,237,24*42
$[2024/10/02, 12:36:01.537]GPGLL,0114.4042,N,10338.6790,E,043559,A,D*4B
$GPBOD,,T,,M,,*47
$G[2024/10/02, 12:36:01.677]PBWC,043559,,,,,,T,,M,,N,,D*70
$GPVTG,350.38,T,350.22,M,4.91,N,9.0[2024/10/02, 12:36:01.818]9,K,D*21
$PGRME,16.22,M,20.31,M,25.99,M*2E
$PGRMZ,-11,f,3*06
$P[2024/10/02, 12:36:01.959]GRMM,WGS 84*06
$HCHDM,,M*07
$WIMWV,,R,,,A*6D
$GPAPB,V,V,,,N,V,V,[2024/10/02, 12:36:02.084],,,,,,,N*68
$GPZDA,043559,02,10,2024,-08,00*64
[2024/10/02, 12:36:02.287]$GPRMC,043601,A,0114.4071,N,10338.6793,E,4.74,9.27,021024[2024/10/02, 12:36:02.552],0.16,E,D*23
$GPRMB,A,,,,,,,,,,,,V,D*19
$GPGGA,043601,0114.4071,[2024/10/02, 12:36:02.693]N,10338.6793,E,2,16,0.72,-4.90,M,9.58,M,,*63
$GPGSA,A,3,10,12,18,2[2024/10/02, 12:36:02.833]3,25,28,29,32,,,,,1.23,0.72,0.99*0A
$GPGSV,5,1,17,10,17,342,26,12,[2024/10/02, 12:36:02.974]22,091,14,18,72,177,20,23,38,020,23*75
$GPGSV,5,2,17,25,40,131,14,[2024/10/02, 12:36:03.115]28,46,228,25,29,17,165,16,32,26,309,26*79
$GPGSV,5,3,17,41,65,266,[2024/10/02, 12:36:03.255]32,,31,111,15,,49,143,20,,74,336,27*72
$GPGSV,5,4,17,,05,152,15,,6[2024/10/02, 12:36:03.396]8,359,25,,56,180,20,,25,289,31*71
$GPGSV,5,5,17,,49,237,24*42
$GP[2024/10/02, 12:36:03.536]GLL,0114.4071,N,10338.6793,E,043601,A,D*46
$GPBOD,,T,,M,,*47
$GPB[2024/10/02, 12:36:03.677]WC,043601,,,,,,T,,M,,N,,D*7E
$GPVTG,9.27,T,9.11,M,4.74,N,8.79,K,D*[2024/10/02, 12:36:03.817]22
$PGRME,16.24,M,20.20,M,25.92,M*23
$PGRMZ,-16,f,3*01
$PGRMM,W[2024/10/02, 12:36:03.958]GS 84*06
$HCHDM,,M*07
$WIMWV,,R,,,A*6D
$GPAPB,V,V,,,N,V,V,,,,,,[2024/10/02, 12:36:04.067],,N*68
$GPZDA,043601,02,10,2024,-08,00*6A
[2024/10/02, 12:36:04.286]$GPRMC,043603,A,0114.4101,N,10338.6795,E,4.76,7.49,021024[2024/10/02, 12:36:04.552],0.16,E,D*25
$GPRMB,A,,,,,,,,,,,,V,D*19
$GPGGA,043603,0114.4101,[2024/10/02, 12:36:04.692]N,10338.6795,E,2,16,0.72,-6.50,M,9.58,M,,*6F
$GPGSA,A,3,10,12,18,2[2024/10/02, 12:36:04.833]3,25,28,29,32,,,,,1.23,0.72,0.99*0A
$GPGSV,5,1,17,10,17,342,25,12,[2024/10/02, 12:36:04.973]22,091,14,18,72,177,24,23,38,020,24*75
$GPGSV,5,2,17,25,40,131,15,[2024/10/02, 12:36:05.114]28,46,228,25,29,17,165,16,32,26,309,27*79
$GPGSV,5,3,17,41,65,266,[2024/10/02, 12:36:05.255]32,,31,111,15,,49,143,18,,74,336,27*79
$GPGSV,5,4,17,,05,152,16,,6[2024/10/02, 12:36:05.395]7,359,26,,56,180,23,,25,289,31*7D
$GPGSV,5,5,17,,49,237,25*43
$G[2024/10/02, 12:36:05.536]PGLL,0114.4101,N,10338.6795,E,043603,A,D*44
$GPBOD,,T,,M,,*47
$GP[2024/10/02, 12:36:05.676]BWC,043603,,,,,,T,,M,,N,,D*7C
$GPVTG,7.49,T,7.33,M,4.76,N,8.82,K,D[2024/10/02, 12:36:05.817]*2C
$PGRME,16.25,M,20.07,M,25.83,M*27
$PGRMZ,-21,f,3*05
$PGRMM,[2024/10/02, 12:36:05.958]WGS 84*06
$HCHDM,,M*07
$WIMWV,,R,,,A*6D
$GPAPB,V,V,,,N,V,V,,,,,,[2024/10/02, 12:36:06.067],,N*68
$GPZDA,043603,02,10,2024,-08,00*68
[2024/10/02, 12:36:06.286]$GPRMC,043605,A,0114.4127,N,10338.6791,E,4.91,355.26,021[2024/10/02, 12:36:06.551]024,0.16,E,D*27
$GPRMB,A,,,,,,,,,,,,V,D*19
$GPGGA,043605,0114.412[2024/10/02, 12:36:06.692]7,N,10338.6791,E,2,16,0.72,-7.55,M,9.58,M,,*6D
$GPGSA,A,3,10,12,18[2024/10/02, 12:36:06.832],23,25,28,29,32,,,,,1.23,0.72,0.99*0A
$GPGSV,5,1,17,10,17,342,25,1[2024/10/02, 12:36:06.973]2,22,091,13,18,72,177,22,23,38,020,23*73
$GPGSV,5,2,17,25,40,131,1[2024/10/02, 12:36:07.114]5,28,46,228,25,29,17,165,17,32,26,309,25*7A
$GPGSV,5,3,17,41,65,26[2024/10/02, 12:36:07.254]6,32,,31,111,17,,49,143,20,,74,336,27*70
$GPGSV,5,4,17,,05,152,16,[2024/10/02, 12:36:07.395],67,359,24,,56,180,21,,25,289,31*7D
$GPGSV,5,5,17,,49,237,26*40
$[2024/10/02, 12:36:07.535]GPGLL,0114.4127,N,10338.6791,E,043605,A,D*42
$GPBOD,,T,,M,,*47
$G[2024/10/02, 12:36:07.676]PBWC,043605,,,,,,T,,M,,N,,D*7A
$GPVTG,355.26,T,355.10,M,4.91,N,9.[2024/10/02, 12:36:07.817]10,K,D*27
$PGRME,16.27,M,19.80,M,25.63,M*2E
$PGRMZ,-25,f,3*01
$P[2024/10/02, 12:36:07.957]GRMM,WGS 84*06
$HCHDM,,M*07
$WIMWV,,R,,,A*6D
$GPAPB,V,V,,,N,V,V[2024/10/02, 12:36:08.082],,,,,,,,N*68
$GPZDA,043605,02,10,2024,-08,00*6E
[2024/10/02, 12:36:08.285]$GPRMC,043607,A,0114.4152,N,10338.6788,E,4.88,354.26,021[2024/10/02, 12:36:08.551]024,0.16,E,D*26
$GPRMB,A,,,,,,,,,,,,V,D*19
$GPGGA,043607,0114.415[2024/10/02, 12:36:08.691]2,N,10338.6788,E,2,16,0.72,-8.79,M,9.58,M,,*64
$GPGSA,A,3,10,12,1[2024/10/02, 12:36:08.832]8,23,25,28,29,32,,,,,1.23,0.72,0.99*0A
$GPGSV,5,1,17,10,17,342,26,[2024/10/02, 12:36:08.973]12,22,091,17,18,72,177,22,23,38,020,21*76
$GPGSV,5,2,17,25,40,131,[2024/10/02, 12:36:09.113]15,28,46,228,25,29,17,165,16,32,26,309,25*7B
$GPGSV,5,3,17,41,65,2[2024/10/02, 12:36:09.254]66,32,,31,111,16,,49,143,20,,74,336,28*7E
$GPGSV,5,4,17,,05,152,16[2024/10/02, 12:36:09.395],,67,359,25,,56,180,23,,25,289,31*7E
$GPGSV,5,5,17,,49,237,26*40
[2024/10/02, 12:36:09.535]$GPGLL,0114.4152,N,10338.6788,E,043607,A,D*4A
$GPBOD,,T,,M,,*47
$[2024/10/02, 12:36:09.675]GPBWC,043607,,,,,,T,,M,,N,,D*78
$GPVTG,354.26,T,354.10,M,4.88,N,9.[2024/10/02, 12:36:09.816]04,K,D*2A
$PGRME,16.28,M,19.56,M,25.45,M*2E
$PGRMZ,-29,f,3*0D
$[2024/10/02, 12:36:09.957]PGRMM,WGS 84*06
$HCHDM,,M*07
$WIMWV,,R,,,A*6D
$GPAPB,V,V,,,N,V,V[2024/10/02, 12:36:10.082],,,,,,,,N*68
$GPZDA,043607,02,10,2024,-08,00*6C
[2024/10/02, 12:36:10.285]$GPRMC,043609,A,0114.4180,N,10338.6784,E,4.94,345.48,021[2024/10/02, 12:36:10.550]024,0.16,E,D*2E
$GPRMB,A,,,,,,,,,,,,V,D*19
$GPGGA,043609,0114.418[2024/10/02, 12:36:10.691]0,N,10338.6784,E,2,16,0.72,-9.69,M,9.58,M,,*69
$GPGSA,A,3,10,12,18[2024/10/02, 12:36:10.832],23,25,28,29,32,,,,,1.23,0.72,0.99*0A
$GPGSV,5,1,17,10,17,342,25,[2024/10/02, 12:36:10.972]12,22,091,14,18,72,177,22,23,38,020,21*76
$GPGSV,5,2,17,25,40,131,1[2024/10/02, 12:36:11.113]3,28,46,228,26,29,17,165,15,32,26,309,25*7D
$GPGSV,5,3,17,41,65,26[2024/10/02, 12:36:11.253]6,32,,31,111,18,,49,143,19,,74,336,28*7A
$GPGSV,5,4,17,,05,152,16,[2024/10/02, 12:36:11.394],67,359,24,,56,180,22,,25,289,31*7E
$GPGSV,5,5,17,,49,237,25*43
[2024/10/02, 12:36:11.534]$GPGLL,0114.4180,N,10338.6784,E,043609,A,D*47
$GPBOD,,T,,M,,*47
$[2024/10/02, 12:36:11.675]GPBWC,043609,,,,,,T,,M,,N,,D*76
$GPVTG,345.48,T,345.32,M,4.94,N,9.[2024/10/02, 12:36:11.816]14,K,D*2E
$PGRME,16.29,M,19.37,M,25.31,M*2B
$PGRMZ,-32,f,3*07
$[2024/10/02, 12:36:11.956]PGRMM,WGS 84*06
$HCHDM,,M*07
$WIMWV,,R,,,A*6D
$GPAPB,V,V,,,N,V,V[2024/10/02, 12:36:12.081],,,,,,,,N*68
$GPZDA,043609,02,10,2024,-08,00*62
[2024/10/02, 12:36:12.284]$GPRMC,043611,A,0114.4209,N,10338.6786,E,4.99,0.87,02102[2024/10/02, 12:36:12.550]4,0.16,E,D*2B
$GPRMB,A,,,,,,,,,,,,V,D*19
$GPGGA,043611,0114.4209[2024/10/02, 12:36:12.690],N,10338.6786,E,2,16,0.72,-10.07,M,9.58,M,,*50
$GPGSA,A,3,10,12,18[2024/10/02, 12:36:12.831],23,25,28,29,32,,,,,1.23,0.72,0.99*0A
$GPGSV,5,1,17,10,17,342,25,1[2024/10/02, 12:36:12.972]2,22,091,14,18,72,177,21,23,38,020,24*70
$GPGSV,5,2,17,25,40,131,1[2024/10/02, 12:36:13.112]5,28,46,228,26,29,17,165,15,32,26,309,26*78
$GPGSV,5,3,17,41,65,26[2024/10/02, 12:36:13.253]6,32,,31,111,18,,49,143,21,,74,336,27*7E
$GPGSV,5,4,17,,05,152,16,[2024/10/02, 12:36:13.393],67,359,23,,57,180,19,,25,289,31*70
$GPGSV,5,5,17,,49,237,25*43
$[2024/10/02, 12:36:13.534]GPGLL,0114.4209,N,10338.6786,E,043611,A,D*4E
$GPBOD,,T,,M,,*47
$[2024/10/02, 12:36:13.675]GPBWC,043611,,,,,,T,,M,,N,,D*7F
$GPVTG,0.87,T,0.71,M,4.99,N,9.24,K[2024/10/02, 12:36:13.815],D*24
$PGRME,16.30,M,19.26,M,25.23,M*20
$PGRMZ,-33,f,3*06
$PGRM[2024/10/02, 12:36:13.956]M,WGS 84*06
$HCHDM,,M*07
$WIMWV,,R,,,A*6D
$GPAPB,V,V,,,N,V,V,,,,[2024/10/02, 12:36:14.081],,,,N*68
$GPZDA,043611,02,10,2024,-08,00*6B
[2024/10/02, 12:36:14.284]$GPRMC,043613,A,0114.4239,N,10338.6784,E,5.12,0.13,02102[2024/10/02, 12:36:14.549]4,0.16,E,D*27
$GPRMB,A,,,,,,,,,,,,V,D*19
$GPGGA,043613,0114.4239[2024/10/02, 12:36:14.690],N,10338.6784,E,2,16,0.72,-9.76,M,9.58,M,,*6D
$GPGSA,A,3,10,12,18[2024/10/02, 12:36:14.831],23,25,28,29,32,,,,,1.23,0.72,0.99*0A
$GPGSV,5,1,17,10,17,342,25,12[2024/10/02, 12:36:14.971],22,091,14,18,72,177,22,23,38,020,26*71
$GPGSV,5,2,17,25,40,131,1[2024/10/02, 12:36:15.112]3,28,46,228,25,29,17,165,16,32,26,309,23*7B
$GPGSV,5,3,17,41,65,266[2024/10/02, 12:36:15.252],32,,31,111,16,,49,143,19,,74,336,27*7B
$GPGSV,5,4,17,,05,152,14,,[2024/10/02, 12:36:15.393]67,359,24,,57,180,19,,25,289,31*75
$GPGSV,5,5,17,,49,237,24*42
$[2024/10/02, 12:36:15.533]GPGLL,0114.4239,N,10338.6784,E,043613,A,D*4D
$GPBOD,,T,,M,,*47
$G[2024/10/02, 12:36:15.674]PBWC,043613,,,,,,T,,M,,N,,D*7D
$GPVTG,0.13,T,359.97,M,5.12,N,9.49,[2024/10/02, 12:36:15.815]K,D*27
$PGRME,16.30,M,19.59,M,25.49,M*24
$PGRMZ,-32,f,3*07
$PGR[2024/10/02, 12:36:15.955]MM,WGS 84*06
$HCHDM,,M*07
$WIMWV,,R,,,A*6D
$GPAPB,V,V,,,N,V,V,,[2024/10/02, 12:36:16.080],,,,,,N*68
$GPZDA,043613,02,10,2024,-08,00*69
[2024/10/02, 12:36:16.283]$GPRMC,043615,A,0114.4270,N,10338.6785,E,5.25,3.99,0210[2024/10/02, 12:36:16.549]24,0.16,E,D*28
$GPRMB,A,,,,,,,,,,,,V,D*19
$GPGGA,043615,0114.427[2024/10/02, 12:36:16.689]0,N,10338.6785,E,2,16,0.72,-10.09,M,9.58,M,,*57
$GPGSA,A,3,10,12,1[2024/10/02, 12:36:16.830]8,23,25,28,29,32,,,,,1.23,0.72,0.99*0A
$GPGSV,5,1,17,10,17,342,23,[2024/10/02, 12:36:16.971]12,22,091,14,18,72,177,23,23,38,020,26*76
$GPGSV,5,2,17,25,40,131,[2024/10/02, 12:36:17.111]15,28,46,228,25,29,17,165,16,32,26,309,25*7B
$GPGSV,5,3,17,41,65,2[2024/10/02, 12:36:17.252]66,32,,31,111,14,,49,143,18,,74,336,27*78
$GPGSV,5,4,17,,05,152,14[2024/10/02, 12:36:17.392],,67,359,26,,57,180,18,,26,289,31*75
$GPGSV,5,5,17,,48,236,25*43
[2024/10/02, 12:36:17.533]$GPGLL,0114.4270,N,10338.6785,E,043615,A,D*47
$GPBOD,,T,,M,,*47
$[2024/10/02, 12:36:17.674]GPBWC,043615,,,,,,T,,M,,N,,D*7B
$GPVTG,3.99,T,3.83,M,5.25,N,9.72,[2024/10/02, 12:36:17.814]K,D*23
$PGRME,16.32,M,19.89,M,25.73,M*22
$PGRMZ,-33,f,3*06
$PGRM[2024/10/02, 12:36:17.955]M,WGS 84*06
$HCHDM,,M*07
$WIMWV,,R,,,A*6D
$GPAPB,V,V,,,N,V,V,,,[2024/10/02, 12:36:18.080],,,,,N*68
$GPZDA,043615,02,10,2024,-08,00*6F
[2024/10/02, 12:36:18.283]$GPRMC,043617,A,0114.4300,N,10338.6772,E,5.30,341.23,02[2024/10/02, 12:36:18.548]1024,0.16,E,D*24
$GPRMB,A,,,,,,,,,,,,V,D*19
$GPGGA,043617,0114.43[2024/10/02, 12:36:18.689]00,N,10338.6772,E,2,16,0.72,-9.14,M,9.58,M,,*6F
$GPGSA,A,3,10,12,1[2024/10/02, 12:36:18.830]8,23,25,28,29,32,,,,,1.23,0.72,0.99*0A
$GPGSV,5,1,17,10,17,342,23,[2024/10/02, 12:36:18.970]12,22,091,14,18,72,177,21,23,38,020,23*71
$GPGSV,5,2,17,25,40,131,[2024/10/02, 12:36:19.111]15,28,46,228,23,29,17,165,16,32,26,309,24*7C
$GPGSV,5,3,17,41,65,2[2024/10/02, 12:36:19.251]66,32,,31,111,15,,49,143,20,,74,336,27*72
$GPGSV,5,4,17,,05,152,14[2024/10/02, 12:36:19.392],,67,359,25,,57,180,20,,26,289,31*7D
$GPGSV,5,5,17,,48,236,25*43
[2024/10/02, 12:36:19.533]$GPGLL,0114.4300,N,10338.6772,E,043617,A,D*4B
$GPBOD,,T,,M,,*47
[2024/10/02, 12:36:19.673]$GPBWC,043617,,,,,,T,,M,,N,,D*79
$GPVTG,341.23,T,341.07,M,5.30,N,9[2024/10/02, 12:36:19.814].82,K,D*25
$PGRME,16.33,M,20.03,M,25.85,M*22
$PGRMZ,-30,f,3*05
$[2024/10/02, 12:36:19.954]PGRMM,WGS 84*06
$HCHDM,,M*07
$WIMWV,,R,,,A*6D
$GPAPB,V,V,,,N,V,[2024/10/02, 12:36:20.079]V,,,,,,,,N*68
$GPZDA,043617,02,10,2024,-08,00*6D
[2024/10/02, 12:36:20.282]$GPRMC,043619,A,0114.4332,N,10338.6774,E,5.36,1.02,0210[2024/10/02, 12:36:20.548]24,0.16,E,D*2F
$GPRMB,A,,,,,,,,,,,,V,D*19
$GPGGA,043619,0114.4332[2024/10/02, 12:36:20.689],N,10338.6774,E,2,16,0.72,-9.33,M,9.58,M,,*63
$GPGSA,A,3,10,12,18[2024/10/02, 12:36:20.829],23,25,28,29,32,,,,,1.23,0.72,0.99*0A
$GPGSV,5,1,17,10,17,342,26,1[2024/10/02, 12:36:20.970]2,22,091,14,18,72,177,23,23,38,020,23*76
$GPGSV,5,2,17,25,40,131,1[2024/10/02, 12:36:21.110]3,28,46,228,26,29,17,165,17,32,26,309,25*7F
$GPGSV,5,3,17,41,65,26[2024/10/02, 12:36:21.251]6,32,,31,111,15,,49,143,20,,74,336,27*72
$GPGSV,5,4,17,,05,152,15,[2024/10/02, 12:36:21.391],67,359,25,,57,180,22,,26,289,30*7F
$GPGSV,5,5,17,,48,236,26*40
$[2024/10/02, 12:36:21.532]GPGLL,0114.4332,N,10338.6774,E,043619,A,D*42
$GPBOD,,T,,M,,*47
$G[2024/10/02, 12:36:21.673]PBWC,043619,,,,,,T,,M,,N,,D*77
$GPVTG,1.02,T,0.86,M,5.36,N,9.93,K,[2024/10/02, 12:36:21.813]D*28
$PGRME,16.35,M,20.15,M,25.95,M*22
$PGRMZ,-31,f,3*04
$PGRMM[2024/10/02, 12:36:21.954],WGS 84*06
$HCHDM,,M*07
$WIMWV,,R,,,A*6D
$GPAPB,V,V,,,N,V,V,,,,,[2024/10/02, 12:36:22.079],,,N*68
$GPZDA,043619,02,10,2024,-08,00*63
[2024/10/02, 12:36:22.282]$GPRMC,043621,A,0114.4361,N,10338.6776,E,5.34,4.68,0210[2024/10/02, 12:36:22.547]24,0.16,E,D*2B
$GPRMB,A,,,,,,,,,,,,V,D*19
$GPGGA,043621,0114.436[2024/10/02, 12:36:22.688]1,N,10338.6776,E,2,16,0.72,-10.50,M,9.58,M,,*51
$GPGSA,A,3,10,12,1[2024/10/02, 12:36:22.829]8,23,25,28,29,32,,,,,1.23,0.72,0.99*0A
$GPGSV,5,1,17,10,17,342,25,[2024/10/02, 12:36:22.969]12,22,091,16,18,72,177,23,23,38,020,22*76
$GPGSV,5,2,17,25,40,131,[2024/10/02, 12:36:23.110]13,28,46,228,23,29,17,165,17,32,26,309,23*7C
$GPGSV,5,3,17,41,65,2[2024/10/02, 12:36:23.250]66,32,,31,111,17,,49,143,19,,74,336,27*7A
$GPGSV,5,4,17,,05,152,14[2024/10/02, 12:36:23.391],,67,359,25,,57,180,24,,26,289,30*78
$GPGSV,5,5,17,,48,236,27*41
[2024/10/02, 12:36:23.532]$GPGLL,0114.4361,N,10338.6776,E,043621,A,D*4D
$GPBOD,,T,,M,,*47
$[2024/10/02, 12:36:23.672]GPBWC,043621,,,,,,T,,M,,N,,D*7C
$GPVTG,4.68,T,4.52,M,5.34,N,9.89,[2024/10/02, 12:36:23.813]K,D*25
$PGRME,16.37,M,20.28,M,26.06,M*27
$PGRMZ,-34,f,3*01
$PGR[2024/10/02, 12:36:23.953]MM,WGS 84*06
$HCHDM,,M*07
$WIMWV,,R,,,A*6D
$GPAPB,V,V,,,N,V,V,,,[2024/10/02, 12:36:24.078],,,,,N*68
$GPZDA,043621,02,10,2024,-08,00*68
[2024/10/02, 12:36:24.281]$GPRMC,043623,A,0114.4388,N,10338.6768,E,5.31,341.79,02[2024/10/02, 12:36:24.547]1024,0.16,E,D*26
$GPRMB,A,,,,,,,,,,,,V,D*19
$GPGGA,043623,0114.4[2024/10/02, 12:36:24.688]388,N,10338.6768,E,2,16,0.72,-10.47,M,9.58,M,,*5D
$GPGSA,A,3,10,12[2024/10/02, 12:36:24.828],18,23,25,28,29,32,,,,,1.23,0.72,0.99*0A
$GPGSV,5,1,17,10,17,342,2[2024/10/02, 12:36:24.969]5,12,22,091,17,18,72,177,22,23,38,020,22*76
$GPGSV,5,2,17,25,40,13[2024/10/02, 12:36:25.109]1,14,28,46,228,23,29,17,165,17,32,26,309,22*7A
$GPGSV,5,3,17,41,65[2024/10/02, 12:36:25.250],266,32,,31,111,17,,49,143,19,,74,336,27*7A
$GPGSV,5,4,17,,05,152,[2024/10/02, 12:36:25.391]14,,67,359,25,,57,180,24,,26,289,30*78
$GPGSV,5,5,17,,48,236,26*40[2024/10/02, 12:36:25.531]
$GPGLL,0114.4388,N,10338.6768,E,043623,A,D*47
$GPBOD,,T,,M,,*47[2024/10/02, 12:36:25.672]
$GPBWC,043623,,,,,,T,,M,,N,,D*7E
$GPVTG,341.79,T,341.63,M,5.31,N[2024/10/02, 12:36:25.812],9.84,K,D*2F
$PGRME,16.39,M,20.54,M,26.28,M*2E
$PGRMZ,-34,f,3*01[2024/10/02, 12:36:25.953]
$PGRMM,WGS 84*06
$HCHDM,,M*07
$WIMWV,,R,,,A*6D
$GPAPB,V,V,,,N,[2024/10/02, 12:36:26.093]V,V,,,,,,,,N*68
$GPZDA,043623,02,10,2024,-08,00*6A
[2024/10/02, 12:36:26.281]$GPRMC,043625,A,0114.4417,N,10338.6768,E,5.29,343.53,0[2024/10/02, 12:36:26.546]21024,0.16,E,D*22
$GPRMB,A,,,,,,,,,,,,V,D*19
$GPGGA,043625,0114.4[2024/10/02, 12:36:26.687]417,N,10338.6768,E,2,16,0.72,-10.89,M,9.58,M,,*58
$GPGSA,A,3,10,1[2024/10/02, 12:36:26.828]2,18,23,25,28,29,32,,,,,1.23,0.72,0.99*0A
$GPGSV,5,1,17,10,17,342,[2024/10/02, 12:36:26.968]26,12,22,091,16,18,72,177,24,23,38,020,22*72
$GPGSV,5,2,17,25,40,1[2024/10/02, 12:36:27.109]31,14,28,46,228,25,29,17,165,17,32,26,309,26*78
$GPGSV,5,3,17,41,6[2024/10/02, 12:36:27.249]5,266,32,,31,111,17,,49,143,18,,74,336,27*7B
$GPGSV,5,4,17,,05,152,[2024/10/02, 12:36:27.390]14,,67,359,25,,57,180,22,,26,289,29*76
$GPGSV,5,5,17,,48,236,26*40[2024/10/02, 12:36:27.531]
$GPGLL,0114.4417,N,10338.6768,E,043625,A,D*40
$GPBOD,,T,,M,,*47[2024/10/02, 12:36:27.671]
$GPBWC,043625,,,,,,T,,M,,N,,D*78
$GPVTG,343.53,T,343.37,M,5.29,N[2024/10/02, 12:36:27.812],9.79,K,D*2D
$PGRME,16.41,M,20.74,M,26.44,M*29
$PGRMZ,-36,f,3*03[2024/10/02, 12:36:27.952]
$PGRMM,WGS 84*06
$HCHDM,,M*07
$WIMWV,,R,,,A*6D
$GPAPB,V,V,,,N,[2024/10/02, 12:36:28.093]V,V,,,,,,,,N*68
$GPZDA,043625,02,10,2024,-08,00*6C
[2024/10/02, 12:36:28.280]$GPRMC,043627,A,0114.4445,N,10338.6776,E,5.13,8.51,021[2024/10/02, 12:36:28.546]024,0.16,E,D*2F
$GPRMB,A,,,,,,,,,,,,V,D*19
$GPGGA,043627,0114.444[2024/10/02, 12:36:28.687]5,N,10338.6776,E,2,16,0.72,-12.58,M,9.58,M,,*5C
$GPGSA,A,3,10,12,[2024/10/02, 12:36:28.827]18,23,25,28,29,32,,,,,1.23,0.72,0.99*0A
$GPGSV,5,1,17,10,17,342,26[2024/10/02, 12:36:28.968],12,22,091,16,18,72,177,23,23,38,020,22*75
$GPGSV,5,2,17,25,40,131[2024/10/02, 12:36:29.108],14,28,46,228,26,29,17,165,15,32,26,309,24*7B
$GPGSV,5,3,17,41,65,[2024/10/02, 12:36:29.249]266,32,,31,111,16,,49,143,19,,74,336,27*7B
$GPGSV,5,4,17,,05,152,1[2024/10/02, 12:36:29.390]4,,67,359,25,,57,180,22,,26,289,30*7E
$GPGSV,5,5,17,,48,236,26*40[2024/10/02, 12:36:29.530]
$GPGLL,0114.4445,N,10338.6776,E,043627,A,D*4A
$GPBOD,,T,,M,,*47
[2024/10/02, 12:36:29.671]$GPBWC,043627,,,,,,T,,M,,N,,D*7A
$GPVTG,8.51,T,8.35,M,5.13,N,9.50[2024/10/02, 12:36:29.811],K,D*2F
$PGRME,16.43,M,20.73,M,26.45,M*2D
$PGRMZ,-41,f,3*03
$PGR[2024/10/02, 12:36:29.952]MM,WGS 84*06
$HCHDM,,M*07
$WIMWV,,R,,,A*6D
$GPAPB,V,V,,,N,V,V,,[2024/10/02, 12:36:30.077],,,,,,N*68
$GPZDA,043627,02,10,2024,-08,00*6E
[2024/10/02, 12:36:30.280]$GPRMC,043629,A,0114.4473,N,10338.6770,E,5.09,345.23,0[2024/10/02, 12:36:30.546]21024,0.16,E,D*26
$GPRMB,A,,,,,,,,,,,,V,D*19
$GPGGA,043629,0114.4[2024/10/02, 12:36:30.686]473,N,10338.6770,E,2,16,0.72,-12.80,M,9.58,M,,*54
$GPGSA,A,3,10,1[2024/10/02, 12:36:30.827]2,18,23,25,28,29,32,,,,,1.23,0.72,0.99*0A
$GPGSV,5,1,17,10,17,342,[2024/10/02, 12:36:30.967]26,12,22,091,16,18,72,177,21,23,38,020,24*71
$GPGSV,5,2,17,25,40,1[2024/10/02, 12:36:31.108]31,14,28,46,228,26,29,17,165,17,32,26,309,25*78
$GPGSV,5,3,17,41,6[2024/10/02, 12:36:31.248]5,266,32,,31,111,16,,49,143,19,,74,336,27*7B
$GPGSV,5,4,17,,05,152[2024/10/02, 12:36:31.389],14,,67,359,26,,57,180,22,,26,289,30*7D
$GPGSV,5,5,17,,48,236,26*4[2024/10/02, 12:36:31.527]0
$GPGLL,0114.4473,N,10338.6770,E,043629,A,D*47
$GPBOD,,T,,M,,*4