[2024/10/02, 12:37:40.286]$GPRMC,043739,A,0114.4878,N,10338.7450,E,3.72,184.00,0210[2024/10/02, 12:37:40.551]24,0.16,E,D*25
$GPRMB,A,,,,,,,,,,,,V,D*19
$GPGGA,043739,0114.4878[2024/10/02, 12:37:40.692],N,10338.7450,E,2,15,0.74,1.80,M,9.57,M,,*46
$GPGSA,A,3,10,12,18,2[2024/10/02, 12:37:40.833]3,25,28,29,32,,,,,1.39,0.74,1.18*0F
$GPGSV,5,1,17,10,18,342,17,12,[2024/10/02, 12:37:40.973]22,090,31,18,71,177,29,23,39,020,19*7C
$GPGSV,5,2,17,25,40,130,29,[2024/10/02, 12:37:41.114]28,46,228,21,29,17,165,24,32,25,310,18*75
$GPGSV,5,3,17,41,65,266,[2024/10/02, 12:37:41.254]26,,31,111,28,,49,143,28,,74,336,22*74
$GPGSV,5,4,17,,04,152,21,,6[2024/10/02, 12:37:41.395]7,359,19,,57,180,28,,26,288,19*76
$GPGSV,5,5,17,,48,236,23*45
$GP[2024/10/02, 12:37:41.536]GLL,0114.4878,N,10338.7450,E,043739,A,D*40
$GPBOD,,T,,M,,*47
$GP[2024/10/02, 12:37:41.676]BWC,043739,,,,,,T,,M,,N,,D*74
$GPVTG,184.00,T,183.84,M,3.72,N,6.88[2024/10/02, 12:37:41.817],K,D*2D
$PGRME,15.62,M,18.29,M,24.06,M*2C
$PGRMZ,6,f,3*1D
$PGRM[2024/10/02, 12:37:41.957]M,WGS 84*06
$HCHDM,,M*07
$WIMWV,,R,,,A*6D
$GPAPB,V,V,,,N,V,V,,,,[2024/10/02, 12:37:42.082],,,,N*68
$GPZDA,043739,02,10,2024,-08,00*60
[2024/10/02, 12:37:42.285]$GPRMC,043741,A,0114.4856,N,10338.7447,E,3.59,190.19,0210[2024/10/02, 12:37:42.551]24,0.16,E,D*24
$GPRMB,A,,,,,,,,,,,,V,D*19
$GPGGA,043741,0114.4856[2024/10/02, 12:37:42.692],N,10338.7447,E,2,15,0.74,1.03,M,9.57,M,,*48
$GPGSA,A,3,10,12,18,2[2024/10/02, 12:37:42.832]3,25,28,29,32,,,,,1.39,0.74,1.18*0F
$GPGSV,5,1,17,10,18,342,19,12[2024/10/02, 12:37:42.973],22,090,31,18,71,177,29,23,39,020,20*78
$GPGSV,5,2,17,25,40,130,29,[2024/10/02, 12:37:43.113]28,46,228,23,29,17,165,22,32,25,310,18*71
$GPGSV,5,3,17,41,65,266,[2024/10/02, 12:37:43.254]27,,31,111,28,,49,143,28,,74,336,20*77
$GPGSV,5,4,17,,04,152,19,,6[2024/10/02, 12:37:43.395]7,359,21,,57,180,28,,26,288,19*76
$GPGSV,5,5,17,,48,236,25*43
$G[2024/10/02, 12:37:43.535]PGLL,0114.4856,N,10338.7447,E,043741,A,D*45
$GPBOD,,T,,M,,*47
$GP[2024/10/02, 12:37:43.676]BWC,043741,,,,,,T,,M,,N,,D*7B
$GPVTG,190.19,T,190.03,M,3.59,N,6.66[2024/10/02, 12:37:43.816],K,D*24
$PGRME,15.64,M,18.64,M,24.33,M*25
$PGRMZ,3,f,3*18
$PGRM[2024/10/02, 12:37:43.957]M,WGS 84*06
$HCHDM,,M*07
$WIMWV,,R,,,A*6D
$GPAPB,V,V,,,N,V,V,,,,[2024/10/02, 12:37:44.082],,,,N*68
$GPZDA,043741,02,10,2024,-08,00*6F
[2024/10/02, 12:37:44.285]$GPRMC,043743,A,0114.4834,N,10338.7449,E,3.61,184.04,0210[2024/10/02, 12:37:44.551]24,0.16,E,D*2E
$GPRMB,A,,,,,,,,,,,,V,D*19
$GPGGA,043743,0114.483[2024/10/02, 12:37:44.691]4,N,10338.7449,E,2,15,0.74,-0.14,M,9.57,M,,*6A
$GPGSA,A,3,10,12,18[2024/10/02, 12:37:44.832],23,25,28,29,32,,,,,1.39,0.74,1.18*0F
$GPGSV,5,1,17,10,18,342,19,1[2024/10/02, 12:37:44.972]2,22,090,31,18,71,177,29,23,39,020,19*72
$GPGSV,5,2,17,25,40,130,2[2024/10/02, 12:37:45.113]9,28,46,228,23,29,17,165,22,32,25,310,16*7F
$GPGSV,5,3,17,41,65,26[2024/10/02, 12:37:45.254]6,27,,31,111,28,,49,143,27,,74,336,21*79
$GPGSV,5,4,17,,04,152,19,[2024/10/02, 12:37:45.394],67,359,22,,57,180,28,,26,288,19*75
$GPGSV,5,5,17,,48,236,22*44
$[2024/10/02, 12:37:45.535]GPGLL,0114.4834,N,10338.7449,E,043743,A,D*4D
$GPBOD,,T,,M,,*47
$G[2024/10/02, 12:37:45.675]PBWC,043743,,,,,,T,,M,,N,,D*79
$GPVTG,184.04,T,183.88,M,3.61,N,6.6[2024/10/02, 12:37:45.816]8,K,D*29
$PGRME,15.67,M,19.19,M,24.77,M*2D
$PGRMZ,0,f,3*1B
$PGR[2024/10/02, 12:37:45.956]MM,WGS 84*06
$HCHDM,,M*07
$WIMWV,,R,,,A*6D
$GPAPB,V,V,,,N,V,V,,,[2024/10/02, 12:37:46.081],,,,,N*68
$GPZDA,043743,02,10,2024,-08,00*6D
[2024/10/02, 12:37:46.284]$GPRMC,043745,A,0114.4811,N,10338.7445,E,3.73,184.32,0210[2024/10/02, 12:37:46.550]24,0.16,E,D*25
$GPRMB,A,,,,,,,,,,,,V,D*19
$GPGGA,043745,0114.481[2024/10/02, 12:37:46.691]1,N,10338.7445,E,2,15,0.74,-1.71,M,9.57,M,,*65
$GPGSA,A,3,10,12,18[2024/10/02, 12:37:46.831],23,25,28,29,32,,,,,1.39,0.74,1.18*0F
$GPGSV,5,1,17,10,18,342,18,1[2024/10/02, 12:37:46.972]2,22,090,30,18,71,177,29,23,39,020,18*73
$GPGSV,5,2,17,25,40,130,3[2024/10/02, 12:37:47.112]0,28,46,228,23,29,17,165,22,32,25,310,18*79
$GPGSV,5,3,17,41,65,26[2024/10/02, 12:37:47.253]6,27,,31,111,28,,49,143,28,,74,336,21*76
$GPGSV,5,4,17,,04,152,17,[2024/10/02, 12:37:47.394],67,359,21,,57,180,28,,26,288,19*78
$GPGSV,5,5,17,,48,236,25*43
$[2024/10/02, 12:37:47.534]GPGLL,0114.4811,N,10338.7445,E,043745,A,D*40
$GPBOD,,T,,M,,*47
$G[2024/10/02, 12:37:47.675]PBWC,043745,,,,,,T,,M,,N,,D*7F
$GPVTG,184.32,T,184.16,M,3.73,N,6.9[2024/10/02, 12:37:47.815]1,K,D*29
$PGRME,15.69,M,19.74,M,25.22,M*29
$PGRMZ,-6,f,3*30
$P[2024/10/02, 12:37:47.956]GRMM,WGS 84*06
$HCHDM,,M*07
$WIMWV,,R,,,A*6D
$GPAPB,V,V,,,N,V,V,[2024/10/02, 12:37:48.081],,,,,,,N*68
$GPZDA,043745,02,10,2024,-08,00*6B
[2024/10/02, 12:37:48.284]$GPRMC,043747,A,0114.4791,N,10338.7441,E,4.10,184.05,021[2024/10/02, 12:37:48.550]024,0.16,E,D*22
$GPRMB,A,,,,,,,,,,,,V,D*19
$GPGGA,043747,0114.479[2024/10/02, 12:37:48.690]1,N,10338.7441,E,2,15,0.74,-2.52,M,9.57,M,,*66
$GPGSA,A,3,10,12,18[2024/10/02, 12:37:48.831],23,25,28,29,32,,,,,1.39,0.74,1.18*0F
$GPGSV,5,1,17,10,18,342,18,1[2024/10/02, 12:37:48.971]2,22,090,31,18,71,177,29,23,39,020,18*72
$GPGSV,5,2,17,25,40,130,3[2024/10/02, 12:37:49.112]0,28,46,228,19,29,17,165,20,32,25,310,16*7C
$GPGSV,5,3,17,41,65,26[2024/10/02, 12:37:49.253]6,27,,31,111,29,,49,143,29,,74,336,20*77
$GPGSV,5,4,17,,04,152,19,[2024/10/02, 12:37:49.393],67,359,21,,57,180,28,,26,288,19*76
$GPGSV,5,5,17,,48,236,26*40
$[2024/10/02, 12:37:49.534]GPGLL,0114.4791,N,10338.7441,E,043747,A,D*41
$GPBOD,,T,,M,,*47
$G[2024/10/02, 12:37:49.674]PBWC,043747,,,,,,T,,M,,N,,D*7D
$GPVTG,184.05,T,183.89,M,4.10,N,7.[2024/10/02, 12:37:49.815]60,K,D*21
$PGRME,15.72,M,19.27,M,24.87,M*2B
$PGRMZ,-8,f,3*3E
$PG[2024/10/02, 12:37:49.955]RMM,WGS 84*06
$HCHDM,,M*07
$WIMWV,,R,,,A*6D
$GPAPB,V,V,,,N,V,V,[2024/10/02, 12:37:50.080],,,,,,,N*68
$GPZDA,043747,02,10,2024,-08,00*69
[2024/10/02, 12:37:50.284]$GPRMC,043749,A,0114.4766,N,10338.7441,E,4.09,182.15,021[2024/10/02, 12:37:50.549]024,0.16,E,D*2B
$GPRMB,A,,,,,,,,,,,,V,D*19
$GPGGA,043749,0114.476[2024/10/02, 12:37:50.690]6,N,10338.7441,E,2,15,0.74,-4.90,M,9.57,M,,*68
$GPGSA,A,3,10,12,18[2024/10/02, 12:37:50.830],23,25,28,29,32,,,,,1.39,0.74,1.18*0F
$GPGSV,5,1,17,10,18,342,17,1[2024/10/02, 12:37:50.971]2,22,090,31,18,71,177,29,23,39,020,21*77
$GPGSV,5,2,17,25,40,130,3[2024/10/02, 12:37:51.111]0,28,46,228,20,29,17,165,22,32,25,310,16*74
$GPGSV,5,3,17,41,65,26[2024/10/02, 12:37:51.252]6,27,,31,111,28,,49,143,28,,74,336,20*77
$GPGSV,5,4,17,,04,152,18,[2024/10/02, 12:37:51.393],67,359,22,,57,180,28,,26,288,19*74
$GPGSV,5,5,17,,48,236,26*40
$[2024/10/02, 12:37:51.533]GPGLL,0114.4766,N,10338.7441,E,043749,A,D*47
$GPBOD,,T,,M,,*47
$[2024/10/02, 12:37:51.674]GPBWC,043749,,,,,,T,,M,,N,,D*73
$GPVTG,182.15,T,181.99,M,4.09,N,7.[2024/10/02, 12:37:51.814]58,K,D*26
$PGRME,15.74,M,18.81,M,24.53,M*29
$PGRMZ,-16,f,3*01
$P[2024/10/02, 12:37:51.955]GRMM,WGS 84*06
$HCHDM,,M*07
$WIMWV,,R,,,A*6D
$GPAPB,V,V,,,N,V,V[2024/10/02, 12:37:52.080],,,,,,,,N*68
$GPZDA,043749,02,10,2024,-08,00*67
[2024/10/02, 12:37:52.283]$GPRMC,043751,A,0114.4737,N,10338.7445,E,4.15,172.29,021[2024/10/02, 12:37:52.549]024,0.16,E,D*2F
$GPRMB,A,,,,,,,,,,,,V,D*19
$GPGGA,043751,0114.473[2024/10/02, 12:37:52.689]7,N,10338.7445,E,2,15,0.74,-6.01,M,9.57,M,,*6B
$GPGSA,A,3,10,12,18[2024/10/02, 12:37:52.830],23,25,28,29,32,,,,,1.39,0.74,1.18*0F
$GPGSV,5,1,17,10,18,342,19,1[2024/10/02, 12:37:52.970]2,22,090,31,18,71,177,28,23,39,020,20*79
$GPGSV,5,2,17,25,40,130,3[2024/10/02, 12:37:53.111]0,28,46,228,22,29,17,165,24,32,25,310,22*77
$GPGSV,5,3,17,41,65,26[2024/10/02, 12:37:53.252]6,27,,31,111,27,,49,143,29,,74,336,20*79
$GPGSV,5,4,17,,04,152,16,[2024/10/02, 12:37:53.392],67,359,22,,57,180,26,,26,288,17*7A
$GPGSV,5,5,17,,48,236,26*40
[2024/10/02, 12:37:53.533]$GPGLL,0114.4737,N,10338.7445,E,043751,A,D*4E
$GPBOD,,T,,M,,*47
$[2024/10/02, 12:37:53.673]GPBWC,043751,,,,,,T,,M,,N,,D*7A
$GPVTG,172.29,T,172.13,M,4.15,N,7.[2024/10/02, 12:37:53.814]69,K,D*27
$PGRME,15.75,M,18.96,M,24.65,M*2B
$PGRMZ,-20,f,3*04
$[2024/10/02, 12:37:53.955]PGRMM,WGS 84*06
$HCHDM,,M*07
$WIMWV,,R,,,A*6D
$GPAPB,V,V,,,N,V,V[2024/10/02, 12:37:54.080],,,,,,,,N*68
$GPZDA,043751,02,10,2024,-08,00*6E
[2024/10/02, 12:37:54.283]$GPRMC,043753,A,0114.4711,N,10338.7448,E,4.16,172.78,021[2024/10/02, 12:37:54.548]024,0.16,E,D*23
$GPRMB,A,,,,,,,,,,,,V,D*19
$GPGGA,043753,0114.47[2024/10/02, 12:37:54.689]11,N,10338.7448,E,2,15,0.74,-7.10,M,9.57,M,,*61
$GPGSA,A,3,10,12,1[2024/10/02, 12:37:54.829]8,23,25,28,29,32,,,,,1.39,0.74,1.18*0F
$GPGSV,5,1,17,10,18,342,19,[2024/10/02, 12:37:54.970]12,22,090,30,18,71,177,27,23,39,020,19*7D
$GPGSV,5,2,17,25,40,130,[2024/10/02, 12:37:55.111]29,28,46,228,24,29,17,165,25,32,25,310,20*7A
$GPGSV,5,3,17,41,65,2[2024/10/02, 12:37:55.251]66,26,,31,111,26,,49,143,29,,74,336,21*78
$GPGSV,5,4,17,,04,152,18[2024/10/02, 12:37:55.392],,67,359,20,,57,180,24,,26,288,15*76
$GPGSV,5,5,17,,48,236,27*41
[2024/10/02, 12:37:55.532]$GPGLL,0114.4711,N,10338.7448,E,043753,A,D*45
$GPBOD,,T,,M,,*47
$[2024/10/02, 12:37:55.673]GPBWC,043753,,,,,,T,,M,,N,,D*78
$GPVTG,172.78,T,172.62,M,4.16,N,7.[2024/10/02, 12:37:55.813]71,K,D*2F
$PGRME,15.77,M,19.33,M,24.95,M*28
$PGRMZ,-23,f,3*07
$[2024/10/02, 12:37:55.954]PGRMM,WGS 84*06
$HCHDM,,M*07
$WIMWV,,R,,,A*6D
$GPAPB,V,V,,,N,V,V[2024/10/02, 12:37:56.079],,,,,,,,N*68
$GPZDA,043753,02,10,2024,-08,00*6C
[2024/10/02, 12:37:56.282]$GPRMC,043755,A,0114.4685,N,10338.7453,E,4.16,168.14,02[2024/10/02, 12:37:56.548]1024,0.16,E,D*22
$GPRMB,A,,,,,,,,,,,,V,D*19
$GPGGA,043755,0114.46[2024/10/02, 12:37:56.688]85,N,10338.7453,E,2,15,0.74,-8.00,M,9.57,M,,*6F
$GPGSA,A,3,10,12,1[2024/10/02, 12:37:56.829]8,23,25,28,29,32,,,,,1.39,0.74,1.18*0F
$GPGSV,5,1,17,10,18,342,16,[2024/10/02, 12:37:56.969]12,22,090,29,18,71,177,27,23,39,020,19*7A
$GPGSV,5,2,17,25,40,130,[2024/10/02, 12:37:57.110]29,28,46,228,24,29,17,165,27,32,25,310,21*79
$GPGSV,5,3,17,41,65,2[2024/10/02, 12:37:57.251]66,25,,31,111,26,,49,143,29,,74,336,20*7A
$GPGSV,5,4,17,,04,152,18[2024/10/02, 12:37:57.391],,67,359,21,,57,180,24,,26,288,16*74
$GPGSV,5,5,17,,48,236,27*41
[2024/10/02, 12:37:57.532]$GPGLL,0114.4685,N,10338.7453,E,043755,A,D*45
$GPBOD,,T,,M,,*47
$[2024/10/02, 12:37:57.672]GPBWC,043755,,,,,,T,,M,,N,,D*7E
$GPVTG,168.14,T,167.98,M,4.16,N,7[2024/10/02, 12:37:57.813].71,K,D*2F
$PGRME,15.79,M,19.72,M,25.26,M*2A
$PGRMZ,-26,f,3*02
$[2024/10/02, 12:37:57.954]PGRMM,WGS 84*06
$HCHDM,,M*07
$WIMWV,,R,,,A*6D
$GPAPB,V,V,,,N,V,[2024/10/02, 12:37:58.079]V,,,,,,,,N*68
$GPZDA,043755,02,10,2024,-08,00*6A
[2024/10/02, 12:37:58.282]$GPRMC,043757,A,0114.4660,N,10338.7456,E,4.23,172.49,02[2024/10/02, 12:37:58.547]1024,0.16,E,D*2B
$GPRMB,A,,,,,,,,,,,,V,D*19
$GPGGA,043757,0114.4[2024/10/02, 12:37:58.688]660,N,10338.7456,E,2,15,0.74,-8.38,M,9.57,M,,*68
$GPGSA,A,3,10,12,[2024/10/02, 12:37:58.828]18,23,25,28,29,32,,,,,1.39,0.74,1.18*0F
$GPGSV,5,1,17,10,18,343,18[2024/10/02, 12:37:58.969],12,22,090,29,18,71,177,28,23,39,020,19*7A
$GPGSV,5,2,17,25,40,130[2024/10/02, 12:37:59.110],29,28,46,228,24,29,17,165,26,32,25,310,21*78
$GPGSV,5,3,17,41,65,2[2024/10/02, 12:37:59.250]66,25,,31,111,26,,49,143,29,,74,336,20*7A
$GPGSV,5,4,17,,04,152,16[2024/10/02, 12:37:59.391],,67,359,20,,57,180,23,,26,288,16*7C
$GPGSV,5,5,17,,48,236,25*43
[2024/10/02, 12:37:59.531]$GPGLL,0114.4660,N,10338.7456,E,043757,A,D*49
$GPBOD,,T,,M,,*47
[2024/10/02, 12:37:59.672]$GPBWC,043757,,,,,,T,,M,,N,,D*7C
$GPVTG,172.49,T,172.33,M,4.23,N,7[2024/10/02, 12:37:59.813].83,K,D*22
$PGRME,15.81,M,20.07,M,25.55,M*21
$PGRMZ,-27,f,3*03
[2024/10/02, 12:37:59.953]$PGRMM,WGS 84*06
$HCHDM,,M*07
$WIMWV,,R,,,A*6D
$GPAPB,V,V,,,N,V,[2024/10/02, 12:38:00.078]V,,,,,,,,N*68
$GPZDA,043757,02,10,2024,-08,00*68
[2024/10/02, 12:38:00.281]$GPRMC,043759,A,0114.4633,N,10338.7462,E,4.21,172.27,02[2024/10/02, 12:38:00.547]1024,0.16,E,D*2E
$GPRMB,A,,,,,,,,,,,,V,D*19
$GPGGA,043759,0114.4[2024/10/02, 12:38:00.687]633,N,10338.7462,E,2,15,0.74,-8.61,M,9.57,M,,*6B
$GPGSA,A,3,10,12,[2024/10/02, 12:38:00.828]18,23,25,28,29,32,,,,,1.39,0.74,1.18*0F
$GPGSV,5,1,17,10,18,343,20[2024/10/02, 12:38:00.968],12,22,089,29,18,71,177,28,23,39,020,20*73
$GPGSV,5,2,17,25,40,130[2024/10/02, 12:38:01.109],30,28,46,228,22,29,17,165,24,32,25,310,20*75
$GPGSV,5,3,17,41,65,[2024/10/02, 12:38:01.250]266,25,,31,111,27,,49,143,29,,74,336,22*79
$GPGSV,5,4,17,,04,152,1[2024/10/02, 12:38:01.390]9,,67,359,20,,57,180,26,,26,288,17*77
$GPGSV,5,5,17,,48,236,27*41[2024/10/02, 12:38:01.531]
$GPGLL,0114.4633,N,10338.7462,E,043759,A,D*46
$GPBOD,,T,,M,,*47
[2024/10/02, 12:38:01.671]$GPBWC,043759,,,,,,T,,M,,N,,D*72
$GPVTG,172.27,T,172.11,M,4.21,N,7[2024/10/02, 12:38:01.812].79,K,D*2D
$PGRME,15.82,M,20.33,M,25.76,M*24
$PGRMZ,-28,f,3*0C
[2024/10/02, 12:38:01.953]$PGRMM,WGS 84*06
$HCHDM,,M*07
$WIMWV,,R,,,A*6D
$GPAPB,V,V,,,N,V[2024/10/02, 12:38:02.078],V,,,,,,,,N*68
$GPZDA,043759,02,10,2024,-08,00*66
[2024/10/02, 12:38:02.281]$GPRMC,043801,A,0114.4611,N,10338.7461,E,4.07,186.36,02[2024/10/02, 12:38:02.546]1024,0.16,E,D*20
$GPRMB,A,,,,,,,,,,,,V,D*19
$GPGGA,043801,0114.46[2024/10/02, 12:38:02.687]11,N,10338.7461,E,2,15,0.74,-8.62,M,9.57,M,,*69
$GPGSA,A,3,10,12,1[2024/10/02, 12:38:02.827]8,23,25,28,29,32,,,,,1.39,0.74,1.18*0F
$GPGSV,5,1,17,10,18,343,19[2024/10/02, 12:38:02.968],12,22,089,30,18,71,177,28,23,39,020,22*73
$GPGSV,5,2,17,25,40,130[2024/10/02, 12:38:03.109],30,28,46,228,21,29,17,165,24,32,25,310,19*7C
$GPGSV,5,3,17,41,65,2[2024/10/02, 12:38:03.249]66,25,,31,111,23,,49,143,29,,74,336,23*7C
$GPGSV,5,4,17,,04,152,19[2024/10/02, 12:38:03.390],,67,359,21,,57,180,27,,26,288,17*77
$GPGSV,5,5,17,,48,236,27*41
[2024/10/02, 12:38:03.530]$GPGLL,0114.4611,N,10338.7461,E,043801,A,D*47
$GPBOD,,T,,M,,*47
[2024/10/02, 12:38:03.671]$GPBWC,043801,,,,,,T,,M,,N,,D*70
$GPVTG,186.36,T,186.20,M,4.07,N,7[2024/10/02, 12:38:03.812].53,K,D*23
$PGRME,15.84,M,20.78,M,26.13,M*2D
$PGRMZ,-28,f,3*0C
[2024/10/02, 12:38:03.952]$PGRMM,WGS 84*06
$HCHDM,,M*07
$WIMWV,,R,,,A*6D
$GPAPB,V,V,,,N,V,[2024/10/02, 12:38:04.077]V,,,,,,,,N*68
$GPZDA,043801,02,10,2024,-08,00*64
[2024/10/02, 12:38:04.280]$GPRMC,043803,A,0114.4591,N,10338.7465,E,3.89,184.20,0[2024/10/02, 12:38:04.546]21024,0.16,E,D*29
$GPRMB,A,,,,,,,,,,,,V,D*19
$GPGGA,043803,0114.4[2024/10/02, 12:38:04.686]591,N,10338.7465,E,2,15,0.74,-8.99,M,9.57,M,,*60
$GPGSA,A,3,10,12,[2024/10/02, 12:38:04.827]18,23,25,28,29,32,,,,,1.39,0.74,1.18*0F
$GPGSV,5,1,17,10,18,343,19[2024/10/02, 12:38:04.968],12,22,089,31,18,71,177,29,23,39,020,19*7B
$GPGSV,5,2,17,25,40,130[2024/10/02, 12:38:05.108],30,28,46,228,20,29,17,165,23,32,25,310,18*7B
$GPGSV,5,3,17,41,65,[2024/10/02, 12:38:05.249]266,26,,31,111,27,,49,143,29,,74,336,21*79
$GPGSV,5,4,17,,04,152,1[2024/10/02, 12:38:05.389]8,,67,359,21,,57,180,27,,26,288,15*74
$GPGSV,5,5,17,,48,236,27*41[2024/10/02, 12:38:05.530]
$GPGLL,0114.4591,N,10338.7465,E,043803,A,D*4A
$GPBOD,,T,,M,,*47
[2024/10/02, 12:38:05.671]$GPBWC,043803,,,,,,T,,M,,N,,D*72
$GPVTG,184.20,T,184.04,M,3.89,N,[2024/10/02, 12:38:05.811]7.21,K,D*26
$PGRME,15.85,M,21.14,M,26.42,M*23
$PGRMZ,-29,f,3*0D
[2024/10/02, 12:38:05.952]$PGRMM,WGS 84*06
$HCHDM,,M*07
$WIMWV,,R,,,A*6D
$GPAPB,V,V,,,N,V[2024/10/02, 12:38:06.077],V,,,,,,,,N*68
$GPZDA,043803,02,10,2024,-08,00*66
[2024/10/02, 12:38:06.280]$GPRMC,043805,A,0114.4569,N,10338.7465,E,3.55,183.62,0[2024/10/02, 12:38:06.545]21024,0.16,E,D*28
$GPRMB,A,,,,,,,,,,,,V,D*19
$GPGGA,043805,0114.4[2024/10/02, 12:38:06.686]569,N,10338.7465,E,2,15,0.74,-9.62,M,9.57,M,,*64
$GPGSA,A,3,10,12,[2024/10/02, 12:38:06.826]18,23,25,28,29,32,,,,,1.40,0.74,1.18*01
$GPGSV,5,1,17,10,18,343,15[2024/10/02, 12:38:06.967],12,22,089,31,18,70,177,28,23,39,020,19*77
$GPGSV,5,2,17,25,40,130[2024/10/02, 12:38:07.108],30,28,46,228,19,29,17,165,23,32,25,310,19*70
$GPGSV,5,3,17,41,65,[2024/10/02, 12:38:07.248]266,25,,31,111,25,,49,143,29,,74,336,20*79
$GPGSV,5,4,17,,04,152,1[2024/10/02, 12:38:07.389]8,,67,359,20,,57,180,27,,26,288,17*77
$GPGSV,5,5,17,,48,236,26*40[2024/10/02, 12:38:07.529]
$GPGLL,0114.4569,N,10338.7465,E,043805,A,D*4B
$GPBOD,,T,,M,,*47
[2024/10/02, 12:38:07.670]$GPBWC,043805,,,,,,T,,M,,N,,D*74
$GPVTG,183.62,T,183.46,M,3.55,N,[2024/10/02, 12:38:07.811]6.58,K,D*28
$PGRME,15.86,M,21.56,M,26.77,M*20
$PGRMZ,-32,f,3*07
[2024/10/02, 12:38:07.951]$PGRMM,WGS 84*06
$HCHDM,,M*07
$WIMWV,,R,,,A*6D
$GPAPB,V,V,,,N,V[2024/10/02, 12:38:08.076],V,,,,,,,,N*68
$GPZDA,043805,02,10,2024,-08,00*60
[2024/10/02, 12:38:08.279]$GPRMC,043807,A,0114.4545,N,10338.7470,E,3.48,177.49,0[2024/10/02, 12:38:08.545]21024,0.16,E,D*2E
$GPRMB,A,,,,,,,,,,,,V,D*19
$GPGGA,043807,0114.4[2024/10/02, 12:38:08.685]545,N,10338.7470,E,2,15,0.74,-10.12,M,9.57,M,,*53
$GPGSA,A,3,10,1[2024/10/02, 12:38:08.826]2,18,23,25,28,29,32,,,,,1.39,0.74,1.18*0F
$GPGSV,5,1,17,10,18,343,[2024/10/02, 12:38:08.967]17,12,22,089,31,18,70,177,29,23,39,020,19*74
$GPGSV,5,2,17,25,40,1[2024/10/02, 12:38:09.107]30,30,28,46,228,20,29,17,165,22,32,25,310,21*70
$GPGSV,5,3,17,41,65[2024/10/02, 12:38:09.248],266,25,,31,111,27,,49,143,28,,74,336,20*7A
$GPGSV,5,4,17,,04,152,[2024/10/02, 12:38:09.388]15,,67,359,21,,57,180,28,,26,288,17*74
$GPGSV,5,5,17,,48,236,27*41[2024/10/02, 12:38:09.529]
$GPGLL,0114.4545,N,10338.7470,E,043807,A,D*43
$GPBOD,,T,,M,,*47[2024/10/02, 12:38:09.670]
$GPBWC,043807,,,,,,T,,M,,N,,D*76
$GPVTG,177.49,T,177.33,M,3.48,N[2024/10/02, 12:38:09.810],6.44,K,D*22
$PGRME,15.88,M,21.91,M,27.06,M*22
$PGRMZ,-33,f,3*06[2024/10/02, 12:38:09.951]
$PGRMM,WGS 84*06
$HCHDM,,M*07
$WIMWV,,R,,,A*6D
$GPAPB,V,V,,,N,[2024/10/02, 12:38:10.091]V,V,,,,,,,,N*68
$GPZDA,043807,02,10,2024,-08,00*62
[2024/10/02, 12:38:10.279]$GPRMC,043809,A,0114.4520,N,10338.7473,E,3.61,175.50,0[2024/10/02, 12:38:10.544]21024,0.16,E,D*21
$GPRMB,A,,,,,,,,,,,,V,D*19
$GPGGA,043809,0114.[2024/10/02, 12:38:10.685]4520,N,10338.7473,E,2,15,0.74,-10.45,M,9.57,M,,*5F
$GPGSA,A,3,10,1[2024/10/02, 12:38:10.826]2,18,23,25,28,29,32,,,,,1.39,0.74,1.18*0F
$GPGSV,5,1,17,10,18,343,[2024/10/02, 12:38:10.966]17,12,22,089,31,18,70,177,28,23,39,021,19*74
$GPGSV,5,2,17,25,40,1[2024/10/02, 12:38:11.107]30,30,28,46,228,19,29,17,165,25,32,25,310,18*77
$GPGSV,5,3,17,41,6[2024/10/02, 12:38:11.247]5,266,26,,31,111,26,,49,143,29,,74,336,21*78
$GPGSV,5,4,17,,04,152[2024/10/02, 12:38:11.388],18,,67,359,23,,57,180,26,,26,288,18*7A
$GPGSV,5,5,17,,48,236,28*4[2024/10/02, 12:38:11.523]E
$GPGLL,0114.4520,N,10338.7473,E,043809,A,D*4D
$GPBOD,,T,,M,,[2024/10/02, 12:38:11.664]*47
$GPBWC,043809,,,,,,T,,M,,N,,D*78
$GPVTG,175.50,T,175.34,M,3.[2024/10/02, 12:38:11.804]61,N,6.68,K,D*28
$PGRME,15.89,M,22.16,M,27.27,M*2C
$PGRMZ,-34,f,3[2024/10/02, 12:38:11.945]*01
$PGRMM,WGS 84*06
$HCHDM,,M*07
$WIMWV,,R,,,A*6D
$GPAPB,V,V,[2024/10/02, 12:38:12.086],,N,V,V,,,,,,,,N*68
$GPZDA,043809,02,10,2024,-08,00*6C
[2024/10/02, 12:38:12.289]$GPRMC,043811,A,0114.4498,N,10338.7472,E,3.73,182.98,02102[2024/10/02, 12:38:12.554]4,0.16,E,D*24
$GPRMB,A,,,,,,,,,,,,V,D*19
$GPGGA,043811,0114.4498,[2024/10/02, 12:38:12.695]N,10338.7472,E,2,15,0.74,-11.16,M,9.57,M,,*52
$GPGSA,A,3,10,12,18,[2024/10/02, 12:38:12.835]23,25,28,29,32,,,,,1.39,0.74,1.18*0F
$GPGSV,5,1,17,10,18,343,17,1[2024/10/02, 12:38:12.976]2,22,089,31,18,70,177,28,23,39,021,20*7E
$GPGSV,5,2,17,25,40,130,3[2024/10/02, 12:38:13.117]0,28,46,228,19,29,17,165,25,32,25,310,18*77
$GPGSV,5,3,17,41,65,266[2024/10/02, 12:38:13.257],26,,31,111,26,,49,143,29,,74,336,21*78
$GPGSV,5,4,17,,04,152,18,,[2024/10/02, 12:38:13.398]67,359,22,,57,180,27,,26,288,18*7A
$GPGSV,5,5,17,,48,236,27*41
$[2024/10/02, 12:38:13.539]GPGLL,0114.4498,N,10338.7472,E,043811,A,D*47
$GPBOD,,T,,M,,*47
$G[2024/10/02, 12:38:13.679]PBWC,043811,,,,,,T,,M,,N,,D*71
$GPVTG,182.98,T,182.82,M,3.73,N,6.9[2024/10/02, 12:38:13.820]1,K,D*24
$PGRME,15.90,M,22.48,M,27.54,M*2B
$PGRMZ,-37,f,3*02
$P[2024/10/02, 12:38:13.960]GRMM,WGS 84*06
$HCHDM,,M*07
$WIMWV,,R,,,A*6D
$GPAPB,V,V,,,N,V,V,[2024/10/02, 12:38:14.085],,,,,,,N*68
$GPZDA,043811,02,10,2024,-08,00*65
[2024/10/02, 12:38:14.288]$GPRMC,043813,A,0114.4477,N,10338.7471,E,3.83,185.65,02102[2024/10/02, 12:38:14.554]4,0.16,E,D*2E
$GPRMB,A,,,,,,,,,,,,V,D*19
$GPGGA,043813,0114.4477,[2024/10/02, 12:38:14.694]N,10338.7471,E,2,15,0.74,-11.88,M,9.57,M,,*55
$GPGSA,A,3,10,12,18[2024/10/02, 12:38:14.835],23,25,28,29,32,,,,,1.39,0.74,1.18*0F
$GPGSV,5,1,17,10,18,343,17,1[2024/10/02, 12:38:14.976]2,22,089,31,18,70,177,28,23,39,021,20*7E
$GPGSV,5,2,17,25,40,130,3[2024/10/02, 12:38:15.116]1,28,46,228,19,29,17,165,23,32,25,310,18*70
$GPGSV,5,3,17,41,65,26[2024/10/02, 12:38:15.257]6,26,,31,111,25,,49,143,28,,74,336,21*7A
$GPGSV,5,4,17,,04,152,21,[2024/10/02, 12:38:15.397],67,359,20,,57,180,27,,26,288,15*7F
$GPGSV,5,5,17,,48,236,26*40
$[2024/10/02, 12:38:15.538]GPGLL,0114.4477,N,10338.7471,E,043813,A,D*47
$GPBOD,,T,,M,,*47
$G[2024/10/02, 12:38:15.679]PBWC,043813,,,,,,T,,M,,N,,D*73
$GPVTG,185.65,T,185.49,M,3.83,N,7.0[2024/10/02, 12:38:15.819]9,K,D*2E
$PGRME,15.92,M,22.68,M,27.71,M*2C
$PGRMZ,-39,f,3*0C
$P[2024/10/02, 12:38:15.960]GRMM,WGS 84*06
$HCHDM,,M*07
$WIMWV,,R,,,A*6D
$GPAPB,V,V,,,N,V,V,[2024/10/02, 12:38:16.085],,,,,,,N*68
$GPZDA,043813,02,10,2024,-08,00*67
[2024/10/02, 12:38:16.288]$GPRMC,043815,A,0114.4454,N,10338.7476,E,3.83,171.11,02102[2024/10/02, 12:38:16.553]4,0.16,E,D*26
$GPRMB,A,,,,,,,,,,,,V,D*19
$GPGGA,043815,0114.4454,[2024/10/02, 12:38:16.694]N,10338.7476,E,2,15,0.74,-11.92,M,9.57,M,,*5E
$GPGSA,A,3,10,12,18[2024/10/02, 12:38:16.835],23,25,28,29,32,,,,,1.39,0.74,1.18*0F
$GPGSV,5,1,17,10,18,343,17,1[2024/10/02, 12:38:16.975]2,22,089,31,18,70,177,28,23,39,021,17*7A
$GPGSV,5,2,17,25,40,130,3[2024/10/02, 12:38:17.116]1,28,47,229,20,29,16,164,23,32,25,310,16*74
$GPGSV,5,3,17,41,65,26[2024/10/02, 12:38:17.256]6,26,,31,111,24,,49,143,29,,74,336,22*79
$GPGSV,5,4,17,,04,152,20,[2024/10/02, 12:38:17.397],67,359,21,,57,180,27,,26,288,16*7C
$GPGSV,5,5,17,,48,236,27*41
$[2024/10/02, 12:38:17.538]GPGLL,0114.4454,N,10338.7476,E,043815,A,D*47
$GPBOD,,T,,M,,*47
$G[2024/10/02, 12:38:17.678]PBWC,043815,,,,,,T,,M,,N,,D*75
$GPVTG,171.11,T,170.95,M,3.83,N,7.[2024/10/02, 12:38:17.819]10,K,D*25
$PGRME,15.93,M,22.90,M,27.90,M*25
$PGRMZ,-39,f,3*0C
$P[2024/10/02, 12:38:17.959]GRMM,WGS 84*06
$HCHDM,,M*07
$WIMWV,,R,,,A*6D
$GPAPB,V,V,,,N,V,V[2024/10/02, 12:38:18.084],,,,,,,,N*68
$GPZDA,043815,02,10,2024,-08,00*61
[2024/10/02, 12:38:18.287]$GPRMC,043817,A,0114.4431,N,10338.7478,E,3.82,171.43,02102[2024/10/02, 12:38:18.553]4,0.16,E,D*2F
$GPRMB,A,,,,,,,,,,,,V,D*19
$GPGGA,043817,0114.4431[2024/10/02, 12:38:18.694],N,10338.7478,E,2,15,0.74,-12.70,M,9.57,M,,*5E
$GPGSA,A,3,10,12,18[2024/10/02, 12:38:18.834],23,25,28,29,32,,,,,1.39,0.74,1.18*0F
$GPGSV,5,1,17,10,18,343,17,1[2024/10/02, 12:38:18.975]2,22,089,30,18,70,177,28,23,39,021,20*7F
$GPGSV,5,2,17,25,40,130,3[2024/10/02, 12:38:19.115]0,28,47,229,18,29,16,164,21,32,25,310,17*7D
$GPGSV,5,3,17,41,65,26[2024/10/02, 12:38:19.256]6,26,,31,111,24,,49,143,28,,74,336,21*7B
$GPGSV,5,4,17,,04,152,19,[2024/10/02, 12:38:19.397],67,359,22,,57,180,26,,26,288,16*74
$GPGSV,5,5,17,,48,236,27*41
$[2024/10/02, 12:38:19.537]GPGLL,0114.4431,N,10338.7478,E,043817,A,D*48
$GPBOD,,T,,M,,*47
$[2024/10/02, 12:38:19.678]GPBWC,043817,,,,,,T,,M,,N,,D*77
$GPVTG,171.43,T,171.27,M,3.82,N,7.[2024/10/02, 12:38:19.818]08,K,D*22
$PGRME,15.95,M,23.04,M,28.02,M*2B
$PGRMZ,-42,f,3*00
$[2024/10/02, 12:38:19.959]PGRMM,WGS 84*06
$HCHDM,,M*07
$WIMWV,,R,,,A*6D
$GPAPB,V,V,,,N,V,V[2024/10/02, 12:38:20.084],,,,,,,,N*68
$GPZDA,043817,02,10,2024,-08,00*63
[2024/10/02, 12:38:20.287]$GPRMC,043819,A,0114.4409,N,10338.7483,E,3.81,171.36,02102[2024/10/02, 12:38:20.552]4,0.16,E,D*2F
$GPRMB,A,,,,,,,,,,,,V,D*19
$GPGGA,043819,0114.4409[2024/10/02, 12:38:20.693],N,10338.7483,E,2,15,0.74,-12.23,M,9.57,M,,*59
$GPGSA,A,3,10,12,18[2024/10/02, 12:38:20.834],23,25,28,29,32,,,,,1.39,0.74,1.18*0F
$GPGSV,5,1,17,10,18,343,21,1[2024/10/02, 12:38:20.974]2,22,089,29,18,70,177,28,23,39,021,19*78
$GPGSV,5,2,17,25,40,130,3[2024/10/02, 12:38:21.115]0,28,47,229,22,29,16,164,23,32,25,310,18*79
$GPGSV,5,3,17,41,65,26[2024/10/02, 12:38:21.255]6,26,,31,111,26,,49,143,28,,74,336,20*78
$GPGSV,5,4,17,,04,152,19,[2024/10/02, 12:38:21.396],67,359,21,,57,180,27,,26,288,16*76
$GPGSV,5,5,17,,48,236,27*41
$[2024/10/02, 12:38:21.537]GPGLL,0114.4409,N,10338.7483,E,043819,A,D*49
$GPBOD,,T,,M,,*47
$[2024/10/02, 12:38:21.677]GPBWC,043819,,,,,,T,,M,,N,,D*79
$GPVTG,171.36,T,171.20,M,3.81,N,7[2024/10/02, 12:38:21.818].06,K,D*2A
$PGRME,15.96,M,23.00,M,28.00,M*2E
$PGRMZ,-40,f,3*02
[2024/10/02, 12:38:21.958]$PGRMM,WGS 84*06
$HCHDM,,M*07
$WIMWV,,R,,,A*6D
$GPAPB,V,V,,,N,V[2024/10/02, 12:38:22.083],V,,,,,,,,N*68
$GPZDA,043819,02,10,2024,-08,00*6D
[2024/10/02, 12:38:22.286]$GPRMC,043821,A,0114.4386,N,10338.7488,E,3.85,171.73,02102[2024/10/02, 12:38:22.552]4,0.16,E,D*2A
$GPRMB,A,,,,,,,,,,,,V,D*19
$GPGGA,043821,0114.4386[2024/10/02, 12:38:22.692],N,10338.7488,E,2,15,0.74,-11.83,M,9.57,M,,*50
$GPGSA,A,3,10,12,1[2024/10/02, 12:38:22.833]8,23,25,28,29,32,,,,,1.40,0.74,1.18*01
$GPGSV,5,1,17,10,18,343,21,[2024/10/02, 12:38:22.974]12,22,089,30,18,70,177,28,23,39,021,20*7A
$GPGSV,5,2,17,25,40,130,[2024/10/02, 12:38:23.114]30,28,47,229,21,29,16,164,25,32,25,310,19*7D
$GPGSV,5,3,17,41,65,2[2024/10/02, 12:38:23.255]66,25,,31,111,26,,48,143,28,,74,336,22*78
$GPGSV,5,4,17,,04,152,17,[2024/10/02, 12:38:23.395],67,359,23,,57,180,25,,26,288,16*78
$GPGSV,5,5,17,,48,236,27*41
[2024/10/02, 12:38:23.537]$GPGLL,0114.4386,N,10338.7488,E,043821,A,D*49
$GPBOD,,T,,M,,*47
$G[2024/10/02, 12:38:23.678]PBWC,043821,,,,,,T,,M,,N,,D*72
$GPVTG,171.73,T,171.57,M,3.85,N,7.[2024/10/02, 12:38:23.819]13,K,D*2B
$PGRME,15.97,M,22.95,M,27.96,M*22
$PGRMZ,-39,f,3*0C
$[2024/10/02, 12:38:23.959]PGRMM,WGS 84*06
$HCHDM,,M*07
$WIMWV,,R,,,A*6D
$GPAPB,V,V,,,N,V,V[2024/10/02, 12:38:24.084],,,,,,,,N*68
$GPZDA,043821,02,10,2024,-08,00*66
[2024/10/02, 12:38:24.287]$GPRMC,043823,A,0114.4365,N,10338.7494,E,3.90,170.38,02102[2024/10/02, 12:38:24.553]4,0.16,E,D*22
$GPRMB,A,,,,,,,,,,,,V,D*19
$GPGGA,043823,0114.4365,[2024/10/02, 12:38:24.693]N,10338.7494,E,2,15,0.74,-11.63,M,9.57,M,,*5C
$GPGSA,A,3,10,12,18[2024/10/02, 12:38:24.834],23,25,28,29,32,,,,,1.39,0.74,1.18*0F
$GPGSV,5,1,17,10,18,343,19,1[2024/10/02, 12:38:24.975]2,22,089,30,18,70,177,28,23,39,021,20*71
$GPGSV,5,2,17,25,40,130,3[2024/10/02, 12:38:25.115]0,28,47,229,23,29,16,164,24,32,25,310,21*75
$GPGSV,5,3,17,41,65,26[2024/10/02, 12:38:25.256]6,25,,31,111,27,,48,143,28,,74,336,22*79
$GPGSV,5,4,17,,04,152,18,[2024/10/02, 12:38:25.396],67,359,21,,57,180,26,,26,288,14*74
$GPGSV,5,5,17,,48,236,28*4E
$[2024/10/02, 12:38:25.537]GPGLL,0114.4365,N,10338.7494,E,043823,A,D*4B
$GPBOD,,T,,M,,*47
$G[2024/10/02, 12:38:25.678]PBWC,043823,,,,,,T,,M,,N,,D*70
$GPVTG,170.38,T,170.22,M,3.90,N,7.2[2024/10/02, 12:38:25.818]2,K,D*20
$PGRME,15.97,M,22.90,M,27.92,M*23
$PGRMZ,-38,f,3*0D
$P[2024/10/02, 12:38:25.959]GRMM,WGS 84*06
$HCHDM,,M*07
$WIMWV,,R,,,A*6D
$GPAPB,V,V,,,N,V,V[2024/10/02, 12:38:26.084],,,,,,,,N*68
$GPZDA,043823,02,10,2024,-08,00*64
[2024/10/02, 12:38:26.287]$GPRMC,043825,A,0114.4346,N,10338.7499,E,3.88,169.04,02102[2024/10/02, 12:38:26.552]4,0.16,E,D*26
$GPRMB,A,,,,,,,,,,,,V,D*19
$GPGGA,043825,0114.4346[2024/10/02, 12:38:26.693],N,10338.7499,E,2,15,0.74,-11.94,M,9.57,M,,*5E
$GPGSA,A,3,10,12,18[2024/10/02, 12:38:26.833],23,25,28,29,32,,,,,1.40,0.74,1.18*01
$GPGSV,5,1,17,10,18,343,18,1[2024/10/02, 12:38:26.974]2,22,089,30,18,70,177,28,23,39,021,21*71
$GPGSV,5,2,17,25,40,130,3[2024/10/02, 12:38:27.115]0,28,47,229,21,29,16,164,24,32,25,310,21*77
$GPGSV,5,3,17,41,65,26[2024/10/02, 12:38:27.255]6,26,,31,111,26,,48,143,28,,74,336,19*73
$GPGSV,5,4,17,,04,152,18,[2024/10/02, 12:38:27.396],67,359,22,,57,180,28,,26,288,17*7A
$GPGSV,5,5,17,,48,236,27*41
$[2024/10/02, 12:38:27.536]GPGLL,0114.4346,N,10338.7499,E,043825,A,D*41
$GPBOD,,T,,M,,*47
$[2024/10/02, 12:38:27.677]GPBWC,043825,,,,,,T,,M,,N,,D*76
$GPVTG,169.04,T,168.88,M,3.88,N,7.[2024/10/02, 12:38:27.818]18,K,D*2E
$PGRME,15.98,M,22.97,M,27.98,M*21
$PGRMZ,-39,f,3*0C
$[2024/10/02, 12:38:27.958]PGRMM,WGS 84*06
$HCHDM,,M*07
$WIMWV,,R,,,A*6D
$GPAPB,V,V,,,N,V,V[2024/10/02, 12:38:28.083],,,,,,,,N*68
$GPZDA,043825,02,10,2024,-08,00*62
[2024/10/02, 12:38:28.286]$GPRMC,043827,A,0114.4325,N,10338.7502,E,3.89,169.20,02102[2024/10/02, 12:38:28.552]4,0.16,E,D*25
$GPRMB,A,,,,,,,,,,,,V,D*19
$GPGGA,043827,0114.4325[2024/10/02, 12:38:28.692],N,10338.7502,E,2,15,0.74,-11.99,M,9.57,M,,*57
$GPGSA,A,3,10,12,1[2024/10/02, 12:38:28.833]8,23,25,28,29,32,,,,,1.40,0.74,1.18*01
$GPGSV,5,1,17,10,18,343,18,[2024/10/02, 12:38:28.974]12,22,089,30,18,70,177,28,23,39,021,19*7A
$GPGSV,5,2,17,25,40,130,[2024/10/02, 12:38:29.114]30,28,47,229,20,29,16,164,25,32,25,310,20*76
$GPGSV,5,3,17,41,65,2[2024/10/02, 12:38:29.255]66,26,,31,111,26,,48,143,28,,74,336,19*73
$GPGSV,5,4,17,,04,152,18,[2024/10/02, 12:38:29.395],67,359,22,,57,180,27,,26,288,19*7B
$GPGSV,5,5,17,,48,236,27*41
[2024/10/02, 12:38:29.536]$GPGLL,0114.4325,N,10338.7502,E,043827,A,D*45
$GPBOD,,T,,M,,*47
$[2024/10/02, 12:38:29.677]GPBWC,043827,,,,,,T,,M,,N,,D*74
$GPVTG,169.20,T,169.04,M,3.89,N,7.[2024/10/02, 12:38:29.817]20,K,D*27
$PGRME,15.99,M,23.19,M,28.16,M*2E
$PGRMZ,-39,f,3*0C
$[2024/10/02, 12:38:29.958]PGRMM,WGS 84*06
$HCHDM,,M*07
$WIMWV,,R,,,A*6D
$GPAPB,V,V,,,N,V,[2024/10/02, 12:38:30.083]V,,,,,,,,N*68
$GPZDA,043827,02,10,2024,-08,00*60
[2024/10/02, 12:38:30.286]$GPRMC,043829,A,0114.4303,N,10338.7504,E,3.92,175.37,0210[2024/10/02, 12:38:30.551]24,0.16,E,D*28
$GPRMB,A,,,,,,,,,,,,V,D*19
$GPGGA,043829,0114.4303[2024/10/02, 12:38:30.692],N,10338.7504,E,2,15,0.74,-11.51,M,9.57,M,,*5F
$GPGSA,A,3,10,12,18[2024/10/02, 12:38:30.830],23,25,28,29,32,,,,,1.39,0.74,1.18*0F
$GPGSV,5,1,17,10,18,343,18,[2024/10/02, 12:38:30.971]12,22,089,31,18,70,177,28,23,39,021,19*7B
$GPGSV,5,2,17,25,40,130,[2024/10/02, 12:38:31.112]30,28,47,229,19,29,16,164,22,32,25,310,18*70
$GPGSV,5,3,17,41,65,2[2024/10/02, 12:38:31.252]66,26,,31,111,26,,48,143,29,,74,336,21*79
$GPGSV,5,4,17,,04,152,16[2024/10/02, 12:38:31.393],,67,359,20,,57,180,27,,26,288,17*79
$GPGSV,5,5,17,,48,236,27*41
[2024/10/02, 12:38:31.533]$GPGLL,0114.4303,N,10338.7504,E,043829,A,D*49
$GPBOD,,T,,M,,*47
[2024/10/02, 12:38:31.674]$GPBWC,043829,,,,,,T,,M,,N,,D*7A
$GPVTG,175.37,T,175.21,M,3.92,N,7[2024/10/02, 12:38:31.815].26,K,D*2A
$PGRME,16.00,M,23.19,M,28.17,M*2C
$PGRMZ,-38,f,3*0D
[2024/10/02, 12:38:31.955]$PGRMM,WGS 84*06
$HCHDM,,M*07
$WIMWV,,R,,,A*6D
$GPAPB,V,V,,,N,V,[2024/10/02, 12:38:32.080]V,,,,,,,,N*68
$GPZDA,043829,02,10,2024,-08,00*6E
[2024/10/02, 12:38:32.283]$GPRMC,043831,A,0114.4282,N,10338.7506,E,3.80,178.67,021[2024/10/02, 12:38:32.549]024,0.16,E,D*20
$GPRMB,A,,,,,,,,,,,,V,D*19
$GPGGA,043831,0114.428[2024/10/02, 12:38:32.689]2,N,10338.7506,E,2,15,0.74,-11.24,M,9.57,M,,*5E
$GPGSA,A,3,10,12,[2024/10/02, 12:38:32.830]18,23,25,28,29,32,,,,,1.40,0.74,1.18*01
$GPGSV,5,1,17,10,18,343,18[2024/10/02, 12:38:32.971],12,22,089,31,18,70,177,28,23,39,021,21*70
$GPGSV,5,2,17,25,40,130[2024/10/02, 12:38:33.111],30,28,47,229,20,29,16,164,24,32,25,310,18*7C
$GPGSV,5,3,17,41,65,[2024/10/02, 12:38:33.252]266,26,,31,111,29,,48,143,29,,74,336,23*74
$GPGSV,5,4,17,,04,152,1[2024/10/02, 12:38:33.392]7,,67,359,21,,57,180,27,,26,288,17*79
$GPGSV,5,5,17,,48,236,27*41[2024/10/02, 12:38:33.533]
$GPGLL,0114.4282,N,10338.7506,E,043831,A,D*4A
$GPBOD,,T,,M,,*47
[2024/10/02, 12:38:33.674]$GPBWC,043831,,,,,,T,,M,,N,,D*73
$GPVTG,178.67,T,178.51,M,3.80,N,[2024/10/02, 12:38:33.814]7.04,K,D*2B
$PGRME,16.01,M,23.14,M,28.14,M*23
$PGRMZ,-37,f,3*02
[2024/10/02, 12:38:33.955]$PGRMM,WGS 84*06
$HCHDM,,M*07
$WIMWV,,R,,,A*6D
$GPAPB,V,V,,,N,V[2024/10/02, 12:38:34.080],V,,,,,,,,N*68
$GPZDA,043831,02,10,2024,-08,00*67
[2024/10/02, 12:38:34.283]$GPRMC,043833,A,0114.4260,N,10338.7504,E,3.81,178.21,021[2024/10/02, 12:38:34.548]024,0.16,E,D*2F
$GPRMB,A,,,,,,,,,,,,V,D*19
$GPGGA,043833,0114.426[2024/10/02, 12:38:34.689]0,N,10338.7504,E,2,15,0.74,-11.40,M,9.57,M,,*50
$GPGSA,A,3,10,12,[2024/10/02, 12:38:34.830]18,23,25,28,29,32,,,,,1.40,0.74,1.18*01
$GPGSV,5,1,17,10,18,343,17[2024/10/02, 12:38:34.970],12,22,089,31,18,70,177,28,23,39,021,19*74
$GPGSV,5,2,17,25,40,130[2024/10/02, 12:38:35.111],30,28,47,229,20,29,16,164,24,32,25,310,18*7C
$GPGSV,5,3,17,41,65,[2024/10/02, 12:38:35.251]266,25,,31,111,27,,48,143,28,,74,336,19*71
$GPGSV,5,4,17,,04,151,1[2024/10/02, 12:38:35.392]7,,67,359,21,,57,180,27,,26,288,19*74
$GPGSV,5,5,17,,48,236,27*41
[2024/10/02, 12:38:35.533]$GPGLL,0114.4260,N,10338.7504,E,043833,A,D*46
$GPBOD,,T,,M,,*47
[2024/10/02, 12:38:35.673]$GPBWC,043833,,,,,,T,,M,,N,,D*71
$GPVTG,178.21,T,178.05,M,3.81,N,7[2024/10/02, 12:38:35.814].06,K,D*2B
$PGRME,16.01,M,22.04,M,27.24,M*2F
$PGRMZ,-37,f,3*02
[2024/10/02, 12:38:35.954]$PGRMM,WGS 84*06
$HCHDM,,M*07
$WIMWV,,R,,,A*6D
$GPAPB,V,V,,,N,V[2024/10/02, 12:38:36.079],V,,,,,,,,N*68
$GPZDA,043833,02,10,2024,-08,00*65
[2024/10/02, 12:38:36.282]$GPRMC,043835,A,0114.4238,N,10338.7507,E,3.81,175.38,021[2024/10/02, 12:38:36.548]024,0.16,E,D*22
$GPRMB,A,,,,,,,,,,,,V,D*19
$GPGGA,043835,0114.423[2024/10/02, 12:38:36.688]8,N,10338.7507,E,2,15,0.74,-11.58,M,9.57,M,,*51
$GPGSA,A,3,10,12,[2024/10/02, 12:38:36.829]18,23,25,28,29,32,,,,,1.40,0.74,1.18*01
$GPGSV,5,1,17,10,18,343,16[2024/10/02, 12:38:36.970],12,22,089,31,18,70,177,28,23,39,021,20*7F
$GPGSV,5,2,17,25,40,130[2024/10/02, 12:38:37.110],30,28,47,229,20,29,16,164,23,32,25,310,20*70
$GPGSV,5,3,17,41,65,[2024/10/02, 12:38:37.251]266,26,,31,111,26,,48,143,29,,74,336,22*7A
$GPGSV,5,4,17,,04,151,1[2024/10/02, 12:38:37.391]7,,67,359,21,,57,180,27,,26,288,19*74
$GPGSV,5,5,17,,48,236,27*41[2024/10/02, 12:38:37.532]
$GPGLL,0114.4238,N,10338.7507,E,043835,A,D*4E
$GPBOD,,T,,M,,*47
[2024/10/02, 12:38:37.673]$GPBWC,043835,,,,,,T,,M,,N,,D*77
$GPVTG,175.38,T,175.22,M,3.81,N,[2024/10/02, 12:38:37.813]7.06,K,D*26
$PGRME,16.01,M,21.16,M,26.54,M*29
$PGRMZ,-38,f,3*0D
[2024/10/02, 12:38:37.954]$PGRMM,WGS 84*06
$HCHDM,,M*07
$WIMWV,,R,,,A*6D
$GPAPB,V,V,,,N,V[2024/10/02, 12:38:38.079],V,,,,,,,,N*68
$GPZDA,043835,02,10,2024,-08,00*63
[2024/10/02, 12:38:38.282]$GPRMC,043837,A,0114.4217,N,10338.7507,E,3.80,183.93,021[2024/10/02, 12:38:38.548]024,0.16,E,D*24
$GPRMB,A,,,,,,,,,,,,V,D*19
$GPGGA,043837,0114.42[2024/10/02, 12:38:38.688]17,N,10338.7507,E,2,15,0.74,-11.61,M,9.57,M,,*54
$GPGSA,A,3,10,12,[2024/10/02, 12:38:38.829]18,23,25,28,29,32,,,,,1.39,0.74,1.18*0F
$GPGSV,5,1,17,10,18,343,17[2024/10/02, 12:38:38.969],12,22,089,31,18,70,177,28,23,39,021,21*7F
$GPGSV,5,2,17,25,40,130[2024/10/02, 12:38:39.110],30,28,47,229,19,29,16,164,21,32,25,310,18*73
$GPGSV,5,3,17,41,65,[2024/10/02, 12:38:39.250]266,26,,31,111,28,,48,143,28,,74,336,20*77
$GPGSV,5,4,17,,04,151,1[2024/10/02, 12:38:39.391]8,,67,358,22,,57,180,28,,26,288,17*78
$GPGSV,5,5,17,,48,236,27*41[2024/10/02, 12:38:39.532]
$GPGLL,0114.4217,N,10338.7507,E,043837,A,D*41
$GPBOD,,T,,M,,*47
[2024/10/02, 12:38:39.672]$GPBWC,043837,,,,,,T,,M,,N,,D*75
$GPVTG,183.93,T,183.77,M,3.80,N,[2024/10/02, 12:38:39.813]7.04,K,D*24
$PGRME,16.02,M,21.22,M,26.59,M*20
$PGRMZ,-38,f,3*0D
[2024/10/02, 12:38:39.953]$PGRMM,WGS 84*06
$HCHDM,,M*07
$WIMWV,,R,,,A*6D
$GPAPB,V,V,,,N,V[2024/10/02, 12:38:40.078],V,,,,,,,,N*68
$GPZDA,043837,02,10,2024,-08,00*61
[2024/10/02, 12:38:40.281]$GPRMC,043839,A,0114.4195,N,10338.7510,E,3.82,182.17,02[2024/10/02, 12:38:40.547]1024,0.16,E,D*2A
$GPRMB,A,,,,,,,,,,,,V,D*19
$GPGGA,043839,0114.41[2024/10/02, 12:38:40.688]95,N,10338.7510,E,2,15,0.74,-11.35,M,9.58,M,,*5B
$GPGSA,A,3,10,12,[2024/10/02, 12:38:40.828]18,23,25,28,29,32,,,,,1.40,0.74,1.18*01
$GPGSV,5,1,17,10,18,343,14[2024/10/02, 12:38:40.969],12,22,089,31,18,70,177,28,23,39,021,21*7C
$GPGSV,5,2,17,25,40,130[2024/10/02, 12:38:41.109],30,28,47,229,19,29,16,164,22,32,25,310,18*70
$GPGSV,5,3,17,41,65,[2024/10/02, 12:38:41.250]266,26,,31,111,26,,48,143,28,,74,336,21*78
$GPGSV,5,4,17,,04,151,1[2024/10/02, 12:38:41.390]9,,67,358,21,,57,180,27,,26,288,20*71
$GPGSV,5,5,17,,48,236,27*41[2024/10/02, 12:38:41.531]
$GPGLL,0114.4195,N,10338.7510,E,043839,A,D*40
$GPBOD,,T,,M,,*47
[2024/10/02, 12:38:41.672]$GPBWC,043839,,,,,,T,,M,,N,,D*7B
$GPVTG,182.17,T,182.01,M,3.82,N,[2024/10/02, 12:38:41.812]7.08,K,D*27
$PGRME,16.03,M,21.55,M,26.85,M*20
$PGRMZ,-37,f,3*02
[2024/10/02, 12:38:41.953]$PGRMM,WGS 84*06
$HCHDM,,M*07
$WIMWV,,R,,,A*6D
$GPAPB,V,V,,,N,V[2024/10/02, 12:38:42.078],V,,,,,,,,N*68
$GPZDA,043839,02,10,2024,-08,00*6F
[2024/10/02, 12:38:42.281]$GPRMC,043841,A,0114.4172,N,10338.7516,E,3.84,175.73,02[2024/10/02, 12:38:42.547]1024,0.16,E,D*26
$GPRMB,A,,,,,,,,,,,,V,D*19
$GPGGA,043841,0114.41[2024/10/02, 12:38:42.687]72,N,10338.7516,E,2,15,0.74,-10.96,M,9.58,M,,*53
$GPGSA,A,3,10,12[2024/10/02, 12:38:42.828],18,23,25,28,29,32,,,,,1.40,0.74,1.18*01
$GPGSV,5,1,17,10,18,343,1[2024/10/02, 12:38:42.968]4,12,22,089,31,18,70,177,28,23,39,021,16*78
$GPGSV,5,2,17,25,40,13[2024/10/02, 12:38:43.109]0,30,28,47,229,19,29,16,164,23,32,25,310,18*71
$GPGSV,5,3,17,41,65,[2024/10/02, 12:38:43.249]266,26,,31,111,27,,48,143,28,,74,336,20*78
$GPGSV,5,4,17,,04,151,2[2024/10/02, 12:38:43.390]0,,67,358,22,,57,180,28,,26,288,18*7C
$GPGSV,5,5,17,,48,236,26*40[2024/10/02, 12:38:43.531]
$GPGLL,0114.4172,N,10338.7516,E,043841,A,D*40
$GPBOD,,T,,M,,*47[2024/10/02, 12:38:43.671]
$GPBWC,043841,,,,,,T,,M,,N,,D*74
$GPVTG,175.73,T,175.57,M,3.84,N,[2024/10/02, 12:38:43.812]7.11,K,D*28
$PGRME,16.04,M,21.93,M,27.17,M*27
$PGRMZ,-36,f,3*03[2024/10/02, 12:38:43.952]
$PGRMM,WGS 84*06
$HCHDM,,M*07
$WIMWV,,R,,,A*6D
$GPAPB,V,V,,,N,[2024/10/02, 12:38:44.093]V,V,,,,,,,,N*68
$GPZDA,043841,02,10,2024,-08,00*60
[2024/10/02, 12:38:44.280]$GPRMC,043843,A,0114.4150,N,10338.7521,E,3.85,175.29,02[2024/10/02, 12:38:44.546]1024,0.16,E,D*2E
$GPRMB,A,,,,,,,,,,,,V,D*19
$GPGGA,043843,0114.41[2024/10/02, 12:38:44.687]50,N,10338.7521,E,2,15,0.74,-10.98,M,9.58,M,,*5B
$GPGSA,A,3,10,12,[2024/10/02, 12:38:44.827]18,23,25,28,29,32,,,,,1.40,0.74,1.18*01
$GPGSV,5,1,17,10,18,343,17[2024/10/02, 12:38:44.968],12,22,089,31,18,70,177,27,23,39,021,19*7B
$GPGSV,5,2,17,25,40,130[2024/10/02, 12:38:45.108],30,28,47,229,19,29,16,164,23,32,25,310,17*7E
$GPGSV,5,3,17,41,65,[2024/10/02, 12:38:45.249]266,26,,31,111,26,,48,143,28,,74,336,22*7B
$GPGSV,5,4,17,,04,151,2[2024/10/02, 12:38:45.390]0,,67,358,21,,57,180,28,,26,288,18*7F
$GPGSV,5,5,17,,48,236,26*40[2024/10/02, 12:38:45.530]
$GPGLL,0114.4150,N,10338.7521,E,043843,A,D*46
$GPBOD,,T,,M,,*47
[2024/10/02, 12:38:45.671]$GPBWC,043843,,,,,,T,,M,,N,,D*76
$GPVTG,175.29,T,175.13,M,3.85,N,[2024/10/02, 12:38:45.811]7.12,K,D*25
$PGRME,16.06,M,22.24,M,27.43,M*2B
$PGRMZ,-36,f,3*03
[2024/10/02, 12:38:45.952]$PGRMM,WGS 84*06
$HCHDM,,M*07
$WIMWV,,R,,,A*6D
$GPAPB,V,V,,,N,V[2024/10/02, 12:38:46.077],V,,,,,,,,N*68
$GPZDA,043843,02,10,2024,-08,00*62
[2024/10/02, 12:38:46.280]$GPRMC,043845,A,0114.4125,N,10338.7525,E,3.90,174.86,02[2024/10/02, 12:38:46.546]1024,0.16,E,D*2E
$GPRMB,A,,,,,,,,,,,,V,D*19
$GPGGA,043845,0114.41[2024/10/02, 12:38:46.686]25,N,10338.7525,E,2,15,0.74,-10.89,M,9.58,M,,*5B
$GPGSA,A,3,10,12[2024/10/02, 12:38:46.827],18,23,25,28,29,32,,,,,1.40,0.74,1.18*01
$GPGSV,5,1,17,10,18,343,1[2024/10/02, 12:38:46.967]7,12,22,089,31,18,70,177,27,23,39,021,18*7A
$GPGSV,5,2,17,25,40,13[2024/10/02, 12:38:47.108]0,30,28,47,229,23,29,16,164,21,32,25,310,19*7B
$GPGSV,5,3,17,41,65[2024/10/02, 12:38:47.249],266,26,,31,111,24,,48,143,28,,74,336,21*7A
$GPGSV,5,4,17,,04,151,[2024/10/02, 12:38:47.389]19,,67,358,21,,58,180,28,,26,288,18*7A
$GPGSV,5,5,17,,48,236,27*41[2024/10/02, 12:38:47.530]
$GPGLL,0114.4125,N,10338.7525,E,043845,A,D*46
$GPBOD,,T,,M,,*47[2024/10/02, 12:38:47.670]
$GPBWC,043845,,,,,,T,,M,,N,,D*70
$GPVTG,174.86,T,174.70,M,3.90,N[2024/10/02, 12:38:47.811],7.22,K,D*22
$PGRME,16.08,M,22.35,M,27.53,M*24
$PGRMZ,-36,f,3*03[2024/10/02, 12:38:47.951]
$PGRMM,WGS 84*06
$HCHDM,,M*07
$WIMWV,,R,,,A*6D
$GPAPB,V,V,,,N,[2024/10/02, 12:38:48.092]V,V,,,,,,,,N*68
$GPZDA,043845,02,10,2024,-08,00*64
[2024/10/02, 12:38:48.279]$GPRMC,043847,A,0114.4095,N,10338.7530,E,4.23,175.03,02[2024/10/02, 12:38:48.545]1024,0.16,E,D*21
$GPRMB,A,,,,,,,,,,,,V,D*19
$GPGGA,043847,0114.4[2024/10/02, 12:38:48.686]095,N,10338.7530,E,2,15,0.74,-10.39,M,9.58,M,,*5C
$GPGSA,A,3,10,12[2024/10/02, 12:38:48.826],18,23,25,28,29,32,,,,,1.40,0.74,1.18*01
$GPGSV,5,1,17,10,18,343,1[2024/10/02, 12:38:48.967]8,12,22,089,31,18,70,177,27,23,39,021,19*74
$GPGSV,5,2,17,25,40,13[2024/10/02, 12:38:49.107]0,30,28,47,229,22,29,16,164,25,32,25,310,19*7E
$GPGSV,5,3,17,41,65[2024/10/02, 12:38:49.248],266,26,,31,111,26,,48,143,28,,74,336,22*7B
$GPGSV,5,4,17,,04,151,[2024/10/02, 12:38:49.389]19,,67,358,21,,58,180,28,,26,288,18*7A
$GPGSV,5,5,17,,48,236,27*41[2024/10/02, 12:38:49.529]
$GPGLL,0114.4095,N,10338.7530,E,043847,A,D*4A
$GPBOD,,T,,M,,*47[2024/10/02, 12:38:49.670]
$GPBWC,043847,,,,,,T,,M,,N,,D*72
$GPVTG,175.03,T,174.87,M,4.23,N[2024/10/02, 12:38:49.810],7.84,K,D*25
$PGRME,16.09,M,22.51,M,27.67,M*20
$PGRMZ,-34,f,3*01[2024/10/02, 12:38:49.951]
$PGRMM,WGS 84*06
$HCHDM,,M*07
$WIMWV,,R,,,A*6D
$GPAPB,V,V,,,N,[2024/10/02, 12:38:50.092]V,V,,,,,,,,N*68
$GPZDA,043847,02,10,2024,-08,00*66
[2024/10/02, 12:38:50.279]$GPRMC,043849,A,0114.4067,N,10338.7534,E,4.35,175.01,0[2024/10/02, 12:38:50.545]21024,0.16,E,D*23
$GPRMB,A,,,,,,,,,,,,V,D*19
$GPGGA,043849,0114.4[2024/10/02, 12:38:50.685]067,N,10338.7534,E,2,15,0.74,-9.76,M,9.58,M,,*68
$GPGSA,A,3,10,12,[2024/10/02, 12:38:50.826]18,23,25,28,29,32,,,,,1.40,0.74,1.18*01
$GPGSV,5,1,17,10,18,343,17[2024/10/02, 12:38:50.966],12,22,089,31,18,70,177,27,23,39,021,20*71
$GPGSV,5,2,17,25,40,130[2024/10/02, 12:38:51.107],30,28,47,229,22,29,16,164,23,32,25,310,20*72
$GPGSV,5,3,17,41,65,[2024/10/02, 12:38:51.248]266,26,,31,111,26,,48,143,28,,74,336,21*78
$GPGSV,5,4,17,,04,151,2[2024/10/02, 12:38:51.388]0,,67,358,21,,58,180,26,,26,287,17*7E
$GPGSV,5,5,17,,48,235,27*42[2024/10/02, 12:38:51.529]
$GPGLL,0114.4067,N,10338.7534,E,043849,A,D*4D
$GPBOD,,T,,M,,*47[2024/10/02, 12:38:51.669]
$GPBWC,043849,,,,,,T,,M,,N,,D*7C
$GPVTG,175.01,T,174.85,M,4.35,N,[2024/10/02, 12:38:51.810]8.06,K,D*27
$PGRME,16.10,M,22.67,M,27.80,M*24
$PGRMZ,-32,f,3*07[2024/10/02, 12:38:51.951]
$PGRMM,WGS 84*06
$HCHDM,,M*07
$WIMWV,,R,,,A*6D
$GPAPB,V,V,,,N,V[2024/10/02, 12:38:52.075],V,,,,,,,,N*68
$GPZDA,043849,02,10,2024,-08,00*68
[2024/10/02, 12:38:52.279]$GPRMC,043851,A,0114.4045,N,10338.7538,E,4.30,174.99,0[2024/10/02, 12:38:52.544]21024,0.16,E,D*23
$GPRMB,A,,,,,,,,,,,,V,D*19
$GPGGA,043851,0114.4[2024/10/02, 12:38:52.685]045,N,10338.7538,E,2,15,0.74,-8.59,M,9.58,M,,*61
$GPGSA,A,3,10,12,[2024/10/02, 12:38:52.825]18,23,25,28,29,32,,,,,1.39,0.74,1.18*0F
$GPGSV,5,1,17,10,18,343,16[2024/10/02, 12:38:52.966],12,22,089,31,18,70,177,27,23,39,021,19*7A
$GPGSV,5,2,17,25,40,130[2024/10/02, 12:38:53.106],31,28,47,229,21,29,16,164,25,32,25,310,18*7D
$GPGSV,5,3,17,41,65,[2024/10/02, 12:38:53.247]266,27,,31,111,27,,48,143,28,,74,336,21*78
$GPGSV,5,4,17,,04,151,2[2024/10/02, 12:38:53.388]1,,67,358,21,,58,180,27,,26,287,20*7A
$GPGSV,5,5,17,,48,235,26*43[2024/10/02, 12:38:53.528]
$GPGLL,0114.4045,N,10338.7538,E,043851,A,D*48
$GPBOD,,T,,M,,*47
[2024/10/02, 12:38:53.669]$GPBWC,043851,,,,,,T,,M,,N,,D*75
$GPVTG,174.99,T,174.83,M,4.30,N,[2024/10/02, 12:38:53.810]7.96,K,D*22
$PGRME,16.11,M,22.81,M,27.92,M*2E
$PGRMZ,-28,f,3*0C
[2024/10/02, 12:38:53.950]$PGRMM,WGS 84*06
$HCHDM,,M*07
$WIMWV,,R,,,A*6D
$GPAPB,V,V,,,N,V[2024/10/02, 12:38:54.075],V,,,,,,,,N*68
$GPZDA,043851,02,10,2024,-08,00*61
[2024/10/02, 12:38:54.278]$GPRMC,043853,A,0114.4023,N,10338.7537,E,4.27,185.25,0[2024/10/02, 12:38:54.544]21024,0.16,E,D*21
$GPRMB,A,,,,,,,,,,,,V,D*19
$GPGGA,043853,0114.4[2024/10/02, 12:38:54.684]023,N,10338.7537,E,2,15,0.74,-7.59,M,9.58,M,,*63
$GPGSA,A,3,10,12,[2024/10/02, 12:38:54.825]18,23,25,28,29,32,,,,,1.40,0.74,1.18*01
$GPGSV,5,1,17,10,18,343,16[2024/10/02, 12:38:54.966],12,22,089,31,18,70,177,27,23,39,021,15*76
$GPGSV,5,2,17,25,40,130[2024/10/02, 12:38:55.106],30,28,47,229,19,29,16,164,19,32,25,310,17*77
$GPGSV,5,3,17,41,65,[2024/10/02, 12:38:55.247]266,27,,31,111,26,,48,143,28,,74,336,22*7A
$GPGSV,5,4,17,,04,151,1[2024/10/02, 12:38:55.387]8,,67,358,21,,58,180,27,,26,287,20*70
$GPGSV,5,5,17,,48,235,26*43[2024/10/02, 12:38:55.528]
$GPGLL,0114.4023,N,10338.7537,E,043853,A,D*45
$GPBOD,,T,,M,,*47[2024/10/02, 12:38:55.668]
$GPBWC,043853,,,,,,T,,M,,N,,D*77
$GPVTG,185.25,T,185.09,M,4.27,N,[2024/10/02, 12:38:55.809]7.90,K,D*27
$PGRME,16.12,M,23.17,M,28.22,M*27
$PGRMZ,-25,f,3*01[2024/10/02, 12:38:55.950]
$PGRMM,WGS 84*06
$HCHDM,,M*07
$WIMWV,,R,,,A*6D
$GPAPB,V,V,,,N,[2024/10/02, 12:38:56.090]V,V,,,,,,,,N*68
$GPZDA,043853,02,10,2024,-08,00*63
[2024/10/02, 12:38:56.278]$GPRMC,043855,A,0114.4001,N,10338.7541,E,4.07,183.78,0[2024/10/02, 12:38:56.543]21024,0.16,E,D*2A
$GPRMB,A,,,,,,,,,,,,V,D*19
$GPGGA,043855,0114.4[2024/10/02, 12:38:56.684]001,N,10338.7541,E,2,15,0.74,-6.67,M,9.58,M,,*68
$GPGSA,A,3,10,12[2024/10/02, 12:38:56.824],18,23,25,28,29,32,,,,,1.40,0.74,1.18*01
$GPGSV,5,1,17,10,18,343,1[2024/10/02, 12:38:56.965]5,12,22,089,31,18,70,177,28,23,39,021,15*7A
$GPGSV,5,2,17,25,40,13[2024/10/02, 12:38:57.106]0,30,28,47,229,17,29,16,164,22,32,25,310,17*71
$GPGSV,5,3,17,41,65,[2024/10/02, 12:38:57.246]266,27,,31,111,26,,48,143,29,,74,336,20*79
$GPGSV,5,4,17,,04,151,1[2024/10/02, 12:38:57.387]9,,67,358,20,,58,180,27,,26,287,21*71
$GPGSV,5,5,17,,48,235,25*40[2024/10/02, 12:38:57.527]
$GPGLL,0114.4001,N,10338.7541,E,043855,A,D*42
$GPBOD,,T,,M,,*47[2024/10/02, 12:38:57.668]
$GPBWC,043855,,,,,,T,,M,,N,,D*71
$GPVTG,183.78,T,183.62,M,4.07,N,[2024/10/02, 12:38:57.809]7.54,K,D*28
$PGRME,16.14,M,23.49,M,28.50,M*2F
$PGRMZ,-22,f,3*06[2024/10/02, 12:38:57.949]
$PGRMM,WGS 84*06
$HCHDM,,M*07
$WIMWV,,R,,,A*6D
$GPAPB,V,V,,,N,V[2024/10/02, 12:38:58.090],V,,,,,,,,N*68
$GPZDA,043855,02,10,2024,-08,00*65
[2024/10/02, 12:38:58.277]$GPRMC,043857,A,0114.3977,N,103[2024/10/02, 12:38:58.496]38.7544,E,4.01,182.75,021024,0.16,E,D*28
$GPRMB,A,,,,,,,,,,,,V,D*1[2024/10/02, 12:38:58.636]9
$GPGGA,043857,0114.3977,N,10338.7544,E,2,15,0.74,-6.65,M,9.58,M,[2024/10/02, 12:38:58.777],*62
$GPGSA,A,3,10,12,18,23,25,28,29,32,,,,,1.40,0.74,1.18*01
$GP[2024/10/02, 12:38:58.918]GSV,5,1,17,10,18,343,17,12,22,089,31,18,70,177,28,23,39,021,15*78
[2024/10/02, 12:38:59.058]$GPGSV,5,2,17,25,40,130,30,28,47,229,20,29,16,164,23,32,25,310,17*7[2024/10/02, 12:38:59.199]4
$GPGSV,5,3,17,41,65,266,27,,31,111,27,,48,143,28,,74,336,21*78
[2024/10/02, 12:38:59.339]$GPGSV,5,4,17,,04,151,16,,67,358,21,,58,180,28,,26,287,17*75
$GPGS[2024/10/02, 12:38:59.480]V,5,5,17,,48,235,25*40
$GPGLL,0114.3977,N,10338.7544,E,043857,A,D*[2024/10/02, 12:38:59.621]4A
$GPBOD,,T,,M,,*47
$GPBWC,043857,,,,,,T,,M,,N,,D*73
$GPVTG,18[2024/10/02, 12:38:59.761]2.75,T,182.59,M,4.01,N,7.42,K,D*2C
$PGRME,16.16,M,23.70,M,28.69,M*[2024/10/02, 12:38:59.902]2D
$PGRMZ,-22,f,3*06
$PGRMM,WGS 84*06
$HCHDM,,M*07
$WIMWV,,R,,[2024/10/02, 12:39:00.042],A*6D
$GPAPB,V,V,,,N,V,V,,,,,,,,N*68
$GPZDA,043857,02,10,2024,-08[2024/10/02, 12:39:00.152],00*67
[2024/10/02, 12:39:00.230]$GPRMC,043859,A,0114.3955,N,103[2024/10/02, 12:39:00.495]38.7546,E,3.95,182.16,021024,0.16,E,D*2B
$GPRMB,A,,,,,,,,,,,,V,D*1[2024/10/02, 12:39:00.636]9
$GPGGA,043859,0114.3955,N,10338.7546,E,2,15,0.74,-6.78,M,9.58,M,[2024/10/02, 12:39:00.777],*62
$GPGSA,A,3,10,12,18,23,25,28,29,32,,,,,1.40,0.74,1.18*01
$GP[2024/10/02, 12:39:00.917]GSV,5,1,17,10,18,343,17,12,22,089,30,18,70,177,28,23,39,021,15*79
[2024/10/02, 12:39:01.058]$GPGSV,5,2,17,25,40,130,30,28,47,229,19,29,16,164,19,32,25,310,20*7[2024/10/02, 12:39:01.198]3
$GPGSV,5,3,17,41,65,266,27,,31,111,28,,48,143,29,,74,336,20*77
[2024/10/02, 12:39:01.339]$GPGSV,5,4,17,,04,151,17,,67,358,21,,58,180,28,,26,287,21*71
$GPGS[2024/10/02, 12:39:01.480]V,5,5,17,,48,235,25*40
$GPGLL,0114.3955,N,10338.7546,E,043859,A,D*[2024/10/02, 12:39:01.620]46
$GPBOD,,T,,M,,*47
$GPBWC,043859,,,,,,T,,M,,N,,D*7D
$GPVTG,18[2024/10/02, 12:39:01.761]2.16,T,182.00,M,3.95,N,7.32,K,D*28
$PGRME,16.19,M,23.90,M,28.86,M*[2024/10/02, 12:39:01.901]2D
$PGRMZ,-22,f,3*06
$PGRMM,WGS 84*06
$HCHDM,,M*07
$WIMWV,,R,,[2024/10/02, 12:39:02.042],A*6D
$GPAPB,V,V,,,N,V,V,,,,,,,,N*68
$GPZDA,043859,02,10,2024,-08[2024/10/02, 12:39:02.151],00*69
[2024/10/02, 12:39:02.229]$GPRMC,043901,A,0114.3932,N,103[2024/10/02, 12:39:02.498]38.7549,E,3.98,181.43,021024,0.16,E,D*27
$GPRMB,A,,,,,,,,,,,,V,D*19[2024/10/02, 12:39:02.639]
$GPGGA,043901,0114.3932,N,10338.7549,E,2,15,0.74,-6.94,M,9.58,M,,[2024/10/02, 12:39:02.779]*62
$GPGSA,A,3,10,12,18,23,25,28,29,32,,,,,1.40,0.74,1.18*01
$GP[2024/10/02, 12:39:02.920]GSV,5,1,17,10,18,343,15,12,22,089,31,18,70,177,28,23,39,021,20*7C
$[2024/10/02, 12:39:03.061]GPGSV,5,2,17,25,40,130,30,28,47,229,19,29,16,164,23,32,25,310,17*7E[2024/10/02, 12:39:03.201]
$GPGSV,5,3,17,41,65,266,27,,31,111,27,,48,143,28,,74,336,20*79
$[2024/10/02, 12:39:03.342]GPGSV,5,4,17,,04,151,20,,67,358,22,,58,180,27,,26,287,22*7A
$GPGSV[2024/10/02, 12:39:03.482],5,5,17,,48,235,25*40
$GPGLL,0114.3932,N,10338.7549,E,043901,A,D*4[2024/10/02, 12:39:03.623]4
$GPBOD,,T,,M,,*47
$GPBWC,043901,,,,,,T,,M,,N,,D*71
$GPVTG,181[2024/10/02, 12:39:03.764].43,T,181.27,M,3.98,N,7.37,K,D*25
$PGRME,16.21,M,23.76,M,28.76,M*2[2024/10/02, 12:39:03.904]1
$PGRMZ,-23,f,3*07
$PGRMM,WGS 84*06
$HCHDM,,M*07
$WIMWV,,R,,,[2024/10/02, 12:39:04.045]A*6D
$GPAPB,V,V,,,N,V,V,,,,,,,,N*68
$GPZDA,043901,02,10,2024,-08[2024/10/02, 12:39:04.154],00*65
[2024/10/02, 12:39:04.232]$GPRMC,043903,A,0114.3910,N,1033[2024/10/02, 12:39:04.498]8.7546,E,3.97,180.34,021024,0.16,E,D*24
$GPRMB,A,,,,,,,,,,,,V,D*19[2024/10/02, 12:39:04.638]
$GPGGA,043903,0114.3910,N,10338.7546,E,2,15,0.74,-8.45,M,9.58,M,,[2024/10/02, 12:39:04.779]*6D
$GPGSA,A,3,10,12,18,23,25,28,29,32,,,,,1.40,0.74,1.18*01
$GP[2024/10/02, 12:39:04.920]GSV,5,1,17,10,18,343,15,12,22,089,30,18,70,177,28,23,39,021,20*7D
[2024/10/02, 12:39:05.060]$GPGSV,5,2,17,25,40,130,30,28,47,229,19,29,16,164,23,32,25,310,19*7[2024/10/02, 12:39:05.201]0
$GPGSV,5,3,17,41,65,266,27,,31,111,27,,48,143,28,,74,336,21*78
[2024/10/02, 12:39:05.341]$GPGSV,5,4,17,,04,151,21,,67,358,22,,58,180,28,,26,287,17*72
$GPGSV[2024/10/02, 12:39:05.482],5,5,17,,48,235,27*42
$GPGLL,0114.3910,N,10338.7546,E,043903,A,D*[2024/10/02, 12:39:05.623]49
$GPBOD,,T,,M,,*47
$GPBWC,043903,,,,,,T,,M,,N,,D*73
$GPVTG,180[2024/10/02, 12:39:05.763].34,T,180.18,M,3.97,N,7.35,K,D*24
$PGRME,16.22,M,22.46,M,27.70,M*2[2024/10/02, 12:39:05.904]9
$PGRMZ,-28,f,3*0C
$PGRMM,WGS 84*06
$HCHDM,,M*07
$WIMWV,,R,,,[2024/10/02, 12:39:06.044]A*6D
$GPAPB,V,V,,,N,V,V,,,,,,,,N*68
$GPZDA,043903,02,10,2024,-08[2024/10/02, 12:39:06.138],00*67
[2024/10/02, 12:39:06.279]$GPRMC,043905,A,0114.3886,N,10338.7553,E,3.93,167.23,0[2024/10/02, 12:39:06.544]21024,0.16,E,D*23
$GPRMB,A,,,,,,,,,,,,V,D*19
$GPGGA,043905,0114.3[2024/10/02, 12:39:06.685]886,N,10338.7553,E,2,15,0.74,-9.02,M,9.58,M,,*63
$GPGSA,A,3,10,12,[2024/10/02, 12:39:06.825]18,23,25,28,29,32,,,,,1.40,0.74,1.18*01
$GPGSV,5,1,17,10,18,343,1[2024/10/02, 12:39:06.966]7,12,22,089,30,18,70,177,28,23,39,021,22*7D
$GPGSV,5,2,17,25,40,13[2024/10/02, 12:39:07.107]0,30,28,47,229,22,29,16,164,25,32,25,310,20*74
$GPGSV,5,3,17,41,65,[2024/10/02, 12:39:07.247]266,26,,31,111,24,,48,143,28,,74,336,20*7B
$GPGSV,5,4,17,,04,151,1[2024/10/02, 12:39:07.388]7,,67,358,21,,58,180,27,,26,287,16*7A
$GPGSV,5,5,17,,48,235,27*42[2024/10/02, 12:39:07.528]
$GPGLL,0114.3886,N,10338.7553,E,043905,A,D*45
$GPBOD,,T,,M,,*47[2024/10/02, 12:39:07.669]
$GPBWC,043905,,,,,,T,,M,,N,,D*75
$GPVTG,167.23,T,167.07,M,3.93,N,[2024/10/02, 12:39:07.810]7.27,K,D*2B
$PGRME,16.23,M,21.41,M,26.86,M*24
$PGRMZ,-30,f,3*05[2024/10/02, 12:39:07.950]
$PGRMM,WGS 84*06
$HCHDM,,M*07
$WIMWV,,R,,,A*6D
$GPAPB,V,V,,,N,[2024/10/02, 12:39:08.091]V,V,,,,,,,,N*68
$GPZDA,043905,02,10,2024,-08,00*61
[2024/10/02, 12:39:08.278]$GPRMC,043907,A,0114.3866,N,10338.7557,E,3.83,167.05,0[2024/10/02, 12:39:08.544]21024,0.16,E,D*2E
$GPRMB,A,,,,,,,,,,,,V,D*19
$GPGGA,043907,0114.3[2024/10/02, 12:39:08.684]866,N,10338.7557,E,2,15,0.74,-9.15,M,9.58,M,,*6D
$GPGSA,A,3,10,12,[2024/10/02, 12:39:08.825]18,23,25,28,29,32,,,,,1.40,0.74,1.18*01
$GPGSV,5,1,17,10,18,343,19[2024/10/02, 12:39:08.966],12,22,089,30,18,70,177,27,23,39,021,20*7E
$GPGSV,5,2,17,25,40,130[2024/10/02, 12:39:09.106],30,28,47,229,23,29,16,164,25,32,25,310,21*74
$GPGSV,5,3,17,41,65,[2024/10/02, 12:39:09.247]266,26,,31,111,27,,48,143,28,,74,336,20*78
$GPGSV,5,4,17,,04,151,1[2024/10/02, 12:39:09.387]7,,67,358,20,,58,180,28,,26,287,19*7B
$GPGSV,5,5,17,,48,235,27*42[2024/10/02, 12:39:09.528]
$GPGLL,0114.3866,N,10338.7557,E,043907,A,D*4D
$GPBOD,,T,,M,,*47
[2024/10/02, 12:39:09.668]$GPBWC,043907,,,,,,T,,M,,N,,D*77
$GPVTG,167.05,T,166.89,M,3.83,N,[2024/10/02, 12:39:09.809]7.08,K,D*24
$PGRME,16.23,M,21.41,M,26.86,M*24
$PGRMZ,-30,f,3*05
[2024/10/02, 12:39:09.950]$PGRMM,WGS 84*06
$HCHDM,,M*07
$WIMWV,,R,,,A*6D
$GPAPB,V,V,,,N,V[2024/10/02, 12:39:10.075],V,,,,,,,,N*68
$GPZDA,043907,02,10,2024,-08,00*63
[2024/10/02, 12:39:10.278]$GPRMC,043909,A,0114.3842,N,10338.7563,E,3.81,167.15,0[2024/10/02, 12:39:10.543]21024,0.16,E,D*22
$GPRMB,A,,,,,,,,,,,,V,D*19
$GPGGA,043909,0114.3[2024/10/02, 12:39:10.684]842,N,10338.7563,E,2,15,0.74,-9.49,M,9.58,M,,*6B
$GPGSA,A,3,10,12,[2024/10/02, 12:39:10.825]18,23,25,28,29,32,,,,,1.40,0.74,1.18*01
$GPGSV,5,1,17,10,18,343,1[2024/10/02, 12:39:10.965]8,12,22,089,30,18,70,177,27,23,39,021,22*7D
$GPGSV,5,2,17,25,40,130[2024/10/02, 12:39:11.106],30,28,47,229,22,29,16,164,24,32,25,310,20*75
$GPGSV,5,3,17,41,65,[2024/10/02, 12:39:11.246]266,26,,31,111,26,,48,143,28,,74,336,23*7A
$GPGSV,5,4,17,,04,151,1[2024/10/02, 12:39:11.387]7,,67,358,21,,58,180,28,,26,287,16*75
$GPGSV,5,5,17,,48,235,26*43[2024/10/02, 12:39:11.527]
$GPGLL,0114.3842,N,10338.7563,E,043909,A,D*42
$GPBOD,,T,,M,,*47[2024/10/02, 12:39:11.668]
$GPBWC,043909,,,,,,T,,M,,N,,D*79
$GPVTG,167.15,T,166.99,M,3.81,N,[2024/10/02, 12:39:11.809]7.05,K,D*2B
$PGRME,16.23,M,21.55,M,26.98,M*2E
$PGRMZ,-31,f,3*04[2024/10/02, 12:39:11.949]
$PGRMM,WGS 84*06
$HCHDM,,M*07
$WIMWV,,R,,,A*6D
$GPAPB,V,V,,,N,V[2024/10/02, 12:39:12.074],V,,,,,,,,N*68
$GPZDA,043909,02,10,2024,-08,00*6D
[2024/10/02, 12:39:12.277]$GPRMC,043911,A,0114.3818,N,103[2024/10/02, 12:39:12.496]38.7565,E,3.83,171.15,021024,0.16,E,D*27
$GPRMB,A,,,,,,,,,,,,V,D*1[2024/10/02, 12:39:12.637]9
$GPGGA,043911,0114.3818,N,10338.7565,E,2,15,0.74,-9.63,M,9.58,M,[2024/10/02, 12:39:12.777],*63
$GPGSA,A,3,10,12,18,23,25,28,29,32,,,,,1.40,0.74,1.18*01
$GP[2024/10/02, 12:39:12.918]GSV,5,1,17,10,18,343,19,12,22,089,30,18,70,177,27,23,39,021,19*74
[2024/10/02, 12:39:13.058]$GPGSV,5,2,17,25,40,130,30,28,47,229,22,29,16,164,25,32,25,310,18*7[2024/10/02, 12:39:13.199]F
$GPGSV,5,3,17,41,65,266,26,,31,111,25,,48,143,28,,74,336,20*7A
[2024/10/02, 12:39:13.339]$GPGSV,5,4,17,,04,151,19,,67,358,21,,58,180,27,,26,287,17*75
$GPGS[2024/10/02, 12:39:13.480]V,5,5,17,,48,235,26*43
$GPGLL,0114.3818,N,10338.7565,E,043911,A,D*[2024/10/02, 12:39:13.621]42
$GPBOD,,T,,M,,*47
$GPBWC,043911,,,,,,T,,M,,N,,D*70
$GPVTG,17[2024/10/02, 12:39:13.761]1.15,T,170.99,M,3.83,N,7.09,K,D*25
$PGRME,16.23,M,21.75,M,27.14,M*[2024/10/02, 12:39:13.902]29
$PGRMZ,-32,f,3*07
$PGRMM,WGS 84*06
$HCHDM,,M*07
$WIMWV,,R,,[2024/10/02, 12:39:14.042],A*6D
$GPAPB,V,V,,,N,V,V,,,,,,,,N*68
$GPZDA,043911,02,10,2024,-08[2024/10/02, 12:39:14.136],00*64
[2024/10/02, 12:39:14.277]$GPRMC,043913,A,0114.3796,N,103[2024/10/02, 12:39:14.495]38.7568,E,3.84,171.69,021024,0.16,E,D*2D
$GPRMB,A,,,,,,,,,,,,V,D*1[2024/10/02, 12:39:14.636]9
$GPGGA,043913,0114.3796,N,10338.7568,E,2,15,0.74,-9.45,M,9.58,M,[2024/10/02, 12:39:14.777],*61
$GPGSA,A,3,10,12,18,23,25,28,29,32,,,,,1.40,0.74,1.18*01
$GP[2024/10/02, 12:39:14.917]GSV,5,1,17,10,19,343,19,12,22,089,30,18,70,177,27,23,39,021,22*7D
[2024/10/02, 12:39:15.058]$GPGSV,5,2,17,25,40,130,30,28,47,229,24,29,16,164,24,32,25,310,22*7[2024/10/02, 12:39:15.198]1
$GPGSV,5,3,17,41,65,266,26,,31,111,24,,48,143,28,,74,336,21*7A
[2024/10/02, 12:39:15.339]$GPGSV,5,4,17,,04,151,17,,67,358,21,,58,180,27,,26,287,20*7F
$GPGS[2024/10/02, 12:39:15.480]V,5,5,17,,48,235,27*42
$GPGLL,0114.3796,N,10338.7568,E,043913,A,D*[2024/10/02, 12:39:15.620]44
$GPBOD,,T,,M,,*47
$GPBWC,043913,,,,,,T,,M,,N,,D*72
$GPVTG,17[2024/10/02, 12:39:15.761]1.69,T,171.53,M,3.84,N,7.11,K,D*27
$PGRME,16.11,M,21.82,M,27.12,M*[2024/10/02, 12:39:15.901]26
$PGRMZ,-31,f,3*04
$PGRMM,WGS 84*06
$HCHDM,,M*07
$WIMWV,,R,,[2024/10/02, 12:39:16.042],A*6D
$GPAPB,V,V,,,N,V,V,,,,,,,,N*68
$GPZDA,043913,02,10,2024,-08[2024/10/02, 12:39:16.151],00*66
[2024/10/02, 12:39:16.229]$GPRMC,043915,A,0114.3772,N,103[2024/10/02, 12:39:16.495]38.7570,E,3.89,171.57,021024,0.16,E,D*28
$GPRMB,A,,,,,,,,,,,,V,D*1[2024/10/02, 12:39:16.636]9
$GPGGA,043915,0114.3772,N,10338.7570,E,2,15,0.74,-9.86,M,9.58,M,[2024/10/02, 12:39:16.776],*6B
$GPGSA,A,3,10,12,18,23,25,28,29,32,,,,,1.40,0.74,1.18*01
$GP[2024/10/02, 12:39:16.917]GSV,5,1,17,10,19,343,18,12,22,089,30,18,70,177,27,23,39,021,20*7E
[2024/10/02, 12:39:17.057]$GPGSV,5,2,17,25,40,130,30,28,47,229,22,29,16,164,25,32,25,310,22*7[2024/10/02, 12:39:17.198]6
$GPGSV,5,3,17,41,65,266,26,,31,111,25,,48,143,28,,74,336,23*79
[2024/10/02, 12:39:17.339]$GPGSV,5,4,17,,04,151,16,,67,358,21,,58,180,26,,26,287,18*74
$GPGS[2024/10/02, 12:39:17.479]V,5,5,17,,48,235,26*43
$GPGLL,0114.3772,N,10338.7570,E,043915,A,D[2024/10/02, 12:39:17.620]*41
$GPBOD,,T,,M,,*47
$GPBWC,043915,,,,,,T,,M,,N,,D*74
$GPVTG,17[2024/10/02, 12:39:17.760]1.57,T,171.41,M,3.89,N,7.21,K,D*27
$PGRME,15.94,M,21.88,M,27.07,M*[2024/10/02, 12:39:17.901]26
$PGRMZ,-32,f,3*07
$PGRMM,WGS 84*06
$HCHDM,,M*07
$WIMWV,,R,,[2024/10/02, 12:39:18.042],A*6D
$GPAPB,V,V,,,N,V,V,,,,,,,,N*68
$GPZDA,043915,02,10,2024,-0[2024/10/02, 12:39:18.151]8,00*60
[2024/10/02, 12:39:18.229]$GPRMC,043917,A,0114.3750,N,103[2024/10/02, 12:39:18.494]38.7572,E,3.88,171.88,021024,0.16,E,D*2B
$GPRMB,A,,,,,,,,,,,,V,D*1[2024/10/02, 12:39:18.635]9
$GPGGA,043917,0114.3750,N,10338.7572,E,2,15,0.74,-10.04,M,9.58,M[2024/10/02, 12:39:18.776],,*59
$GPGSA,A,3,10,12,18,23,25,28,29,32,,,,,1.40,0.74,1.18*01
$[2024/10/02, 12:39:18.916]GPGSV,5,1,17,10,19,343,19,12,22,089,30,18,70,177,26,23,39,021,19*74[2024/10/02, 12:39:19.057]
$GPGSV,5,2,17,25,40,130,30,28,47,229,22,29,16,164,26,32,25,310,18[2024/10/02, 12:39:19.198]*7C
$GPGSV,5,3,17,41,65,266,26,,31,111,27,,48,143,28,,74,336,21*79[2024/10/02, 12:39:19.338]
$GPGSV,5,4,17,,04,151,17,,67,358,20,,58,180,27,,26,287,16*7B
$GP[2024/10/02, 12:39:19.479]GSV,5,5,17,,48,235,27*42
$GPGLL,0114.3750,N,10338.7572,E,043917,A,[2024/10/02, 12:39:19.619]D*41
$GPBOD,,T,,M,,*47
$GPBWC,043917,,,,,,T,,M,,N,,D*76
$GPVTG,[2024/10/02, 12:39:19.760]171.88,T,171.72,M,3.88,N,7.19,K,D*2F
$PGRME,15.87,M,20.78,M,26.15,[2024/10/02, 12:39:19.900]M*28
$PGRMZ,-33,f,3*06
$PGRMM,WGS 84*06
$HCHDM,,M*07
$WIMWV,,R[2024/10/02, 12:39:20.041],,,A*6D
$GPAPB,V,V,,,N,V,V,,,,,,,,N*68
$GPZDA,043917,02,10,2024,-[2024/10/02, 12:39:20.150]08,00*62
[2024/10/02, 12:39:20.228]$GPRMC,043919,A,0114.3730,N,10[2024/10/02, 12:39:20.494]338.7575,E,3.75,172.27,021024,0.16,E,D*20
$GPRMB,A,,,,,,,,,,,,V,D*[2024/10/02, 12:39:20.635]19
$GPGGA,043919,0114.3730,N,10338.7575,E,2,15,0.74,-10.64,M,9.58,[2024/10/02, 12:39:20.775]M,,*50
$GPGSA,A,3,10,12,18,23,25,28,29,32,,,,,1.40,0.74,1.18*01
[2024/10/02, 12:39:20.916]$GPGSV,5,1,17,10,19,343,17,12,22,089,29,18,70,177,26,23,39,021,19*7[2024/10/02, 12:39:21.056]2
$GPGSV,5,2,17,25,40,130,29,28,47,229,22,29,16,164,25,32,25,310,1[2024/10/02, 12:39:21.197]9*76
$GPGSV,5,3,17,41,65,266,26,,31,111,25,,48,143,28,,74,336,19*7[2024/10/02, 12:39:21.338]0
$GPGSV,5,4,17,,04,151,18,,67,358,20,,58,180,25,,26,287,14*74
$G[2024/10/02, 12:39:21.478]PGSV,5,5,17,,48,235,26*43
