[2024/10/02, 13:13:40.788]18,23,25,28,29,31,32,,,,1.29,0.63,1.12*00
$GPGSV,5,1,19,10,29,352,[2024/10/02, 13:13:40.929]28,12,19,072,23,18,52,174,23,23,49,040,28*71
$GPGSV,5,2,19,25,45,1[2024/10/02, 13:13:41.070]07,28,28,56,253,18,29,11,151,20,31,24,227,22*77
$GPGSV,5,3,19,32,2[2024/10/02, 13:13:41.210]3,326,21,,34,104,24,,44,147,22,,65,337,28*7B
$GPGSV,5,4,19,,56,035[2024/10/02, 13:13:41.351],25,,51,010,30,,59,353,30,,74,172,26*7D
$GPGSV,5,5,19,,44,047,32,,[2024/10/02, 13:13:41.491]28,271,20,,40,216,17*48
$GPGLL,0114.1537,N,10339.0171,E,051339,A,A[2024/10/02, 13:13:41.632]*41
$GPBOD,,T,,M,,*47
$GPBWC,051339,,,,,,T,,M,,N,,A*76
$GPVTG,8[2024/10/02, 13:13:41.773]9.44,T,89.28,M,2.80,N,5.18,K,A*2F
$PGRME,12.47,M,12.49,M,17.64,M*2[2024/10/02, 13:13:41.913]4
$PGRMZ,5,f,3*1E
$PGRMM,WGS 84*06
$HCHDM,,M*07
$WIMWV,,R,,,A*[2024/10/02, 13:13:42.054]6D
$GPAPB,V,V,,,N,V,V,,,,,,,,N*68
$GPZDA,051339,02,10,2024,-08,00[2024/10/02, 13:13:42.147]*67
[2024/10/02, 13:13:42.226]$GPRMC,051341,A,0114.1537,N,10339.0188,E,2.8[2024/10/02, 13:13:42.491]0,86.60,021024,0.16,E,A*14
$GPRMB,A,,,,,,,,,,,,V,A*1C
$GPGGA,0513[2024/10/02, 13:13:42.632]41,0114.1537,N,10339.0188,E,1,19,0.63,5.24,M,9.61,M,,*4D
$GPGSA,A,[2024/10/02, 13:13:42.772]3,10,12,18,23,25,28,29,31,32,,,,1.29,0.63,1.12*00
$GPGSV,5,1,19,10[2024/10/02, 13:13:42.913],29,352,30,12,19,072,23,18,52,174,23,23,49,040,28*78
$GPGSV,5,2,19[2024/10/02, 13:13:43.054],25,45,107,28,28,56,253,22,29,11,151,22,31,24,227,18*75
$GPGSV,5,3[2024/10/02, 13:13:43.194],19,32,23,326,24,,34,104,25,,44,147,23,,65,337,27*71
$GPGSV,5,4,19[2024/10/02, 13:13:43.335],,56,035,26,,51,010,29,,59,353,30,,74,172,27*77
$GPGSV,5,5,19,,44,[2024/10/02, 13:13:43.475]047,32,,28,271,16,,40,216,24*4D
$GPGLL,0114.1537,N,10339.0188,E,05[2024/10/02, 13:13:43.616]1341,A,A*48
$GPBOD,,T,,M,,*47
$GPBWC,051341,,,,,,T,,M,,N,,A*79
[2024/10/02, 13:13:43.757]$GPVTG,86.60,T,86.44,M,2.80,N,5.19,K,A*22
$PGRME,12.47,M,12.04,M,1[2024/10/02, 13:13:43.897]7.33,M*2F
$PGRMZ,17,f,3*2D
$PGRMM,WGS 84*06
$HCHDM,,M*07
$WIMW[2024/10/02, 13:13:44.038]V,,R,,,A*6D
$GPAPB,V,V,,,N,V,V,,,,,,,,N*68
$GPZDA,051341,02,10,2[2024/10/02, 13:13:44.147]024,-08,00*68
[2024/10/02, 13:13:44.225]$GPRMC,051343,A,0114.1538,N,10339.0205,E,2.8[2024/10/02, 13:13:44.491]4,90.67,021024,0.16,E,A*1B
$GPRMB,A,,,,,,,,,,,,V,A*1C
$GPGGA,0513[2024/10/02, 13:13:44.631]43,0114.1538,N,10339.0205,E,1,19,0.63,8.90,M,9.61,M,,*44
$GPGSA,A,[2024/10/02, 13:13:44.772]3,10,12,18,23,25,28,29,31,32,,,,1.29,0.63,1.12*00
$GPGSV,5,1,19,10[2024/10/02, 13:13:44.913],29,352,30,12,19,072,24,18,52,174,24,23,49,040,29*79
$GPGSV,5,2,19[2024/10/02, 13:13:45.053],25,45,107,28,28,56,253,21,29,11,151,19,31,24,227,22*77
$GPGSV,5,3[2024/10/02, 13:13:45.194],19,32,23,326,26,,34,104,25,,44,147,22,,65,337,26*73
$GPGSV,5,4,19[2024/10/02, 13:13:45.334],,56,035,25,,51,010,29,,59,353,30,,74,172,27*74
$GPGSV,5,5,19,,44,[2024/10/02, 13:13:45.475]047,32,,28,271,16,,40,216,18*42
$GPGLL,0114.1538,N,10339.0205,E,05[2024/10/02, 13:13:45.615]1343,A,A*43
$GPBOD,,T,,M,,*47
$GPBWC,051343,,,,,,T,,M,,N,,A*7B
[2024/10/02, 13:13:45.756]$GPVTG,90.67,T,90.51,M,2.84,N,5.25,K,A*2A
$PGRME,12.47,M,11.75,M,1[2024/10/02, 13:13:45.897]7.14,M*2F
$PGRMZ,29,f,3*20
$PGRMM,WGS 84*06
$HCHDM,,M*07
$WIMW[2024/10/02, 13:13:46.037]V,,R,,,A*6D
$GPAPB,V,V,,,N,V,V,,,,,,,,N*68
$GPZDA,051343,02,10,20[2024/10/02, 13:13:46.147]24,-08,00*6A
[2024/10/02, 13:13:46.225]$GPRMC,051345,A,0114.1536,N,10339.0225,E,2.9[2024/10/02, 13:13:46.490]2,101.93,021024,0.16,E,A*24
$GPRMB,A,,,,,,,,,,,,V,A*1C
$GPGGA,051[2024/10/02, 13:13:46.631]345,0114.1536,N,10339.0225,E,1,19,0.63,11.58,M,9.61,M,,*72
$GPGSA,[2024/10/02, 13:13:46.771]A,3,10,12,18,23,25,28,29,31,32,,,,1.29,0.63,1.12*00
$GPGSV,5,1,19,[2024/10/02, 13:13:46.912]10,29,352,27,12,19,072,24,18,52,174,23,23,49,040,28*79
$GPGSV,5,2,[2024/10/02, 13:13:47.053]19,25,45,107,28,28,56,253,19,29,11,151,25,31,24,227,20*71
$GPGSV,5[2024/10/02, 13:13:47.193],3,19,32,23,326,21,,34,104,25,,44,147,22,,65,337,26*74
$GPGSV,5,4,[2024/10/02, 13:13:47.334]19,,56,035,24,,51,010,30,,59,353,30,,74,172,26*7C
$GPGSV,5,5,19,,4[2024/10/02, 13:13:47.474]4,047,32,,28,271,19,,40,216,17*42
$GPGLL,0114.1536,N,10339.0225,E,[2024/10/02, 13:13:47.615]051345,A,A*49
$GPBOD,,T,,M,,*47
$GPBWC,051345,,,,,,T,,M,,N,,A*7D[2024/10/02, 13:13:47.755]
$GPVTG,101.93,T,101.77,M,2.92,N,5.40,K,A*21
$PGRME,12.48,M,11.63[2024/10/02, 13:13:47.896],M,17.05,M*27
$PGRMZ,38,f,3*20
$PGRMM,WGS 84*06
$HCHDM,,M*07
$[2024/10/02, 13:13:48.037]WIMWV,,R,,,A*6D
$GPAPB,V,V,,,N,V,V,,,,,,,,N*68
$GPZDA,051345,02,1[2024/10/02, 13:13:48.162]0,2024,-08,00*6C
[2024/10/02, 13:13:48.240]$GPRMC,051347,A,0114.1533,N,10339.0246,E,3.17,114.0[2024/10/02, 13:13:48.505]3,021024,0.16,E,A*27
$GPRMB,A,,,,,,,,,,,,V,A*1C
$GPGGA,051347,011[2024/10/02, 13:13:48.646]4.1533,N,10339.0246,E,1,19,0.63,13.14,M,9.61,M,,*7A
$GPGSA,A,3,10,[2024/10/02, 13:13:48.787]12,18,23,25,28,29,31,32,,,,1.29,0.63,1.12*00
$GPGSV,5,1,19,10,29,[2024/10/02, 13:13:48.927]352,26,12,19,072,25,18,52,174,25,23,49,040,28*7F
$GPGSV,5,2,19,25,[2024/10/02, 13:13:49.068]45,107,28,28,56,253,19,29,11,151,26,31,24,227,18*79
$GPGSV,5,3,19,3[2024/10/02, 13:13:49.208]2,23,326,18,,34,104,28,,44,147,19,,65,337,27*7A
$GPGSV,5,4,19,,56,[2024/10/02, 13:13:49.349]035,21,,51,010,30,,59,353,30,,74,172,27*78
$GPGSV,5,5,19,,44,047,3[2024/10/02, 13:13:49.489]2,,28,271,16,,40,216,13*49
$GPGLL,0114.1533,N,10339.0246,E,051347,[2024/10/02, 13:13:49.630]A,A*4B
$GPBOD,,T,,M,,*47
$GPBWC,051347,,,,,,T,,M,,N,,A*7F
$GPVT[2024/10/02, 13:13:49.771]G,114.03,T,113.87,M,3.17,N,5.87,K,A*27
$PGRME,12.48,M,11.71,M,17.1[2024/10/02, 13:13:49.911]1,M*21
$PGRMZ,43,f,3*2C
$PGRMM,WGS 84*06
$HCHDM,,M*07
$WIMWV,,[2024/10/02, 13:13:50.052]R,,,A*6D
$GPAPB,V,V,,,N,V,V,,,,,,,,N*68
$GPZDA,051347,02,10,2024,[2024/10/02, 13:13:50.161]-08,00*6E
[2024/10/02, 13:13:50.239]$GPRMC,051349,A,0114.1528,N,10339.0266,E,3.34,110.7[2024/10/02, 13:13:50.505]4,021024,0.16,E,A*24
$GPRMB,A,,,,,,,,,,,,V,A*1C
$GPGGA,051349,011[2024/10/02, 13:13:50.645]4.1528,N,10339.0266,E,1,19,0.63,14.84,M,9.61,M,,*72
$GPGSA,A,3,10,[2024/10/02, 13:13:50.786]12,18,23,25,28,29,31,32,,,,1.29,0.63,1.12*00
$GPGSV,5,1,19,10,29,[2024/10/02, 13:13:50.927]352,23,12,19,072,25,18,52,174,27,23,49,040,24*74
$GPGSV,5,2,19,25,[2024/10/02, 13:13:51.067]45,107,28,28,56,253,19,29,11,151,20,31,24,227,16*71
$GPGSV,5,3,19,[2024/10/02, 13:13:51.208]32,23,326,15,,34,104,29,,44,147,21,,65,337,21*7B
$GPGSV,5,4,19,,56[2024/10/02, 13:13:51.348],035,25,,51,010,29,,59,353,30,,74,172,27*74
$GPGSV,5,5,19,,44,047,[2024/10/02, 13:13:51.489]31,,28,271,24,,40,216,13*4B
$GPGLL,0114.1528,N,10339.0266,E,051349[2024/10/02, 13:13:51.630],A,A*4D
$GPBOD,,T,,M,,*47
$GPBWC,051349,,,,,,T,,M,,N,,A*71
$GPVT[2024/10/02, 13:13:51.770]G,110.74,T,110.58,M,3.34,N,6.19,K,A*27
$PGRME,12.49,M,12.03,M,17.[2024/10/02, 13:13:51.911]34,M*21
$PGRMZ,49,f,3*26
$PGRMM,WGS 84*06
$HCHDM,,M*07
$WIMWV,,[2024/10/02, 13:13:52.051]R,,,A*6D
$GPAPB,V,V,,,N,V,V,,,,,,,,N*68
$GPZDA,051349,02,10,2024[2024/10/02, 13:13:52.161],-08,00*60
[2024/10/02, 13:13:52.239]$GPRMC,051351,A,0114.1523,N,10339.0283,E,3.35,114.2[2024/10/02, 13:13:52.504]4,021024,0.16,E,A*2D
$GPRMB,A,,,,,,,,,,,,V,A*1C
$GPGGA,051351,01[2024/10/02, 13:13:52.645]14.1523,N,10339.0283,E,1,19,0.63,16.10,M,9.61,M,,*74
$GPGSA,A,3,10[2024/10/02, 13:13:52.786],12,18,23,25,28,29,31,32,,,,1.29,0.63,1.12*00
$GPGSV,5,1,19,10,29[2024/10/02, 13:13:52.926],352,23,12,19,072,23,18,52,174,28,23,49,040,25*7C
$GPGSV,5,2,19,25,[2024/10/02, 13:13:53.067]45,107,29,28,56,253,19,29,11,151,20,31,24,227,16*70
$GPGSV,5,3,19,[2024/10/02, 13:13:53.207]32,23,326,15,,34,104,29,,44,147,22,,65,337,21*78
$GPGSV,5,4,19,,56[2024/10/02, 13:13:53.348],035,26,,51,010,29,,59,353,28,,74,172,26*7F
$GPGSV,5,5,19,,44,047,[2024/10/02, 13:13:53.488]25,,28,271,24,,40,216,20*4E
$GPGLL,0114.1523,N,10339.0283,E,05135[2024/10/02, 13:13:53.629]1,A,A*44
$GPBOD,,T,,M,,*47
$GPBWC,051351,,,,,,T,,M,,N,,A*78
$GP[2024/10/02, 13:13:53.770]VTG,114.24,T,114.08,M,3.35,N,6.20,K,A*2C
$PGRME,12.50,M,12.47,M,17[2024/10/02, 13:13:53.910].65,M*2D
$PGRMZ,53,f,3*2D
$PGRMM,WGS 84*06
$HCHDM,,M*07
$WIMWV[2024/10/02, 13:13:54.051],,R,,,A*6D
$GPAPB,V,V,,,N,V,V,,,,,,,,N*68
$GPZDA,051351,02,10,202[2024/10/02, 13:13:54.160]4,-08,00*69
[2024/10/02, 13:13:54.238]$GPRMC,051353,A,0114.1512,N,10339.0304,E,3.55,119.9[2024/10/02, 13:13:54.504]1,021024,0.16,E,A*26
$GPRMB,A,,,,,,,,,,,,V,A*1C
$GPGGA,051353,01[2024/10/02, 13:13:54.645]14.1512,N,10339.0304,E,1,19,0.63,16.30,M,9.61,M,,*78
$GPGSA,A,3,10[2024/10/02, 13:13:54.785],12,18,23,25,28,29,31,32,,,,1.29,0.63,1.12*00
$GPGSV,5,1,19,10,30,[2024/10/02, 13:13:54.926]353,25,12,19,072,23,18,52,174,27,23,49,040,28*71
$GPGSV,5,2,19,25,[2024/10/02, 13:13:55.066]45,107,30,28,56,253,21,29,11,151,20,31,24,227,14*71
$GPGSV,5,3,19,[2024/10/02, 13:13:55.207]32,23,326,17,,34,104,30,,44,147,20,,65,337,19*7B
$GPGSV,5,4,19,,56[2024/10/02, 13:13:55.347],035,27,,51,010,28,,59,353,28,,74,172,25*7C
$GPGSV,5,5,19,,44,047,2[2024/10/02, 13:13:55.488]6,,28,271,17,,40,216,15*4B
$GPGLL,0114.1512,N,10339.0304,E,051353[2024/10/02, 13:13:55.629],A,A*4A
$GPBOD,,T,,M,,*47
$GPBWC,051353,,,,,,T,,M,,N,,A*7A
$GPVT[2024/10/02, 13:13:55.769]G,119.91,T,119.75,M,3.55,N,6.58,K,A*21
$PGRME,12.51,M,13.17,M,18.1[2024/10/02, 13:13:55.910]6,M*23
$PGRMZ,53,f,3*2D
$PGRMM,WGS 84*06
$HCHDM,,M*07
$WIMWV,,[2024/10/02, 13:13:56.050]R,,,A*6D
$GPAPB,V,V,,,N,V,V,,,,,,,,N*68
$GPZDA,051353,02,10,2024[2024/10/02, 13:13:56.160],-08,00*6B
[2024/10/02, 13:13:56.238]$GPRMC,051355,A,0114.1502,N,10339.0324,E,3.79,118.[2024/10/02, 13:13:56.503]42,021024,0.16,E,A*22
$GPRMB,A,,,,,,,,,,,,V,A*1C
$GPGGA,051355,01[2024/10/02, 13:13:56.644]14.1502,N,10339.0324,E,1,19,0.63,16.62,M,9.61,M,,*7A
$GPGSA,A,3,10[2024/10/02, 13:13:56.785],12,18,23,25,28,29,31,32,,,,1.29,0.63,1.12*00
$GPGSV,5,1,19,10,30,[2024/10/02, 13:13:56.925]353,23,12,19,072,23,18,52,174,26,23,49,040,29*77
$GPGSV,5,2,19,25,[2024/10/02, 13:13:57.066]45,107,30,28,56,253,20,29,11,151,16,31,24,227,15*74
$GPGSV,5,3,19,[2024/10/02, 13:13:57.206]32,23,326,17,,34,104,30,,44,147,20,,65,337,20*71
$GPGSV,5,4,19,,56[2024/10/02, 13:13:57.347],035,26,,51,010,27,,59,353,27,,74,172,26*7E
$GPGSV,5,5,19,,44,047,[2024/10/02, 13:13:57.488]28,,28,271,13,,40,216,15*41
$GPGLL,0114.1502,N,10339.0324,E,051355[2024/10/02, 13:13:57.628],A,A*4F
$GPBOD,,T,,M,,*47
$GPBWC,051355,,,,,,T,,M,,N,,A*7C
$GPVT[2024/10/02, 13:13:57.769]G,118.42,T,118.26,M,3.79,N,7.03,K,A*28
$PGRME,12.52,M,14.19,M,18.[2024/10/02, 13:13:57.909]92,M*25
$PGRMZ,55,f,3*2B
$PGRMM,WGS 84*06
$HCHDM,,M*07
$WIMWV,,[2024/10/02, 13:13:58.050]R,,,A*6D
$GPAPB,V,V,,,N,V,V,,,,,,,,N*68
$GPZDA,051355,02,10,2024[2024/10/02, 13:13:58.159],-08,00*6D
[2024/10/02, 13:13:58.237]$GPRMC,051357,A,0114.1499,N,10339.0345,E,3.77,117.[2024/10/02, 13:13:58.503]32,021024,0.16,E,A*22
$GPRMB,A,,,,,,,,,,,,V,A*1C
$GPGGA,051357,01[2024/10/02, 13:13:58.644]14.1499,N,10339.0345,E,1,19,0.63,17.55,M,9.61,M,,*79
$GPGSA,A,3,10[2024/10/02, 13:13:58.784],12,18,23,25,28,29,31,32,,,,1.29,0.63,1.12*00
$GPGSV,5,1,19,10,30,[2024/10/02, 13:13:58.925]353,25,12,19,072,26,18,52,174,28,23,49,040,30*72
$GPGSV,5,2,19,25,[2024/10/02, 13:13:59.065]45,107,30,28,56,253,22,29,11,151,18,31,24,227,14*79
$GPGSV,5,3,19,[2024/10/02, 13:13:59.206]32,23,326,18,,34,104,30,,44,147,22,,65,337,20*7C
$GPGSV,5,4,19,,56[2024/10/02, 13:13:59.346],035,26,,51,010,27,,59,353,27,,74,172,26*7E
$GPGSV,5,5,19,,44,047,[2024/10/02, 13:13:59.487]27,,28,271,14,,40,216,13*4F
$GPGLL,0114.1499,N,10339.0345,E,051357[2024/10/02, 13:13:59.628],A,A*49
$GPBOD,,T,,M,,*47
$GPBWC,051357,,,,,,T,,M,,N,,A*7E
$GPV[2024/10/02, 13:13:59.768]TG,117.32,T,117.16,M,3.77,N,6.97,K,A*2E
$PGRME,12.54,M,15.22,M,19.[2024/10/02, 13:13:59.909]72,M*25
$PGRMZ,58,f,3*26
$PGRMM,WGS 84*06
$HCHDM,,M*07
$WIMWV,[2024/10/02, 13:14:00.049],R,,,A*6D
$GPAPB,V,V,,,N,V,V,,,,,,,,N*68
$GPZDA,051357,02,10,202[2024/10/02, 13:14:00.159]4,-08,00*6F
[2024/10/02, 13:14:00.237]$GPRMC,051359,A,0114.1495,N,10339.0368,E,3.98,120.[2024/10/02, 13:14:00.502]20,021024,0.16,E,A*29
$GPRMB,A,,,,,,,,,,,,V,A*1C
$GPGGA,051359,01[2024/10/02, 13:14:00.643]14.1495,N,10339.0368,E,1,19,0.63,19.92,M,9.61,M,,*71
$GPGSA,A,3,10[2024/10/02, 13:14:00.784],12,18,23,25,28,29,31,32,,,,1.29,0.63,1.12*00
$GPGSV,5,1,19,10,30,[2024/10/02, 13:14:00.924]353,24,12,19,072,27,18,52,174,28,23,49,040,25*76
$GPGSV,5,2,19,25,[2024/10/02, 13:14:01.065]45,107,29,28,56,253,20,29,11,151,20,31,24,227,13*7F
$GPGSV,5,3,19,[2024/10/02, 13:14:01.205]32,23,326,16,,34,104,30,,44,147,23,,65,337,22*71
$GPGSV,5,4,19,,56[2024/10/02, 13:14:01.346],035,25,,51,010,28,,59,353,28,,74,172,26*7D
$GPGSV,5,5,19,,44,047,[2024/10/02, 13:14:01.487]26,,28,271,16,,40,216,15*4A
$GPGLL,0114.1495,N,10339.0368,E,051359[2024/10/02, 13:14:01.627],A,A*44
$GPBOD,,T,,M,,*47
$GPBWC,051359,,,,,,T,,M,,N,,A*70
$GPV[2024/10/02, 13:14:01.768]TG,120.20,T,120.04,M,3.98,N,7.36,K,A*25
$PGRME,12.56,M,14.17,M,18.[2024/10/02, 13:14:01.908]93,M*2E
$PGRMZ,65,f,3*28
$PGRMM,WGS 84*06
$HCHDM,,M*07
$WIMWV,[2024/10/02, 13:14:02.049],R,,,A*6D
$GPAPB,V,V,,,N,V,V,,,,,,,,N*68
$GPZDA,051359,02,10,2024[2024/10/02, 13:14:02.158],-08,00*61
[2024/10/02, 13:14:02.237]$GPRMC,051401,A,0114.1490,N,10339.0387,E,3.95,119.[2024/10/02, 13:14:02.502]25,021024,0.16,E,A*25
$GPRMB,A,,,,,,,,,,,,V,A*1C
$GPGGA,051401,0[2024/10/02, 13:14:02.643]114.1490,N,10339.0387,E,1,19,0.63,22.22,M,9.61,M,,*7C
$GPGSA,A,3,1[2024/10/02, 13:14:02.783]0,12,18,23,25,28,29,31,32,,,,1.29,0.63,1.12*00
$GPGSV,5,1,19,10,30[2024/10/02, 13:14:02.924],353,27,12,19,072,27,18,52,174,26,23,49,040,25*7B
$GPGSV,5,2,19,25,[2024/10/02, 13:14:03.064]45,107,28,28,56,253,20,29,11,151,19,31,24,227,13*74
$GPGSV,5,3,19,[2024/10/02, 13:14:03.205]32,23,326,16,,34,104,30,,44,147,21,,65,337,21*70
$GPGSV,5,4,19,,56[2024/10/02, 13:14:03.346],035,24,,51,010,29,,59,353,29,,74,172,27*7D
$GPGSV,5,5,19,,44,047,[2024/10/02, 13:14:03.486]29,,28,271,24,,40,216,17*46
$GPGLL,0114.1490,N,10339.0387,E,051401[2024/10/02, 13:14:03.627],A,A*4A
$GPBOD,,T,,M,,*47
$GPBWC,051401,,,,,,T,,M,,N,,A*7A
$GPV[2024/10/02, 13:14:03.767]TG,119.25,T,119.09,M,3.95,N,7.31,K,A*27
$PGRME,12.57,M,13.30,M,18.[2024/10/02, 13:14:03.908]30,M*24
$PGRMZ,73,f,3*2F
$PGRMM,WGS 84*06
$HCHDM,,M*07
$WIMWV,[2024/10/02, 13:14:04.048],R,,,A*6D
$GPAPB,V,V,,,N,V,V,,,,,,,,N*68
$GPZDA,051401,02,10,202[2024/10/02, 13:14:04.158]4,-08,00*6B
[2024/10/02, 13:14:04.236]$GPRMC,051403,A,0114.1490,N,10339.0406,E,3.77,100.[2024/10/02, 13:14:04.502]76,021024,0.16,E,A*2B
$GPRMB,A,,,,,,,,,,,,V,A*1C
$GPGGA,051403,0[2024/10/02, 13:14:04.642]114.1490,N,10339.0406,E,1,19,0.63,24.79,M,9.61,M,,*78
$GPGSA,A,3,1[2024/10/02, 13:14:04.783]0,12,18,23,25,28,29,31,32,,,,1.29,0.63,1.12*00
$GPGSV,5,1,19,10,30[2024/10/02, 13:14:04.923],353,26,12,19,072,27,18,52,174,27,23,49,040,25*7B
$GPGSV,5,2,19,25[2024/10/02, 13:14:05.064],45,107,29,28,56,253,20,29,11,151,23,31,24,227,14*7B
$GPGSV,5,3,19[2024/10/02, 13:14:05.205],32,23,326,18,,34,104,30,,44,147,23,,65,337,24*79
$GPGSV,5,4,19,,5[2024/10/02, 13:14:05.345]6,035,23,,51,010,29,,59,353,29,,74,172,26*7B
$GPGSV,5,5,19,,44,047[2024/10/02, 13:14:05.486],30,,28,271,20,,40,216,17*4A
$GPGLL,0114.1490,N,10339.0406,E,05140[2024/10/02, 13:14:05.626]3,A,A*46
$GPBOD,,T,,M,,*47
$GPBWC,051403,,,,,,T,,M,,N,,A*78
$GPV[2024/10/02, 13:14:05.767]TG,100.76,T,100.60,M,3.77,N,6.97,K,A*2F
$PGRME,12.59,M,12.67,M,17.[2024/10/02, 13:14:05.908]86,M*2B
$PGRMZ,81,f,3*22
$PGRMM,WGS 84*06
$HCHDM,,M*07
$WIMWV,[2024/10/02, 13:14:06.048],R,,,A*6D
$GPAPB,V,V,,,N,V,V,,,,,,,,N*68
$GPZDA,051403,02,10,202[2024/10/02, 13:14:06.157]4,-08,00*69
[2024/10/02, 13:14:06.236]$GPRMC,051405,A,0114.1485,N,10339.0428,E,3.79,102[2024/10/02, 13:14:06.501].11,021024,0.16,E,A*28
$GPRMB,A,,,,,,,,,,,,V,A*1C
$GPGGA,051405,0[2024/10/02, 13:14:06.642]114.1485,N,10339.0428,E,1,19,0.63,26.23,M,9.61,M,,*7B
$GPGSA,A,3,1[2024/10/02, 13:14:06.782]0,12,18,23,25,28,29,31,32,,,,1.29,0.63,1.12*00
$GPGSV,5,1,19,10,30[2024/10/02, 13:14:06.923],353,26,12,19,072,24,18,52,174,25,23,50,041,27*71
$GPGSV,5,2,19,25[2024/10/02, 13:14:07.063],45,107,27,28,56,253,19,29,11,151,25,31,24,227,17*7A
$GPGSV,5,3,19[2024/10/02, 13:14:07.204],32,23,326,15,,34,104,29,,44,147,23,,65,337,25*7D
$GPGSV,5,4,19,,5[2024/10/02, 13:14:07.345]6,035,25,,51,010,31,,59,353,30,,74,172,27*7D
$GPGSV,5,5,19,,44,047[2024/10/02, 13:14:07.485],31,,28,271,19,,40,216,16*40
$GPGLL,0114.1485,N,10339.0428,E,05140[2024/10/02, 13:14:07.626]5,A,A*48
$GPBOD,,T,,M,,*47
$GPBWC,051405,,,,,,T,,M,,N,,A*7E
$GP[2024/10/02, 13:14:07.766]VTG,102.11,T,101.95,M,3.79,N,7.03,K,A*25
$PGRME,12.60,M,12.30,M,17[2024/10/02, 13:14:07.907].61,M*2A
$PGRMZ,86,f,3*25
$PGRMM,WGS 84*06
$HCHDM,,M*07
$WIMWV[2024/10/02, 13:14:08.048],,R,,,A*6D
$GPAPB,V,V,,,N,V,V,,,,,,,,N*68
$GPZDA,051405,02,10,202[2024/10/02, 13:14:08.157]4,-08,00*6F
[2024/10/02, 13:14:08.235]$GPRMC,051407,A,0114.1479,N,10339.0449,E,3.85,104[2024/10/02, 13:14:08.501].13,021024,0.16,E,A*29
$GPRMB,A,,,,,,,,,,,,V,A*1C
$GPGGA,051407,0[2024/10/02, 13:14:08.641]114.1479,N,10339.0449,E,1,19,0.63,28.12,M,9.61,M,,*71
$GPGSA,A,3,[2024/10/02, 13:14:08.782]10,12,18,23,25,28,29,31,32,,,,1.29,0.63,1.12*00
$GPGSV,5,1,19,10,3[2024/10/02, 13:14:08.922]0,353,25,12,19,072,26,18,52,174,27,23,50,041,27*72
$GPGSV,5,2,19,2[2024/10/02, 13:14:09.063]5,45,106,28,28,56,253,21,29,11,151,24,31,24,227,18*71
$GPGSV,5,3,1[2024/10/02, 13:14:09.204]9,32,23,326,19,,34,104,29,,44,147,19,,65,337,23*7E
$GPGSV,5,4,19,,5[2024/10/02, 13:14:09.344]6,035,23,,51,010,31,,59,353,30,,74,172,27*7B
$GPGSV,5,5,19,,44,047[2024/10/02, 13:14:09.485],31,,28,271,16,,40,216,15*4C
$GPGLL,0114.1479,N,10339.0449,E,0514[2024/10/02, 13:14:09.625]07,A,A*4E
$GPBOD,,T,,M,,*47
$GPBWC,051407,,,,,,T,,M,,N,,A*7C
$GP[2024/10/02, 13:14:09.766]VTG,104.13,T,103.97,M,3.85,N,7.13,K,A*23
$PGRME,12.60,M,12.09,M,17[2024/10/02, 13:14:09.906].47,M*24
$PGRMZ,92,f,3*20
$PGRMM,WGS 84*06
$HCHDM,,M*07
$WIMWV[2024/10/02, 13:14:10.047],,R,,,A*6D
$GPAPB,V,V,,,N,V,V,,,,,,,,N*68
$GPZDA,051407,02,10,20[2024/10/02, 13:14:10.157]24,-08,00*6D
[2024/10/02, 13:14:10.235]$GPRMC,051409,A,0114.1473,N,10339.0471,E,3.98,104[2024/10/02, 13:14:10.500].63,021024,0.16,E,A*2D
$GPRMB,A,,,,,,,,,,,,V,A*1C
$GPGGA,051409,0[2024/10/02, 13:14:10.641]114.1473,N,10339.0471,E,1,19,0.63,29.09,M,9.61,M,,*75
$GPGSA,A,3,[2024/10/02, 13:14:10.781]10,12,18,23,25,28,29,31,32,,,,1.29,0.63,1.12*00
$GPGSV,5,1,19,10,3[2024/10/02, 13:14:10.922]0,353,25,12,19,072,27,18,52,174,27,23,50,041,27*73
$GPGSV,5,2,19,2[2024/10/02, 13:14:11.063]5,45,106,28,28,56,253,21,29,11,151,26,31,24,227,17*7C
$GPGSV,5,3,1[2024/10/02, 13:14:11.203]9,32,23,326,19,,34,104,29,,44,147,21,,65,337,24*72
$GPGSV,5,4,19,,[2024/10/02, 13:14:11.344]56,035,22,,51,010,31,,59,353,30,,74,172,27*7A
$GPGSV,5,5,19,,44,04[2024/10/02, 13:14:11.484]7,32,,28,271,24,,40,216,15*4E
$GPGLL,0114.1473,N,10339.0471,E,0514[2024/10/02, 13:14:11.625]09,A,A*41
$GPBOD,,T,,M,,*47
$GPBWC,051409,,,,,,T,,M,,N,,A*72
$GP[2024/10/02, 13:14:11.766]VTG,104.63,T,104.47,M,3.98,N,7.36,K,A*25
$PGRME,12.61,M,11.87,M,1[2024/10/02, 13:14:11.906]7.31,M*21
$PGRMZ,95,f,3*27
$PGRMM,WGS 84*06
$HCHDM,,M*07
$WIMWV[2024/10/02, 13:14:12.047],,R,,,A*6D
$GPAPB,V,V,,,N,V,V,,,,,,,,N*68
$GPZDA,051409,02,10,20[2024/10/02, 13:14:12.156]24,-08,00*63
[2024/10/02, 13:14:12.234]$GPRMC,051411,A,0114.1469,N,10339.0494,E,4.13,99.[2024/10/02, 13:14:12.500]91,021024,0.16,E,A*18
$GPRMB,A,,,,,,,,,,,,V,A*1C
$GPGGA,051411,0[2024/10/02, 13:14:12.640]114.1469,N,10339.0494,E,1,19,0.63,30.09,M,9.61,M,,*74
$GPGSA,A,3,1[2024/10/02, 13:14:12.781]0,12,18,23,25,28,29,31,32,,,,1.29,0.63,1.12*00
$GPGSV,5,1,19,10,30[2024/10/02, 13:14:12.921],353,24,12,19,072,27,18,52,174,26,23,50,041,28*7C
$GPGSV,5,2,19,25[2024/10/02, 13:14:13.062],45,106,28,28,57,254,20,29,11,151,24,31,24,227,18*76
$GPGSV,5,3,19[2024/10/02, 13:14:13.203],32,23,326,19,,34,104,29,,44,147,18,,65,337,23*7F
$GPGSV,5,4,19,,5[2024/10/02, 13:14:13.343]6,035,23,,51,010,30,,59,353,30,,74,172,27*7A
$GPGSV,5,5,19,,44,047[2024/10/02, 13:14:13.484],32,,28,271,20,,40,216,16*49
$GPGLL,0114.1469,N,10339.0494,E,05141[2024/10/02, 13:14:13.624]1,A,A*48
$GPBOD,,T,,M,,*47
$GPBWC,051411,,,,,,T,,M,,N,,A*7B
$GP[2024/10/02, 13:14:13.765]VTG,99.91,T,99.75,M,4.13,N,7.65,K,A*2B
$PGRME,12.61,M,11.78,M,17.2[2024/10/02, 13:14:13.906]5,M*24
$PGRMZ,99,f,3*2B
$PGRMM,WGS 84*06
$HCHDM,,M*07
$WIMWV,,[2024/10/02, 13:14:14.046]R,,,A*6D
$GPAPB,V,V,,,N,V,V,,,,,,,,N*68
$GPZDA,051411,02,10,2024,[2024/10/02, 13:14:14.155]-08,00*6A
[2024/10/02, 13:14:14.234]$GPRMC,051413,A,0114.1464,N,10339.0516,E,4.27,96.[2024/10/02, 13:14:14.499]79,021024,0.16,E,A*12
$GPRMB,A,,,,,,,,,,,,V,A*1C
$GPGGA,051413,0[2024/10/02, 13:14:14.640]114.1464,N,10339.0516,E,1,19,0.63,31.09,M,9.61,M,,*71
$GPGSA,A,3,1[2024/10/02, 13:14:14.780]0,12,18,23,25,28,29,31,32,,,,1.29,0.63,1.12*00
$GPGSV,5,1,19,10,30[2024/10/02, 13:14:14.921],353,27,12,19,072,27,18,52,174,24,23,50,041,26*73
$GPGSV,5,2,19,25[2024/10/02, 13:14:15.062],45,106,27,28,57,254,18,29,11,151,25,31,24,227,18*73
$GPGSV,5,3,19[2024/10/02, 13:14:15.202],32,23,326,19,,34,104,28,,44,147,19,,65,337,25*79
$GPGSV,5,4,19,,5[2024/10/02, 13:14:15.343]6,035,24,,51,010,31,,59,353,30,,74,172,27*7C
$GPGSV,5,5,19,,44,047[2024/10/02, 13:14:15.483],32,,28,271,17,,40,216,16*4D
$GPGLL,0114.1464,N,10339.0516,E,05141[2024/10/02, 13:14:15.624]3,A,A*4C
$GPBOD,,T,,M,,*47
$GPBWC,051413,,,,,,T,,M,,N,,A*79
$GPV[2024/10/02, 13:14:15.764]TG,96.79,T,96.63,M,4.27,N,7.92,K,A*25
$PGRME,12.61,M,11.73,M,17.2[2024/10/02, 13:14:15.905]2,M*28
$PGRMZ,102,f,3*18
$PGRMM,WGS 84*06
$HCHDM,,M*07
$WIMWV,,[2024/10/02, 13:14:16.046]R,,,A*6D
$GPAPB,V,V,,,N,V,V,,,,,,,,N*68
$GPZDA,051413,02,10,2024[2024/10/02, 13:14:16.155],-08,00*68
[2024/10/02, 13:14:16.233]$GPRMC,051415,A,0114.1456,N,10339.0535,E,4.28,95[2024/10/02, 13:14:16.499].31,021024,0.16,E,A*14
$GPRMB,A,,,,,,,,,,,,V,A*1C
$GPGGA,051415,0[2024/10/02, 13:14:16.639]114.1456,N,10339.0535,E,1,19,0.63,31.96,M,9.61,M,,*71
$GPGSA,A,3,1[2024/10/02, 13:14:16.780]0,12,18,23,25,28,29,31,32,,,,1.29,0.63,1.12*00
$GPGSV,5,1,19,10,30[2024/10/02, 13:14:16.921],353,27,12,19,072,22,18,52,174,23,23,50,041,28*7F
$GPGSV,5,2,19,25[2024/10/02, 13:14:17.061],45,106,26,28,57,254,24,29,11,151,25,31,24,227,18*7D
$GPGSV,5,3,19[2024/10/02, 13:14:17.202],32,23,327,17,,34,104,28,,44,147,19,,65,337,27*74
$GPGSV,5,4,19,,5[2024/10/02, 13:14:17.342]6,035,21,,51,010,30,,59,353,30,,74,172,27*78
$GPGSV,5,5,19,,44,047[2024/10/02, 13:14:17.483],32,,28,271,20,,40,216,14*4B
$GPGLL,0114.1456,N,10339.0535,E,05141[2024/10/02, 13:14:17.623]5,A,A*4A
$GPBOD,,T,,M,,*47
$GPBWC,051415,,,,,,T,,M,,N,,A*7F
$GPV[2024/10/02, 13:14:17.764]TG,95.31,T,95.15,M,4.28,N,7.92,K,A*27
$PGRME,12.61,M,11.62,M,17.1[2024/10/02, 13:14:17.905]5,M*2C
$PGRMZ,105,f,3*1F
$PGRMM,WGS 84*06
$HCHDM,,M*07
$WIMWV,[2024/10/02, 13:14:18.045],R,,,A*6D
$GPAPB,V,V,,,N,V,V,,,,,,,,N*68
$GPZDA,051415,02,10,202[2024/10/02, 13:14:18.145]4,-08,00*6E
[2024/10/02, 13:14:18.223]$GPRMC,051417,A,0114.1449,N,10339.0555,E,4.[2024/10/02, 13:14:18.489]37,96.81,021024,0.16,E,A*18
$GPRMB,A,,,,,,,,,,,,V,A*1C
$GPGGA,051[2024/10/02, 13:14:18.629]417,0114.1449,N,10339.0555,E,1,19,0.63,33.37,M,9.61,M,,*72
$GPGSA,[2024/10/02, 13:14:18.770]A,3,10,12,18,23,25,28,29,31,32,,,,1.29,0.63,1.12*00
$GPGSV,5,1,19,[2024/10/02, 13:14:18.910]10,30,353,27,12,19,072,23,18,52,174,23,23,50,041,29*7F
$GPGSV,5,2,[2024/10/02, 13:14:19.051]19,25,45,106,28,28,57,254,24,29,11,151,23,31,24,227,17*7A
$GPGSV,5[2024/10/02, 13:14:19.191],3,19,32,23,327,19,,34,103,26,,43,147,23,,65,337,26*7C
$GPGSV,5,4,[2024/10/02, 13:14:19.332]19,,56,035,24,,51,010,30,,59,353,30,,74,172,26*7C
$GPGSV,5,5,19,,4[2024/10/02, 13:14:19.473]4,047,32,,28,271,19,,40,216,14*41
$GPGLL,0114.1449,N,10339.0555,E,[2024/10/02, 13:14:19.609]051417,A,A*40
$GPBOD,,T,,M,,*47
$GPBWC,051417,,,,,,T,,M,,N,,A*7[2024/10/02, 13:14:19.750]D
$GPVTG,96.81,T,96.65,M,4.37,N,8.10,K,A*20
$PGRME,12.62,M,11.64,[2024/10/02, 13:14:19.891]M,17.17,M*2B
$PGRMZ,109,f,3*13
$PGRMM,WGS 84*06
$HCHDM,,M*07
$[2024/10/02, 13:14:20.031]WIMWV,,R,,,A*6D
$GPAPB,V,V,,,N,V,V,,,,,,,,N*68
$GPZDA,051417,02,[2024/10/02, 13:14:20.156]10,2024,-08,00*6C
[2024/10/02, 13:14:20.234]$GPRMC,051419,A,0114.1447,N,10339.0579,E,4.34,93.[2024/10/02, 13:14:20.500]82,021024,0.16,E,A*13
$GPRMB,A,,,,,,,,,,,,V,A*1C
$GPGGA,051419,01[2024/10/02, 13:14:20.640]14.1447,N,10339.0579,E,1,19,0.63,34.28,M,9.61,M,,*75
$GPGSA,A,3,10[2024/10/02, 13:14:20.781],12,18,23,25,28,29,31,32,,,,1.29,0.63,1.12*00
$GPGSV,5,1,19,10,30,[2024/10/02, 13:14:20.922]353,28,12,19,072,25,18,52,174,23,23,50,041,29*76
$GPGSV,5,2,19,25,[2024/10/02, 13:14:21.062]45,106,27,28,57,254,22,29,11,151,23,31,24,227,19*7D
$GPGSV,5,3,19,[2024/10/02, 13:14:21.203]32,23,327,21,,34,103,25,,43,147,20,,65,337,27*76
$GPGSV,5,4,19,,56[2024/10/02, 13:14:21.343],035,23,,51,010,30,,59,353,30,,74,172,26*7B
$GPGSV,5,5,19,,44,047,[2024/10/02, 13:14:21.484]32,,28,271,21,,40,216,15*4B
$GPGLL,0114.1447,N,10339.0579,E,051419[2024/10/02, 13:14:21.625],A,A*4E
$GPBOD,,T,,M,,*47
$GPBWC,051419,,,,,,T,,M,,N,,A*73
$GPV[2024/10/02, 13:14:21.765]TG,93.82,T,93.66,M,4.34,N,8.03,K,A*21
$PGRME,12.62,M,11.59,M,17.13[2024/10/02, 13:14:21.906],M*21
$PGRMZ,112,f,3*19
$PGRMM,WGS 84*06
$HCHDM,,M*07
$WIMWV,,[2024/10/02, 13:14:22.046]R,,,A*6D
$GPAPB,V,V,,,N,V,V,,,,,,,,N*68
$GPZDA,051419,02,10,2024,[2024/10/02, 13:14:22.156]-08,00*62
[2024/10/02, 13:14:22.234]$GPRMC,051421,A,0114.1442,N,10339.0602,E,4.33,94.[2024/10/02, 13:14:22.500]61,021024,0.16,E,A*1F
$GPRMB,A,,,,,,,,,,,,V,A*1C
$GPGGA,051421,0[2024/10/02, 13:14:22.640]114.1442,N,10339.0602,E,1,19,0.63,35.46,M,9.61,M,,*7D
$GPGSA,A,3,1[2024/10/02, 13:14:22.781]0,12,18,23,25,28,29,31,32,,,,1.29,0.63,1.12*00
$GPGSV,5,1,19,10,30[2024/10/02, 13:14:22.921],353,27,12,19,072,23,18,52,174,23,23,50,041,29*7F
$GPGSV,5,2,19,25[2024/10/02, 13:14:23.062],45,106,27,28,57,254,22,29,11,151,25,31,24,227,18*7A
$GPGSV,5,3,19[2024/10/02, 13:14:23.202],32,23,327,22,,34,103,27,,43,147,19,,65,337,27*7D
$GPGSV,5,4,19,,56[2024/10/02, 13:14:23.343],035,22,,51,010,31,,59,353,30,,74,172,26*7B
$GPGSV,5,5,19,,44,047,[2024/10/02, 13:14:23.484]32,,28,271,19,,40,216,16*43
$GPGLL,0114.1442,N,10339.0602,E,05142[2024/10/02, 13:14:23.624]1,A,A*4F
$GPBOD,,T,,M,,*47
$GPBWC,051421,,,,,,T,,M,,N,,A*78
$GPV[2024/10/02, 13:14:23.765]TG,94.61,T,94.45,M,4.33,N,8.01,K,A*28
$PGRME,12.62,M,11.58,M,17.1[2024/10/02, 13:14:23.905]3,M*20
$PGRMZ,116,f,3*1D
$PGRMM,WGS 84*06
$HCHDM,,M*07
$WIMWV,,[2024/10/02, 13:14:24.046]R,,,A*6D
$GPAPB,V,V,,,N,V,V,,,,,,,,N*68
$GPZDA,051421,02,10,2024[2024/10/02, 13:14:24.155],-08,00*69
[2024/10/02, 13:14:24.234]$GPRMC,051423,A,0114.1437,N,10339.0625,E,4.30,95[2024/10/02, 13:14:24.499].43,021024,0.16,E,A*18
$GPRMB,A,,,,,,,,,,,,V,A*1C
$GPGGA,051423,0[2024/10/02, 13:14:24.640]114.1437,N,10339.0625,E,1,19,0.63,36.34,M,9.61,M,,*7E
$GPGSA,A,3,[2024/10/02, 13:14:24.780]10,12,18,23,25,28,29,31,32,,,,1.29,0.63,1.12*00
$GPGSV,5,1,19,10,3[2024/10/02, 13:14:24.921]0,353,27,12,19,072,25,18,52,174,24,23,50,041,27*70
$GPGSV,5,2,19,2[2024/10/02, 13:14:25.061]5,45,106,28,28,57,254,21,29,11,151,24,31,24,227,18*77
$GPGSV,5,3,1[2024/10/02, 13:14:25.202]9,32,23,327,21,,34,103,26,,43,147,23,,65,337,25*74
$GPGSV,5,4,19,,[2024/10/02, 13:14:25.343]56,035,25,,51,010,30,,59,353,30,,74,172,26*7D
$GPGSV,5,5,19,,44,04[2024/10/02, 13:14:25.483]7,32,,28,271,19,,40,216,14*41
$GPGLL,0114.1437,N,10339.0625,E,0514[2024/10/02, 13:14:25.624]23,A,A*4A
$GPBOD,,T,,M,,*47
$GPBWC,051423,,,,,,T,,M,,N,,A*7A
$GP[2024/10/02, 13:14:25.764]VTG,95.43,T,95.27,M,4.30,N,7.97,K,A*2F
$PGRME,12.62,M,11.54,M,17.[2024/10/02, 13:14:25.905]10,M*2F
$PGRMZ,119,f,3*12
$PGRMM,WGS 84*06
$HCHDM,,M*07
$WIMWV,[2024/10/02, 13:14:26.046],R,,,A*6D
$GPAPB,V,V,,,N,V,V,,,,,,,,N*68
$GPZDA,051423,02,10,202[2024/10/02, 13:14:26.155]4,-08,00*6B
[2024/10/02, 13:14:26.233]$GPRMC,051425,A,0114.1432,N,10339.0643,E,4.16,95[2024/10/02, 13:14:26.498].41,021024,0.16,E,A*1D
$GPRMB,A,,,,,,,,,,,,V,A*1C
$GPGGA,051425,0[2024/10/02, 13:14:26.639]114.1432,N,10339.0643,E,1,19,0.63,37.25,M,9.61,M,,*7C
$GPGSA,A,3,1[2024/10/02, 13:14:26.780]0,12,18,23,25,28,29,31,32,,,,1.29,0.63,1.12*00
$GPGSV,5,1,19,10,30[2024/10/02, 13:14:26.920],353,28,12,19,072,27,18,52,174,23,23,50,041,29*74
$GPGSV,5,2,19,25[2024/10/02, 13:14:27.058],45,106,27,28,57,254,19,29,11,151,21,31,24,227,18*76
$GPGSV,5,3,1[2024/10/02, 13:14:27.199]9,32,23,327,21,,34,103,26,,43,147,21,,65,337,27*74
$GPGSV,5,4,19,,[2024/10/02, 13:14:27.339]56,035,27,,51,010,30,,59,353,30,,74,172,26*7F
$GPGSV,5,5,19,,44,04[2024/10/02, 13:14:27.480]7,32,,28,271,19,,40,216,17*42
$GPGLL,0114.1432,N,10339.0643,E,0514[2024/10/02, 13:14:27.621]25,A,A*49
$GPBOD,,T,,M,,*47
$GPBWC,051425,,,,,,T,,M,,N,,A*7C
$G[2024/10/02, 13:14:27.761]PVTG,95.41,T,95.25,M,4.16,N,7.70,K,A*22
$PGRME,12.62,M,11.53,M,17[2024/10/02, 13:14:27.902].09,M*20
$PGRMZ,122,f,3*1A
$PGRMM,WGS 84*06
$HCHDM,,M*07
$WIMWV[2024/10/02, 13:14:28.042],,R,,,A*6D
$GPAPB,V,V,,,N,V,V,,,,,,,,N*68
$GPZDA,051425,02,10,20[2024/10/02, 13:14:28.152]24,-08,00*6D
[2024/10/02, 13:14:28.230]$GPRMC,051427,A,0114.1432,N,10339.0666,E,4.10,8[2024/10/02, 13:14:28.495]8.03,021024,0.16,E,A*14
$GPRMB,A,,,,,,,,,,,,V,A*1C
$GPGGA,051427[2024/10/02, 13:14:28.636],0114.1432,N,10339.0666,E,1,19,0.63,37.31,M,9.61,M,,*7C
$GPGSA,A,3[2024/10/02, 13:14:28.776],10,12,18,23,25,28,29,31,32,,,,1.29,0.63,1.12*00
$GPGSV,5,1,19,10,[2024/10/02, 13:14:28.917]30,353,30,12,19,072,23,18,52,174,24,23,50,041,29*7E
$GPGSV,5,2,19,[2024/10/02, 13:14:29.058]25,45,106,28,28,57,254,20,29,11,151,21,31,24,227,18*73
$GPGSV,5,3,[2024/10/02, 13:14:29.198]19,32,23,327,24,,34,103,27,,43,147,23,,65,337,29*7C
$GPGSV,5,4,19,[2024/10/02, 13:14:29.339],56,035,23,,51,010,30,,59,353,30,,74,172,26*7B
$GPGSV,5,5,19,,44,0[2024/10/02, 13:14:29.479]47,32,,28,271,20,,40,216,17*48
$GPGLL,0114.1432,N,10339.0666,E,051[2024/10/02, 13:14:29.620]427,A,A*4C
$GPBOD,,T,,M,,*47
$GPBWC,051427,,,,,,T,,M,,N,,A*7E
$[2024/10/02, 13:14:29.761]GPVTG,88.03,T,87.87,M,4.10,N,7.59,K,A*2E
$PGRME,12.60,M,11.57,M,17[2024/10/02, 13:14:29.901].11,M*2F
$PGRMZ,122,f,3*1A
$PGRMM,WGS 84*06
$HCHDM,,M*07
$WIMW[2024/10/02, 13:14:30.042]V,,R,,,A*6D
$GPAPB,V,V,,,N,V,V,,,,,,,,N*68
$GPZDA,051427,02,10,2[2024/10/02, 13:14:30.151]024,-08,00*6F
[2024/10/02, 13:14:30.229]$GPRMC,051429,A,0114.1425,N,10339.0686,E,4.02,1[2024/10/02, 13:14:30.495]03.83,021024,0.16,E,A*2B
$GPRMB,A,,,,,,,,,,,,V,A*1C
$GPGGA,05142[2024/10/02, 13:14:30.635]9,0114.1425,N,10339.0686,E,1,19,0.63,37.44,M,9.61,M,,*78
$GPGSA,A,[2024/10/02, 13:14:30.776]3,10,12,18,23,25,28,29,31,32,,,,1.29,0.63,1.12*00
$GPGSV,5,1,19,10[2024/10/02, 13:14:30.917],30,353,30,12,19,072,23,18,52,174,23,23,50,041,28*78
$GPGSV,5,2,19[2024/10/02, 13:14:31.057],25,45,106,28,28,57,254,20,29,11,151,21,31,24,227,18*73
$GPGSV,5,3[2024/10/02, 13:14:31.198],19,32,23,327,23,,34,103,25,,43,147,24,,65,337,25*72
$GPGSV,5,4,19[2024/10/02, 13:14:31.338],,56,035,25,,51,010,29,,59,353,30,,74,172,25*76
$GPGSV,5,5,19,,44,[2024/10/02, 13:14:31.479]047,32,,28,271,15,,40,216,19*40
$GPGLL,0114.1425,N,10339.0686,E,05[2024/10/02, 13:14:31.620]1429,A,A*4A
$GPBOD,,T,,M,,*47
$GPBWC,051429,,,,,,T,,M,,N,,A*70
$[2024/10/02, 13:14:31.760]GPVTG,103.83,T,103.67,M,4.02,N,7.44,K,A*28
$PGRME,12.61,M,11.57,M,[2024/10/02, 13:14:31.901]17.11,M*2E
$PGRMZ,123,f,3*1B
$PGRMM,WGS 84*06
$HCHDM,,M*07
$WI[2024/10/02, 13:14:32.041]MWV,,R,,,A*6D
$GPAPB,V,V,,,N,V,V,,,,,,,,N*68
$GPZDA,051429,02,10[2024/10/02, 13:14:32.166],2024,-08,00*61
[2024/10/02, 13:14:32.244]$GPRMC,051431,A,0114.1424,N,10339.0708,E,4.06,86.32,02[2024/10/02, 13:14:32.510]1024,0.16,E,A*16
$GPRMB,A,,,,,,,,,,,,V,A*1C
$GPGGA,051431,0114.1[2024/10/02, 13:14:32.651]424,N,10339.0708,E,1,19,0.63,37.63,M,9.61,M,,*72
$GPGSA,A,3,10,12,[2024/10/02, 13:14:32.791]18,23,25,28,29,31,32,,,,1.29,0.63,1.12*00
$GPGSV,5,1,19,10,30,353,[2024/10/02, 13:14:32.932]30,12,19,072,25,18,52,174,22,23,50,041,28*7F
$GPGSV,5,2,19,25,45,1[2024/10/02, 13:14:33.072]06,27,28,57,254,22,29,11,151,22,31,24,227,18*7D
$GPGSV,5,3,19,32,23[2024/10/02, 13:14:33.213],327,23,,34,103,25,,43,147,25,,65,337,27*71
$GPGSV,5,4,19,,56,035,[2024/10/02, 13:14:33.354]25,,51,010,29,,59,353,30,,74,172,25*76
$GPGSV,5,5,19,,44,047,32,,2[2024/10/02, 13:14:33.494]8,271,18,,40,216,19*4D
$GPGLL,0114.1424,N,10339.0708,E,051431,A,A*[2024/10/02, 13:14:33.635]45
$GPBOD,,T,,M,,*47
$GPBWC,051431,,,,,,T,,M,,N,,A*79
$GPVTG,86[2024/10/02, 13:14:33.775].32,T,86.16,M,4.06,N,7.53,K,A*26
$PGRME,12.61,M,12.15,M,17.51,M*2F[2024/10/02, 13:14:33.916]
$PGRMZ,123,f,3*1B
$PGRMM,WGS 84*06
$HCHDM,,M*07
$WIMWV,,R,,,[2024/10/02, 13:14:34.057]A*6D
$GPAPB,V,V,,,N,V,V,,,,,,,,N*68
$GPZDA,051431,02,10,2024,-08[2024/10/02, 13:14:34.150],00*68
[2024/10/02, 13:14:34.228]$GPRMC,051433,A,0114.1419,N,10339.0729,E,4.02,[2024/10/02, 13:14:34.494]102.70,021024,0.16,E,A*26
$GPRMB,A,,,,,,,,,,,,V,A*1C
$GPGGA,05143[2024/10/02, 13:14:34.635]3,0114.1419,N,10339.0729,E,1,19,0.63,37.06,M,9.61,M,,*7E
$GPGSA,A[2024/10/02, 13:14:34.775],3,10,12,18,23,25,28,29,31,32,,,,1.29,0.63,1.12*00
$GPGSV,5,1,19,1[2024/10/02, 13:14:34.916]0,30,353,31,12,19,072,22,18,52,174,23,23,50,041,29*79
$GPGSV,5,2,1[2024/10/02, 13:14:35.056]9,25,45,106,28,28,57,254,24,29,11,151,19,31,24,227,19*7D
$GPGSV,5,[2024/10/02, 13:14:35.197]3,19,32,23,327,24,,34,103,24,,43,147,24,,65,337,29*78
$GPGSV,5,4,19[2024/10/02, 13:14:35.337],,56,035,25,,51,010,28,,58,353,30,,74,172,26*75
$GPGSV,5,5,19,,44,[2024/10/02, 13:14:35.478]047,32,,28,271,17,,40,216,17*4C
$GPGLL,0114.1419,N,10339.0729,E,0[2024/10/02, 13:14:35.619]51433,A,A*4A
$GPBOD,,T,,M,,*47
$GPBWC,051433,,,,,,T,,M,,N,,A*7B
[2024/10/02, 13:14:35.759]$GPVTG,102.70,T,102.54,M,4.02,N,7.45,K,A*25
$PGRME,12.57,M,11.97,[2024/10/02, 13:14:35.900]M,17.35,M*21
$PGRMZ,122,f,3*1A
$PGRMM,WGS 84*06
$HCHDM,,M*07
$[2024/10/02, 13:14:36.040]WIMWV,,R,,,A*6D
$GPAPB,V,V,,,N,V,V,,,,,,,,N*68
$GPZDA,051433,02,[2024/10/02, 13:14:36.166]10,2024,-08,00*6A
[2024/10/02, 13:14:36.244]$GPRMC,051435,A,0114.1421,N,10339.0750,E,3.89,101.68,[2024/10/02, 13:14:36.509]021024,0.16,E,A*2B
$GPRMB,A,,,,,,,,,,,,V,A*1C
$GPGGA,051435,0114.[2024/10/02, 13:14:36.650]1421,N,10339.0750,E,1,19,0.63,38.08,M,9.61,M,,*7C
$GPGSA,A,3,10,12[2024/10/02, 13:14:36.790],18,23,25,28,29,31,32,,,,1.29,0.63,1.12*00
$GPGSV,5,1,19,10,30,353[2024/10/02, 13:14:36.931],31,12,19,072,27,18,52,174,21,23,50,041,28*7F
$GPGSV,5,2,19,25,45,[2024/10/02, 13:14:37.071]106,28,28,57,254,21,29,11,151,22,31,24,227,20*7A
$GPGSV,5,3,19,32,[2024/10/02, 13:14:37.212]23,327,20,,34,103,25,,43,147,24,,65,337,28*7C
$GPGSV,5,4,19,,56,03[2024/10/02, 13:14:37.353]5,25,,51,010,28,,58,353,30,,74,172,27*74
$GPGSV,5,5,19,,44,047,32,[2024/10/02, 13:14:37.493],28,271,19,,40,216,20*46
$GPGLL,0114.1421,N,10339.0750,E,051435,A,[2024/10/02, 13:14:37.634]A*49
$GPBOD,,T,,M,,*47
$GPBWC,051435,,,,,,T,,M,,N,,A*7D
$GPVTG,1[2024/10/02, 13:14:37.774]01.68,T,101.51,M,3.89,N,7.20,K,A*2E
$PGRME,12.47,M,11.52,M,16.98,[2024/10/02, 13:14:37.915]M*2F
$PGRMZ,125,f,3*1D
$PGRMM,WGS 84*06
$HCHDM,,M*07
$WIMWV,,R[2024/10/02, 13:14:38.056],,,A*6D
$GPAPB,V,V,,,N,V,V,,,,,,,,N*68
$GPZDA,051435,02,10,2024,-[2024/10/02, 13:14:38.165]08,00*6C
[2024/10/02, 13:14:38.243]$GPRMC,051437,A,0114.1419,N,10339.0770,E,3.84,102.21,[2024/10/02, 13:14:38.509]021024,0.16,E,A*23
$GPRMB,A,,,,,,,,,,,,V,A*1C
$GPGGA,051437,0114.[2024/10/02, 13:14:38.649]1419,N,10339.0770,E,1,19,0.63,38.58,M,9.61,M,,*72
$GPGSA,A,3,10,12[2024/10/02, 13:14:38.790],18,23,25,28,29,31,32,,,,1.29,0.63,1.12*00
$GPGSV,5,1,19,10,30,353[2024/10/02, 13:14:38.930],30,12,19,072,23,18,52,174,25,23,50,041,29*7F
$GPGSV,5,2,19,25,45,[2024/10/02, 13:14:39.071]106,28,28,57,254,22,29,11,151,25,31,24,227,19*74
$GPGSV,5,3,19,32,[2024/10/02, 13:14:39.212]23,327,21,,34,103,26,,43,147,20,,65,337,27*75
$GPGSV,5,4,19,,56,03[2024/10/02, 13:14:39.352]5,24,,51,010,29,,58,353,30,,74,172,27*74
$GPGSV,5,5,19,,44,047,32,[2024/10/02, 13:14:39.493],28,271,22,,40,216,17*4A
$GPGLL,0114.1419,N,10339.0770,E,051437,A,[2024/10/02, 13:14:39.633]A*42
$GPBOD,,T,,M,,*47
$GPBWC,051437,,,,,,T,,M,,N,,A*7F
$GPVTG,[2024/10/02, 13:14:39.774]102.21,T,102.05,M,3.84,N,7.11,K,A*2D
$PGRME,12.39,M,10.90,M,16.50,[2024/10/02, 13:14:39.915]M*2D
$PGRMZ,127,f,3*1F
$PGRMM,WGS 84*06
$HCHDM,,M*07
$WIMWV,,R[2024/10/02, 13:14:40.055],,,A*6D
$GPAPB,V,V,,,N,V,V,,,,,,,,N*68
$GPZDA,051437,02,10,2024,-[2024/10/02, 13:14:40.165]08,00*6E
[2024/10/02, 13:14:40.243]$GPRMC,051439,A,0114.1416,N,10339.0792,E,3.85,104.29,[2024/10/02, 13:14:40.508]021024,0.16,E,A*21
$GPRMB,A,,,,,,,,,,,,V,A*1C
$GPGGA,051439,0114.[2024/10/02, 13:14:40.649]1416,N,10339.0792,E,1,19,0.63,38.79,M,9.61,M,,*7C
$GPGSA,A,3,10,12[2024/10/02, 13:14:40.789],18,23,25,28,29,31,32,,,,1.29,0.63,1.12*00
$GPGSV,5,1,19,10,30,35[2024/10/02, 13:14:40.930]3,28,12,19,072,27,18,52,174,25,23,50,041,26*7D
$GPGSV,5,2,19,25,45[2024/10/02, 13:14:41.070],106,28,28,57,254,22,29,11,151,23,31,24,227,19*72
$GPGSV,5,3,19,32[2024/10/02, 13:14:41.211],23,327,18,,34,103,27,,43,147,17,,65,337,25*78
$GPGSV,5,4,19,,56,0[2024/10/02, 13:14:41.352]35,25,,51,010,30,,58,353,30,,74,172,27*7D
$GPGSV,5,5,19,,44,047,32[2024/10/02, 13:14:41.492],,28,271,17,,40,216,17*4C
$GPGLL,0114.1416,N,10339.0792,E,051439,A[2024/10/02, 13:14:41.633],A*4F
$GPBOD,,T,,M,,*47
$GPBWC,051439,,,,,,T,,M,,N,,A*71
$GPVTG[2024/10/02, 13:14:41.773],104.29,T,104.13,M,3.85,N,7.13,K,A*21
$PGRME,12.38,M,10.56,M,16.27[2024/10/02, 13:14:41.914],M*26
$PGRMZ,127,f,3*1F
$PGRMM,WGS 84*06
$HCHDM,,M*07
$WIMWV,,[2024/10/02, 13:14:42.055]R,,,A*6D
$GPAPB,V,V,,,N,V,V,,,,,,,,N*68
$GPZDA,051439,02,10,2024,[2024/10/02, 13:14:42.164]-08,00*60
[2024/10/02, 13:14:42.242]$GPRMC,051441,A,0114.1408,N,10339.0816,E,4.02,113.89,[2024/10/02, 13:14:42.508]021024,0.16,E,A*26
$GPRMB,A,,,,,,,,,,,,V,A*1C
$GPGGA,051441,0114.[2024/10/02, 13:14:42.648]1408,N,10339.0816,E,1,19,0.63,38.80,M,9.61,M,,*79
$GPGSA,A,3,10,1[2024/10/02, 13:14:42.789]2,18,23,25,28,29,31,32,,,,1.29,0.63,1.12*00
$GPGSV,5,1,19,10,30,35[2024/10/02, 13:14:42.929]3,25,12,19,072,25,18,52,174,24,23,50,041,27*72
$GPGSV,5,2,19,25,45[2024/10/02, 13:14:43.070],106,27,28,57,254,17,29,11,151,25,31,24,227,17*73
$GPGSV,5,3,19,32[2024/10/02, 13:14:43.211],23,327,18,,34,103,28,,43,147,17,,65,337,26*74
$GPGSV,5,4,19,,56,0[2024/10/02, 13:14:43.351]35,24,,51,010,30,,58,353,31,,74,171,28*71
$GPGSV,5,5,19,,44,047,32[2024/10/02, 13:14:43.492],,28,271,17,,40,216,14*4F
$GPGLL,0114.1408,N,10339.0816,E,051441,A[2024/10/02, 13:14:43.632],A*4C
$GPBOD,,T,,M,,*47
$GPBWC,051441,,,,,,T,,M,,N,,A*7E
$GPVTG[2024/10/02, 13:14:43.773],113.89,T,113.73,M,4.02,N,7.44,K,A*27
$PGRME,12.38,M,10.39,M,16.16[2024/10/02, 13:14:43.914],M*2D
$PGRMZ,127,f,3*1F
$PGRMM,WGS 84*06
$HCHDM,,M*07
$WIMWV,,[2024/10/02, 13:14:44.054]R,,,A*6D
$GPAPB,V,V,,,N,V,V,,,,,,,,N*68
$GPZDA,051441,02,10,2024,[2024/10/02, 13:14:44.164]-08,00*6F
[2024/10/02, 13:14:44.242]$GPRMC,051443,A,0114.1403,N,10339.0842,E,4.33,112.10,[2024/10/02, 13:14:44.507]021024,0.16,E,A*2D
$GPRMB,A,,,,,,,,,,,,V,A*1C
$GPGGA,051443,0114[2024/10/02, 13:14:44.648].1403,N,10339.0842,E,1,19,0.64,38.49,M,9.61,M,,*73
$GPGSA,A,3,10,1[2024/10/02, 13:14:44.788]2,18,23,25,28,29,31,32,,,,1.29,0.64,1.12*07
$GPGSV,5,1,19,10,30,35[2024/10/02, 13:14:44.929]3,27,12,19,072,27,18,52,174,24,23,50,041,27*72
$GPGSV,5,2,19,25,45[2024/10/02, 13:14:45.069],106,27,28,57,254,19,29,11,151,22,31,24,227,21*7F
$GPGSV,5,3,19,32[2024/10/02, 13:14:45.210],23,327,17,,34,103,28,,43,147,16,,65,337,26*7A
$GPGSV,5,4,19,,56,0[2024/10/02, 13:14:45.351]35,23,,51,010,30,,58,353,30,,74,171,28*77
$GPGSV,5,5,19,,43,046,32[2024/10/02, 13:14:45.491],,28,271,21,,40,216,16*4E
$GPGLL,0114.1403,N,10339.0842,E,051443,A[2024/10/02, 13:14:45.632],A*44
$GPBOD,,T,,M,,*47
$GPBWC,051443,,,,,,T,,M,,N,,A*7C
$GPVTG,[2024/10/02, 13:14:45.773]112.10,T,111.94,M,4.33,N,8.01,K,A*21
$PGRME,12.38,M,10.37,M,16.15[2024/10/02, 13:14:45.913],M*20
$PGRMZ,126,f,3*1E
$PGRMM,WGS 84*06
$HCHDM,,M*07
$WIMWV,,R[2024/10/02, 13:14:46.054],,,A*6D
$GPAPB,V,V,,,N,V,V,,,,,,,,N*68
$GPZDA,051443,02,10,2024,[2024/10/02, 13:14:46.163]-08,00*6D
[2024/10/02, 13:14:46.241]$GPRMC,051445,A,0114.1402,N,10339.0870,E,4.58,103.92[2024/10/02, 13:14:46.507],021024,0.16,E,A*2C
$GPRMB,A,,,,,,,,,,,,V,A*1C
$GPGGA,051445,0114[2024/10/02, 13:14:46.647].1402,N,10339.0870,E,1,19,0.63,38.21,M,9.61,M,,*7C
$GPGSA,A,3,10,1[2024/10/02, 13:14:46.788]2,18,23,25,28,29,31,32,,,,1.29,0.63,1.12*00
$GPGSV,5,1,19,10,30,3[2024/10/02, 13:14:46.929]53,27,12,19,072,26,18,52,174,25,23,50,041,25*70
$GPGSV,5,2,19,25,45[2024/10/02, 13:14:47.069],106,27,28,57,254,19,29,11,151,23,31,24,227,17*7B
$GPGSV,5,3,19,32[2024/10/02, 13:14:47.210],23,327,17,,34,103,28,,43,147,18,,65,337,26*74
$GPGSV,5,4,19,,56,0[2024/10/02, 13:14:47.350]35,23,,51,010,30,,58,353,30,,74,171,28*77
$GPGSV,5,5,19,,43,046,31[2024/10/02, 13:14:47.491],,28,270,18,,40,215,15*46
$GPGLL,0114.1402,N,10339.0870,E,051445,A[2024/10/02, 13:14:47.631],A*42
$GPBOD,,T,,M,,*47
$GPBWC,051445,,,,,,T,,M,,N,,A*7A
$GPVTG[2024/10/02, 13:14:47.772],103.92,T,103.76,M,4.58,N,8.48,K,A*24
$PGRME,12.38,M,10.03,M,15.93[2024/10/02, 13:14:47.913],M*2A
$PGRMZ,125,f,3*1D
$PGRMM,WGS 84*06
$HCHDM,,M*07
$WIMWV,,[2024/10/02, 13:14:48.053]R,,,A*6D
$GPAPB,V,V,,,N,V,V,,,,,,,,N*68
$GPZDA,051445,02,10,2024,[2024/10/02, 13:14:48.163]-08,00*6B
[2024/10/02, 13:14:48.241]$GPRMC,051447,A,0114.1397,N,10339.0897,E,4.78,103.71[2024/10/02, 13:14:48.506],021024,0.16,E,A*23
$GPRMB,A,,,,,,,,,,,,V,A*1C
$GPGGA,051447,0114[2024/10/02, 13:14:48.647].1397,N,10339.0897,E,1,19,0.63,37.41,M,9.61,M,,*75
$GPGSA,A,3,10,[2024/10/02, 13:14:48.787]12,18,23,25,28,29,31,32,,,,1.29,0.63,1.12*00
$GPGSV,5,1,19,10,30,3[2024/10/02, 13:14:48.928]53,27,12,19,072,24,18,52,174,25,23,50,041,27*70
$GPGSV,5,2,19,25,4[2024/10/02, 13:14:49.069]5,106,27,28,57,254,23,29,11,151,24,31,24,227,17*75
$GPGSV,5,3,19,3[2024/10/02, 13:14:49.209]2,23,327,22,,34,103,27,,43,147,18,,65,337,26*7D
$GPGSV,5,4,19,,56,[2024/10/02, 13:14:49.350]035,22,,51,010,31,,58,353,30,,74,171,28*77
$GPGSV,5,5,19,,43,046,31[2024/10/02, 13:14:49.490],,28,270,19,,40,215,15*47
$GPGLL,0114.1397,N,10339.0897,E,051447,[2024/10/02, 13:14:49.631]A,A*42
$GPBOD,,T,,M,,*47
$GPBWC,051447,,,,,,T,,M,,N,,A*78
$GPVTG[2024/10/02, 13:14:49.772],103.71,T,103.55,M,4.78,N,8.86,K,A*28
$PGRME,12.38,M,10.09,M,15.97[2024/10/02, 13:14:49.912],M*24
$PGRMZ,123,f,3*1B
$PGRMM,WGS 84*06
$HCHDM,,M*07
$WIMWV,,[2024/10/02, 13:14:50.053]R,,,A*6D
$GPAPB,V,V,,,N,V,V,,,,,,,,N*68
$GPZDA,051447,02,10,2024[2024/10/02, 13:14:50.162],-08,00*69
[2024/10/02, 13:14:50.240]$GPRMC,051449,A,0114.1395,N,10339.0919,E,4.75,100.44[2024/10/02, 13:14:50.506],021024,0.16,E,A*20
$GPRMB,A,,,,,,,,,,,,V,A*1C
$GPGGA,051449,011[2024/10/02, 13:14:50.646]4.1395,N,10339.0919,E,1,19,0.63,37.15,M,9.61,M,,*7F
$GPGSA,A,3,10,[2024/10/02, 13:14:50.787]12,18,23,25,28,29,31,32,,,,1.29,0.63,1.12*00
$GPGSV,5,1,19,10,30,3[2024/10/02, 13:14:50.927]53,28,12,19,072,25,18,52,174,22,23,50,041,27*79
$GPGSV,5,2,19,25,4[2024/10/02, 13:14:51.068]5,106,28,28,57,254,21,29,11,151,23,31,24,227,18*70
$GPGSV,5,3,19,3[2024/10/02, 13:14:51.209]2,23,327,21,,34,103,26,,43,147,22,,65,337,27*77
$GPGSV,5,4,19,,56,[2024/10/02, 13:14:51.349]035,24,,51,010,30,,58,353,30,,74,171,27*7F
$GPGSV,5,5,19,,43,046,3[2024/10/02, 13:14:51.490]2,,28,270,19,,40,215,15*44
$GPGLL,0114.1395,N,10339.0919,E,051449,[2024/10/02, 13:14:51.630]A,A*49
$GPBOD,,T,,M,,*47
$GPBWC,051449,,,,,,T,,M,,N,,A*76
$GPVT[2024/10/02, 13:14:51.771]G,100.44,T,100.28,M,4.75,N,8.80,K,A*2F
$PGRME,12.38,M,10.07,M,15.9[2024/10/02, 13:14:51.912]6,M*2B
$PGRMZ,122,f,3*1A
$PGRMM,WGS 84*06
$HCHDM,,M*07
$WIMWV,[2024/10/02, 13:14:52.052],R,,,A*6D
$GPAPB,V,V,,,N,V,V,,,,,,,,N*68
$GPZDA,051449,02,10,2024[2024/10/02, 13:14:52.162],-08,00*67
[2024/10/02, 13:14:52.240]$GPRMC,051451,A,0114.1389,N,10339.0942,E,4.76,99.34,[2024/10/02, 13:14:52.505]021024,0.16,E,A*1F
$GPRMB,A,,,,,,,,,,,,V,A*1C
$GPGGA,051451,0114[2024/10/02, 13:14:52.646].1389,N,10339.0942,E,1,19,0.63,37.22,M,9.61,M,,*71
$GPGSA,A,3,10,1[2024/10/02, 13:14:52.786]2,18,23,25,28,29,31,32,,,,1.29,0.63,1.12*00
$GPGSV,5,1,19,10,30,35[2024/10/02, 13:14:52.927]3,30,12,19,072,25,18,52,174,23,23,50,041,28*7E
$GPGSV,5,2,19,25,45[2024/10/02, 13:14:53.068],106,28,28,57,254,20,29,11,151,22,31,24,227,22*79
$GPGSV,5,3,19,32[2024/10/02, 13:14:53.208],23,327,19,,34,103,24,,43,147,24,,65,337,27*78
$GPGSV,5,4,19,,56,0[2024/10/02, 13:14:53.349]35,25,,51,010,30,,58,353,30,,74,171,27*7E
$GPGSV,5,5,19,,43,046,32[2024/10/02, 13:14:53.489],,28,270,18,,40,215,15*45
$GPGLL,0114.1389,N,10339.0942,E,051451,A[2024/10/02, 13:14:53.630],A*43
$GPBOD,,T,,M,,*47
$GPBWC,051451,,,,,,T,,M,,N,,A*7F
$GPVTG[2024/10/02, 13:14:53.771],99.34,T,99.18,M,4.76,N,8.82,K,A*2A
$PGRME,12.30,M,10.27,M,16.03,M[2024/10/02, 13:14:53.911]*2E
$PGRMZ,122,f,3*1A
$PGRMM,WGS 84*06
$HCHDM,,M*07
$WIMWV,,R,[2024/10/02, 13:14:54.052],,A*6D
$GPAPB,V,V,,,N,V,V,,,,,,,,N*68
$GPZDA,051451,02,10,2024,-0[2024/10/02, 13:14:54.161]8,00*6E
[2024/10/02, 13:14:54.239]$GPRMC,051453,A,0114.1386,N,10339.0966,E,4.74,98.82[2024/10/02, 13:14:54.505],021024,0.16,E,A*1A
$GPRMB,A,,,,,,,,,,,,V,A*1C
$GPGGA,051453,0114[2024/10/02, 13:14:54.645].1386,N,10339.0966,E,1,19,0.63,36.62,M,9.62,M,,*7C
$GPGSA,A,3,10,1[2024/10/02, 13:14:54.786]2,18,23,25,28,29,31,32,,,,1.29,0.63,1.12*00
$GPGSV,5,1,19,10,30,35[2024/10/02, 13:14:54.927]3,30,12,19,072,23,18,52,174,23,23,50,041,29*79
$GPGSV,5,2,19,25,45[2024/10/02, 13:14:55.067],106,29,28,57,254,23,29,11,151,22,31,24,227,19*73
$GPGSV,5,3,19,32[2024/10/02, 13:14:55.208],23,327,21,,34,103,25,,43,147,23,,65,337,27*75
$GPGSV,5,4,19,,56,0[2024/10/02, 13:14:55.348]35,23,,51,010,30,,58,353,30,,74,171,27*78
$GPGSV,5,5,19,,43,046,32[2024/10/02, 13:14:55.489],,28,270,18,,40,215,17*47
$GPGLL,0114.1386,N,10339.0966,E,051453,A[2024/10/02, 13:14:55.630],A*48
$GPBOD,,T,,M,,*47
$GPBWC,051453,,,,,,T,,M,,N,,A*7D
$GPVTG[2024/10/02, 13:14:55.770],98.82,T,98.66,M,4.74,N,8.78,K,A*29
$PGRME,12.29,M,9.97,M,15.82,M*[2024/10/02, 13:14:55.911]1F
$PGRMZ,120,f,3*18
$PGRMM,WGS 84*06
$HCHDM,,M*07
$WIMWV,,R,,[2024/10/02, 13:14:56.051],A*6D
$GPAPB,V,V,,,N,V,V,,,,,,,,N*68
$GPZDA,051453,02,10,2024,-08[2024/10/02, 13:14:56.161],00*6C
[2024/10/02, 13:14:56.239]$GPRMC,051455,A,0114.1383,N,10339.0989,E,4.66,97.78[2024/10/02, 13:14:56.504],021024,0.16,E,A*11
$GPRMB,A,,,,,,,,,,,,V,A*1C
$GPGGA,051455,0114[2024/10/02, 13:14:56.645].1383,N,10339.0989,E,1,19,0.64,37.30,M,9.62,M,,*7F
$GPGSA,A,3,10,1[2024/10/02, 13:14:56.786]2,18,23,25,28,29,31,32,,,,1.29,0.64,1.12*07
$GPGSV,5,1,19,10,30,35[2024/10/02, 13:14:56.926]3,30,12,19,072,24,18,52,174,22,23,50,041,28*7E
$GPGSV,5,2,19,25,45[2024/10/02, 13:14:57.067],106,28,28,57,254,23,29,11,151,21,31,24,227,20*7B
$GPGSV,5,3,19,32[2024/10/02, 13:14:57.207],23,327,20,,34,103,25,,43,147,24,,65,337,26*72
$GPGSV,5,4,19,,56,0[2024/10/02, 13:14:57.348]35,26,,51,010,29,,58,353,30,,74,171,27*75
$GPGSV,5,5,19,,43,046,32[2024/10/02, 13:14:57.488],,28,270,20,,40,215,17*4C
$GPGLL,0114.1383,N,10339.0989,E,051455,A[2024/10/02, 13:14:57.629],A*4A
$GPBOD,,T,,M,,*47
$GPBWC,051455,,,,,,T,,M,,N,,A*7B
$GPVTG[2024/10/02, 13:14:57.770],97.78,T,97.62,M,4.66,N,8.62,K,A*20
$PGRME,12.29,M,9.81,M,15.72,M*[2024/10/02, 13:14:57.910]17
$PGRMZ,122,f,3*1A
$PGRMM,WGS 84*06
$HCHDM,,M*07
$WIMWV,,R,,[2024/10/02, 13:14:58.051],A*6D
$GPAPB,V,V,,,N,V,V,,,,,,,,N*68
$GPZDA,051455,02,10,2024,-08[2024/10/02, 13:14:58.160],00*6A
[2024/10/02, 13:14:58.238]$GPRMC,051457,A,0114.1384,N,10339.1015,E,4.67,97.14[2024/10/02, 13:14:58.504],021024,0.16,E,A*12
$GPRMB,A,,,,,,,,,,,,V,A*1C
$GPGGA,051457,0114[2024/10/02, 13:14:58.644].1384,N,10339.1015,E,1,19,0.63,37.26,M,9.62,M,,*77
$GPGSA,A,3,10,[2024/10/02, 13:14:58.785]12,18,23,25,28,29,31,32,,,,1.29,0.63,1.12*00
$GPGSV,5,1,19,10,30,3[2024/10/02, 13:14:58.926]53,30,12,19,072,23,18,52,174,24,23,50,041,28*7F
$GPGSV,5,2,19,25,4[2024/10/02, 13:14:59.066]5,106,28,28,57,254,21,29,11,151,22,31,24,227,20*7A
$GPGSV,5,3,19,3[2024/10/02, 13:14:59.207]2,23,327,19,,34,103,25,,43,147,23,,65,337,27*7E
$GPGSV,5,4,19,,56,[2024/10/02, 13:14:59.347]035,26,,51,010,30,,58,353,30,,74,171,26*7C
$GPGSV,5,5,19,,43,046,3[2024/10/02, 13:14:59.488]2,,28,270,21,,40,215,17*4D
$GPGLL,0114.1384,N,10339.1015,E,051457,[2024/10/02, 13:14:59.629]A,A*42
$GPBOD,,T,,M,,*47
$GPBWC,051457,,,,,,T,,M,,N,,A*79
$GPVTG[2024/10/02, 13:14:59.769],97.14,T,96.98,M,4.67,N,8.64,K,A*29
$PGRME,12.29,M,9.72,M,15.67,M[2024/10/02, 13:14:59.910]*1F
$PGRMZ,122,f,3*1A
$PGRMM,WGS 84*06
$HCHDM,,M*07
$WIMWV,,R,,[2024/10/02, 13:15:00.050],A*6D
$GPAPB,V,V,,,N,V,V,,,,,,,,N*68
$GPZDA,051457,02,10,2024,-0[2024/10/02, 13:15:00.160]8,00*68
[2024/10/02, 13:15:00.238]$GPRMC,051459,A,0114.1377,N,10339.1039,E,4.65,108.3[2024/10/02, 13:15:00.503]4,021024,0.16,E,A*29
$GPRMB,A,,,,,,,,,,,,V,A*1C
$GPGGA,051459,011[2024/10/02, 13:15:00.644]4.1377,N,10339.1039,E,1,19,0.63,37.00,M,9.62,M,,*7F
$GPGSA,A,3,10[2024/10/02, 13:15:00.785],12,18,23,25,28,29,31,32,,,,1.29,0.63,1.12*00
$GPGSV,5,1,19,10,30,[2024/10/02, 13:15:00.925]353,27,12,19,072,25,18,52,174,24,23,50,041,28*7F
$GPGSV,5,2,19,25,[2024/10/02, 13:15:01.066]45,106,28,28,57,254,24,29,11,151,23,31,24,227,19*74
$GPGSV,5,3,19,[2024/10/02, 13:15:01.206]32,23,327,25,,34,103,26,,43,147,20,,65,337,26*70
$GPGSV,5,4,19,,56[2024/10/02, 13:15:01.347],035,23,,51,010,30,,58,353,30,,74,171,27*78
$GPGSV,5,5,19,,43,046,[2024/10/02, 13:15:01.487]32,,28,270,20,,40,215,16*4D
$GPGLL,0114.1377,N,10339.1039,E,051459[2024/10/02, 13:15:01.628],A,A*4E
$GPBOD,,T,,M,,*47
$GPBWC,051459,,,,,,T,,M,,N,,A*77
$GPVT[2024/10/02, 13:15:01.769]G,108.34,T,108.18,M,4.65,N,8.62,K,A*26
$PGRME,12.29,M,9.86,M,15.7[2024/10/02, 13:15:01.909]6,M*14
$PGRMZ,121,f,3*19
$PGRMM,WGS 84*06
$HCHDM,,M*07
$WIMWV,[2024/10/02, 13:15:02.050],R,,,A*6D
$GPAPB,V,V,,,N,V,V,,,,,,,,N*68
$GPZDA,051459,02,10,2024[2024/10/02, 13:15:02.159],-08,00*66
[2024/10/02, 13:15:02.237]$GPRMC,051501,A,0114.1372,N,10339.1065,E,4.57,107.5[2024/10/02, 13:15:02.503]1,021024,0.16,E,A*24
$GPRMB,A,,,,,,,,,,,,V,A*1C
$GPGGA,051501,01[2024/10/02, 13:15:02.644]14.1372,N,10339.1065,E,1,19,0.63,36.06,M,9.62,M,,*78
$GPGSA,A,3,10[2024/10/02, 13:15:02.784],12,18,23,25,28,29,31,32,,,,1.29,0.63,1.12*00
$GPGSV,5,1,19,10,30[2024/10/02, 13:15:02.925],353,26,12,19,072,25,18,52,174,24,23,50,041,28*7E
$GPGSV,5,2,19,25[2024/10/02, 13:15:03.065],45,106,28,28,57,254,24,29,11,151,24,31,24,227,17*7D
$GPGSV,5,3,19[2024/10/02, 13:15:03.206],32,23,327,25,,34,103,27,,43,147,18,,65,337,24*78
$GPGSV,5,4,19,,56[2024/10/02, 13:15:03.346],035,24,,51,010,30,,58,353,30,,74,171,26*7E
$GPGSV,5,5,19,,43,046,[2024/10/02, 13:15:03.487]32,,28,270,21,,40,215,15*4F
$GPGLL,0114.1372,N,10339.1065,E,05150[2024/10/02, 13:15:03.628]1,A,A*4E
$GPBOD,,T,,M,,*47
$GPBWC,051501,,,,,,T,,M,,N,,A*7B
$GPV[2024/10/02, 13:15:03.768]TG,107.51,T,107.35,M,4.57,N,8.47,K,A*2C
$PGRME,12.30,M,10.19,M,15.[2024/10/02, 13:15:03.909]97,M*2D
$PGRMZ,118,f,3*13
$PGRMM,WGS 84*06
$HCHDM,,M*07
$WIMWV[2024/10/02, 13:15:04.049],,R,,,A*6D
$GPAPB,V,V,,,N,V,V,,,,,,,,N*68
$GPZDA,051501,02,10,20[2024/10/02, 13:15:04.159]24,-08,00*6A
[2024/10/02, 13:15:04.237]$GPRMC,051503,A,0114.1369,N,10339.1091,E,4.58,100.[2024/10/02, 13:15:04.502]30,021024,0.16,E,A*28
$GPRMB,A,,,,,,,,,,,,V,A*1C
$GPGGA,051503,01[2024/10/02, 13:15:04.643]14.1369,N,10339.1091,E,1,19,0.64,35.86,M,9.62,M,,*77
$GPGSA,A,3,10[2024/10/02, 13:15:04.784],12,18,23,25,28,29,31,32,,,,1.29,0.64,1.12*07
$GPGSV,5,1,19,10,30,[2024/10/02, 13:15:04.924]353,26,12,19,072,26,18,52,174,25,23,50,041,27*73
$GPGSV,5,2,19,25,[2024/10/02, 13:15:05.065]45,106,27,28,57,254,19,29,11,151,21,31,24,227,17*79
$GPGSV,5,3,19,[2024/10/02, 13:15:05.205]32,23,327,19,,34,103,28,,43,147,18,,65,337,26*7A
$GPGSV,5,4,19,,56[2024/10/02, 13:15:05.346],035,25,,51,010,30,,58,353,30,,74,171,26*7F
$GPGSV,5,5,19,,43,046,[2024/10/02, 13:15:05.487]32,,28,270,18,,40,215,17*47
$GPGLL,0114.1369,N,10339.1091,E,051503[2024/10/02, 13:15:05.627],A,A*4D
$GPBOD,,T,,M,,*47
$GPBWC,051503,,,,,,T,,M,,N,,A*79
$GPVT[2024/10/02, 13:15:05.768]G,100.30,T,100.14,M,4.58,N,8.48,K,A*28
$PGRME,12.31,M,10.28,M,16.[2024/10/02, 13:15:05.908]04,M*27
$PGRMZ,118,f,3*13
$PGRMM,WGS 84*06
$HCHDM,,M*07
$WIMWV,[2024/10/02, 13:15:06.049],R,,,A*6D
$GPAPB,V,V,,,N,V,V,,,,,,,,N*68
$GPZDA,051503,02,10,202[2024/10/02, 13:15:06.158]4,-08,00*68
[2024/10/02, 13:15:06.236]$GPRMC,051505,A,0114.1362,N,10339.1114,E,4.49,109.[2024/10/02, 13:15:06.502]57,021024,0.16,E,A*21
$GPRMB,A,,,,,,,,,,,,V,A*1C
$GPGGA,051505,01[2024/10/02, 13:15:06.643]14.1362,N,10339.1114,E,1,19,0.64,34.91,M,9.62,M,,*71
$GPGSA,A,3,10[2024/10/02, 13:15:06.783],12,18,23,25,28,29,31,32,,,,1.29,0.64,1.12*07
$GPGSV,5,1,19,10,30[2024/10/02, 13:15:06.924],353,25,12,19,072,25,18,52,174,25,23,50,041,27*73
$GPGSV,5,2,19,25[2024/10/02, 13:15:07.064],45,106,28,28,57,254,19,29,11,151,24,31,24,227,18*7C
$GPGSV,5,3,19,[2024/10/02, 13:15:07.205]32,23,327,18,,34,103,28,,43,147,18,,65,337,27*7A
$GPGSV,5,4,19,,56[2024/10/02, 13:15:07.345],035,23,,51,010,30,,58,353,30,,74,171,27*78
$GPGSV,5,5,19,,43,046,[2024/10/02, 13:15:07.486]31,,28,270,23,,40,215,17*4C
$GPGLL,0114.1362,N,10339.1114,E,051505[2024/10/02, 13:15:07.627],A,A*4C
$GPBOD,,T,,M,,*47
$GPBWC,051505,,,,,,T,,M,,N,,A*7F
$GPV[2024/10/02, 13:15:07.767]TG,109.57,T,109.41,M,4.49,N,8.32,K,A*24
$PGRME,12.32,M,10.30,M,16.[2024/10/02, 13:15:07.908]06,M*2F
$PGRMZ,115,f,3*1E
$PGRMM,WGS 84*06
$HCHDM,,M*07
$WIMWV[2024/10/02, 13:15:08.049],,R,,,A*6D
$GPAPB,V,V,,,N,V,V,,,,,,,,N*68
$GPZDA,051505,02,10,20[2024/10/02, 13:15:08.158]24,-08,00*6E
[2024/10/02, 13:15:08.236]$GPRMC,051507,A,0114.1358,N,10339.1141,E,4.51,107.[2024/10/02, 13:15:08.501]95,021024,0.16,E,A*23
$GPRMB,A,,,,,,,,,,,,V,A*1C
$GPGGA,051507,01[2024/10/02, 13:15:08.642]14.1358,N,10339.1141,E,1,19,0.63,33.32,M,9.62,M,,*73
$GPGSA,A,3,1[2024/10/02, 13:15:08.783]0,12,18,23,25,28,29,31,32,,,,1.29,0.63,1.12*00
$GPGSV,5,1,19,10,30[2024/10/02, 13:15:08.923],353,26,12,19,072,26,18,52,174,26,23,50,041,27*70
$GPGSV,5,2,19,25[2024/10/02, 13:15:09.064],45,106,28,28,57,254,18,29,11,151,19,31,24,227,17*7C
$GPGSV,5,3,19[2024/10/02, 13:15:09.204],32,23,327,18,,34,103,28,,43,147,20,,65,337,24*72
$GPGSV,5,4,19,,5[2024/10/02, 13:15:09.345]6,035,23,,51,010,30,,58,353,30,,74,171,28*77
$GPGSV,5,5,19,,43,046[2024/10/02, 13:15:09.486],32,,28,270,21,,40,215,19*43
$GPGLL,0114.1358,N,10339.1141,E,05150[2024/10/02, 13:15:09.626]7,A,A*47
$GPBOD,,T,,M,,*47
$GPBWC,051507,,,,,,T,,M,,N,,A*7D
$GP[2024/10/02, 13:15:09.767]VTG,107.95,T,107.79,M,4.51,N,8.36,K,A*2C
$PGRME,12.33,M,10.22,M,16[2024/10/02, 13:15:09.908].01,M*2A
$PGRMZ,109,f,3*13
$PGRMM,WGS 84*06
$HCHDM,,M*07
$WIMW[2024/10/02, 13:15:10.048]V,,R,,,A*6D
$GPAPB,V,V,,,N,V,V,,,,,,,,N*68
$GPZDA,051507,02,10,20[2024/10/02, 13:15:10.157]24,-08,00*6C
[2024/10/02, 13:15:10.235]$GPRMC,051509,A,0114.1354,N,10339.1166,E,4.49,108.[2024/10/02, 13:15:10.501]44,021024,0.16,E,A*2E
$GPRMB,A,,,,,,,,,,,,V,A*1C
$GPGGA,051509,01[2024/10/02, 13:15:10.642]14.1354,N,10339.1166,E,1,19,0.63,32.16,M,9.62,M,,*73
$GPGSA,A,3,10[2024/10/02, 13:15:10.782],12,18,23,25,28,29,31,32,,,,1.29,0.63,1.12*00
$GPGSV,5,1,19,10,30[2024/10/02, 13:15:10.923],353,26,12,19,072,27,18,52,174,27,23,50,041,28*7F
$GPGSV,5,2,19,25,[2024/10/02, 13:15:11.063]45,106,26,28,57,254,22,29,11,151,23,31,24,227,17*72
$GPGSV,5,3,19,[2024/10/02, 13:15:11.204]32,23,327,18,,34,103,28,,43,147,18,,65,337,25*78
$GPGSV,5,4,19,,56[2024/10/02, 13:15:11.345],035,24,,51,010,30,,58,353,30,,74,171,28*70
$GPGSV,5,5,19,,43,046,[2024/10/02, 13:15:11.485]32,,28,270,21,,40,215,19*43
$GPGLL,0114.1354,N,10339.1166,E,051509[2024/10/02, 13:15:11.626],A,A*40
$GPBOD,,T,,M,,*47
$GPBWC,051509,,,,,,T,,M,,N,,A*73
$GPV[2024/10/02, 13:15:11.766]TG,108.44,T,108.28,M,4.49,N,8.32,K,A*29
$PGRME,12.33,M,10.30,M,16.[2024/10/02, 13:15:11.907]07,M*2F
$PGRMZ,106,f,3*1C
$PGRMM,WGS 84*06
$HCHDM,,M*07
$WIMWV[2024/10/02, 13:15:12.048],,R,,,A*6D
$GPAPB,V,V,,,N,V,V,,,,,,,,N*68
$GPZDA,051509,02,10,20[2024/10/02, 13:15:12.157]24,-08,00*62
[2024/10/02, 13:15:12.235]$GPRMC,051511,A,0114.1349,N,10339.1192,E,4.45,108[2024/10/02, 13:15:12.500].53,021024,0.16,E,A*2A
$GPRMB,A,,,,,,,,,,,,V,A*1C
$GPGGA,051511,0[2024/10/02, 13:15:12.641]114.1349,N,10339.1192,E,1,19,0.63,31.20,M,9.62,M,,*7B
$GPGSA,A,3,[2024/10/02, 13:15:12.782]10,12,18,23,25,28,29,31,32,,,,1.29,0.63,1.12*00
$GPGSV,5,1,19,10,3[2024/10/02, 13:15:12.922]0,353,25,12,19,071,27,18,52,174,25,23,50,041,27*72
$GPGSV,5,2,19,2[2024/10/02, 13:15:13.063]5,45,106,27,28,57,254,22,29,11,151,23,31,24,227,20*77
$GPGSV,5,3,1[2024/10/02, 13:15:13.203]9,32,23,327,19,,34,103,28,,43,147,20,,65,337,25*72
$GPGSV,5,4,19,,5[2024/10/02, 13:15:13.344]6,035,24,,51,010,30,,58,353,30,,74,171,27*7F
$GPGSV,5,5,19,,43,046[2024/10/02, 13:15:13.485],31,,28,270,24,,40,215,16*4A
$GPGLL,0114.1349,N,10339.1192,E,0515[2024/10/02, 13:15:13.625]11,A,A*4E
$GPBOD,,T,,M,,*47
$GPBWC,051511,,,,,,T,,M,,N,,A*7A
$GP[2024/10/02, 13:15:13.766]VTG,108.53,T,108.36,M,4.45,N,8.25,K,A*2A
$PGRME,12.34,M,10.59,M,16[2024/10/02, 13:15:13.906].26,M*24
$PGRMZ,102,f,3*18
$PGRMM,WGS 84*06
$HCHDM,,M*07
$WIMW[2024/10/02, 13:15:14.047]V,,R,,,A*6D
$GPAPB,V,V,,,N,V,V,,,,,,,,N*68
$GPZDA,051511,02,10,2[2024/10/02, 13:15:14.156]024,-08,00*6B
[2024/10/02, 13:15:14.235]$GPRMC,051513,A,0114.1344,N,10339.1215,E,4.44,107[2024/10/02, 13:15:14.500].01,021024,0.16,E,A*20
$GPRMB,A,,,,,,,,,,,,V,A*1C
$GPGGA,051513,0[2024/10/02, 13:15:14.641]114.1344,N,10339.1215,E,1,19,0.63,31.17,M,9.62,M,,*7C
$GPGSA,A,3,1[2024/10/02, 13:15:14.781]0,12,18,23,25,28,29,31,32,,,,1.29,0.63,1.12*00
$GPGSV,5,1,19,10,30[2024/10/02, 13:15:14.922],353,27,12,19,071,25,18,52,174,23,23,50,041,27*74
$GPGSV,5,2,19,25[2024/10/02, 13:15:15.063],45,106,27,28,57,254,20,29,11,151,21,31,24,227,19*7D
$GPGSV,5,3,19[2024/10/02, 13:15:15.203],32,23,327,20,,34,103,27,,43,147,18,,65,337,26*7F
$GPGSV,5,4,19,,5[2024/10/02, 13:15:15.344]6,035,23,,51,010,30,,58,353,30,,74,171,27*78
$GPGSV,5,5,19,,43,046[2024/10/02, 13:15:15.484],31,,28,270,19,,40,215,16*44
$GPGLL,0114.1344,N,10339.1215,E,05151[2024/10/02, 13:15:15.625]3,A,A*4D
$GPBOD,,T,,M,,*47
$GPBWC,051513,,,,,,T,,M,,N,,A*78
$GP[2024/10/02, 13:15:15.765]VTG,107.01,T,106.85,M,4.44,N,8.23,K,A*23
$PGRME,12.35,M,10.70,M,16[2024/10/02, 13:15:15.906].34,M*2D
$PGRMZ,102,f,3*18
$PGRMM,WGS 84*06
$HCHDM,,M*07
$WIMW[2024/10/02, 13:15:16.047]V,,R,,,A*6D
$GPAPB,V,V,,,N,V,V,,,,,,,,N*68
$GPZDA,051513,02,10,2[2024/10/02, 13:15:16.156]024,-08,00*69
[2024/10/02, 13:15:16.234]$GPRMC,051515,A,0114.1336,N,10339.1234,E,4.41,112[2024/10/02, 13:15:16.500].80,021024,0.16,E,A*28
$GPRMB,A,,,,,,,,,,,,V,A*1C
$GPGGA,051515,0[2024/10/02, 13:15:16.640]114.1336,N,10339.1234,E,1,19,0.64,30.90,M,9.62,M,,*75
$GPGSA,A,3,[2024/10/02, 13:15:16.781]10,12,18,23,25,28,29,31,32,,,,1.29,0.64,1.12*07
$GPGSV,5,1,19,10,3[2024/10/02, 13:15:16.921]0,353,28,12,19,071,22,18,52,174,25,23,50,041,28*75
$GPGSV,5,2,19,2[2024/10/02, 13:15:17.062]5,45,106,27,28,57,254,20,29,11,151,25,31,24,227,17*77
$GPGSV,5,3,1[2024/10/02, 13:15:17.203]9,32,23,327,23,,34,103,27,,43,147,17,,65,337,26*73
$GPGSV,5,4,19,,[2024/10/02, 13:15:17.343]56,035,25,,51,010,30,,58,353,30,,74,171,27*7E
$GPGSV,5,5,19,,43,046[2024/10/02, 13:15:17.484],32,,28,270,16,,40,215,16*48
$GPGLL,0114.1336,N,10339.1234,E,0515[2024/10/02, 13:15:17.624]15,A,A*4D
$GPBOD,,T,,M,,*47
$GPBWC,051515,,,,,,T,,M,,N,,A*7E
$GP[2024/10/02, 13:15:17.765]VTG,112.80,T,112.64,M,4.41,N,8.17,K,A*26
$PGRME,12.35,M,10.93,M,16[2024/10/02, 13:15:17.906].49,M*2A
$PGRMZ,101,f,3*1B
$PGRMM,WGS 84*06
$HCHDM,,M*07
$WIMW[2024/10/02, 13:15:18.046]V,,R,,,A*6D
$GPAPB,V,V,,,N,V,V,,,,,,,,N*68
$GPZDA,051515,02,10,2[2024/10/02, 13:15:18.155]024,-08,00*6F
