[2024/10/02, 13:16:42.789],18,23,25,28,29,31,32,,,,1.29,0.64,1.12*07
$GPGSV,5,1,19,10,31,353[2024/10/02, 13:16:42.929],23,12,19,071,17,18,51,173,30,23,50,042,16*77
$GPGSV,5,2,19,25,45,[2024/10/02, 13:16:43.070]104,15,28,57,255,29,29,11,150,19,31,25,228,27*7F
$GPGSV,5,3,19,32,[2024/10/02, 13:16:43.211]23,327,23,,34,103,14,,43,147,26,,64,337,26*70
$GPGSV,5,4,19,,56,03[2024/10/02, 13:16:43.351]5,15,,51,010,21,,58,353,24,,75,170,25*7A
$GPGSV,5,5,19,,43,045,21,[2024/10/02, 13:16:43.492],28,269,29,,40,215,30*49
$GPGLL,0114.0418,N,10339.1453,E,051641,A,[2024/10/02, 13:16:43.632]A*42
$GPBOD,,T,,M,,*47
$GPBWC,051641,,,,,,T,,M,,N,,A*7C
$GPVTG,[2024/10/02, 13:16:43.773]287.14,T,286.98,M,3.92,N,7.25,K,A*2E
$PGRME,12.61,M,15.02,M,19.61,[2024/10/02, 13:16:43.913]M*23
$PGRMZ,-17,f,3*00
$PGRMM,WGS 84*06
$HCHDM,,M*07
$WIMWV,,R[2024/10/02, 13:16:44.054],,,A*6D
$GPAPB,V,V,,,N,V,V,,,,,,,,N*68
$GPZDA,051641,02,10,2024,-[2024/10/02, 13:16:44.163]08,00*6D
[2024/10/02, 13:16:44.242]$GPRMC,051643,A,0114.0418,N,10339.1439,E,3.73,284.11,[2024/10/02, 13:16:44.507]021024,0.16,E,A*2B
$GPRMB,A,,,,,,,,,,,,V,A*1C
$GPGGA,051643,0114.[2024/10/02, 13:16:44.648]0418,N,10339.1439,E,1,19,0.64,-5.61,M,9.62,M,,*61
$GPGSA,A,3,10,12[2024/10/02, 13:16:44.788],18,23,25,28,29,31,32,,,,1.29,0.64,1.12*07
$GPGSV,5,1,19,10,31,353[2024/10/02, 13:16:44.929],26,12,19,071,16,18,51,173,29,23,50,042,19*74
$GPGSV,5,2,19,25,45,[2024/10/02, 13:16:45.070]104,21,28,57,255,30,29,11,150,23,31,25,228,28*76
$GPGSV,5,3,19,32,[2024/10/02, 13:16:45.210]23,327,25,,34,103,15,,43,147,26,,64,337,25*74
$GPGSV,5,4,19,,56,03[2024/10/02, 13:16:45.351]5,17,,51,010,19,,58,353,24,,75,170,25*73
$GPGSV,5,5,19,,43,045,15,[2024/10/02, 13:16:45.491],28,269,29,,40,215,31*4F
$GPGLL,0114.0418,N,10339.1439,E,051643,A,[2024/10/02, 13:16:45.632]A*4C
$GPBOD,,T,,M,,*47
$GPBWC,051643,,,,,,T,,M,,N,,A*7E
$GPVTG,2[2024/10/02, 13:16:45.772]84.11,T,283.95,M,3.73,N,6.91,K,A*21
$PGRME,12.55,M,15.12,M,19.65,[2024/10/02, 13:16:45.913]M*21
$PGRMZ,-18,f,3*0F
$PGRMM,WGS 84*06
$HCHDM,,M*07
$WIMWV,,R[2024/10/02, 13:16:46.054],,,A*6D
$GPAPB,V,V,,,N,V,V,,,,,,,,N*68
$GPZDA,051643,02,10,2024,-[2024/10/02, 13:16:46.163]08,00*6F
[2024/10/02, 13:16:46.241]$GPRMC,051645,A,0114.0417,N,10339.1416,E,3.62,270.37,[2024/10/02, 13:16:46.507]021024,0.16,E,A*20
$GPRMB,A,,,,,,,,,,,,V,A*1C
$GPGGA,051645,0114.[2024/10/02, 13:16:46.647]0417,N,10339.1416,E,1,19,0.64,-4.99,M,9.62,M,,*63
$GPGSA,A,3,10,12[2024/10/02, 13:16:46.788],18,23,25,28,29,31,32,,,,1.29,0.64,1.12*07
$GPGSV,5,1,19,10,31,353[2024/10/02, 13:16:46.928],25,12,19,071,19,18,51,173,29,23,50,042,19*78
$GPGSV,5,2,19,25,45,[2024/10/02, 13:16:47.069]104,17,28,57,256,30,29,11,150,21,31,25,228,26*7C
$GPGSV,5,3,19,32,[2024/10/02, 13:16:47.210]23,327,23,,34,103,15,,43,147,27,,64,337,23*75
$GPGSV,5,4,19,,56,03[2024/10/02, 13:16:47.350]5,17,,51,010,19,,58,353,23,,75,170,24*75
$GPGSV,5,5,19,,43,045,15,[2024/10/02, 13:16:47.491],28,269,29,,40,215,31*4F
$GPGLL,0114.0417,N,10339.1416,E,051645,A,[2024/10/02, 13:16:47.631]A*48
$GPBOD,,T,,M,,*47
$GPBWC,051645,,,,,,T,,M,,N,,A*78
$GPVTG,[2024/10/02, 13:16:47.772]270.37,T,270.21,M,3.62,N,6.70,K,A*22
$PGRME,12.55,M,15.52,M,19.96,[2024/10/02, 13:16:47.913]M*29
$PGRMZ,-16,f,3*01
$PGRMM,WGS 84*06
$HCHDM,,M*07
$WIMWV,,R[2024/10/02, 13:16:48.053],,,A*6D
$GPAPB,V,V,,,N,V,V,,,,,,,,N*68
$GPZDA,051645,02,10,2024,[2024/10/02, 13:16:48.162]-08,00*69
[2024/10/02, 13:16:48.241]$GPRMC,051647,A,0114.0425,N,10339.1391,E,3.79,285.12[2024/10/02, 13:16:48.503],021024,0.16,E,A*2C
$GPRMB,A,,,,,,,,,,,,V,A*1C
$GPGGA,051647,011[2024/10/02, 13:16:48.644]4.0425,N,10339.1391,E,1,19,0.64,-5.30,M,9.62,M,,*6A
$GPGSA,A,3,10,[2024/10/02, 13:16:48.784]12,18,23,25,28,29,31,32,,,,1.29,0.64,1.12*07
$GPGSV,5,1,19,10,31,3[2024/10/02, 13:16:48.925]53,26,12,19,071,20,18,51,173,29,23,50,042,16*7E
$GPGSV,5,2,19,25,4[2024/10/02, 13:16:49.065]5,104,17,28,57,256,30,29,11,150,17,31,25,228,28*77
$GPGSV,5,3,19,3[2024/10/02, 13:16:49.206]2,23,327,24,,34,103,14,,43,147,27,,64,337,22*72
$GPGSV,5,4,19,,56,[2024/10/02, 13:16:49.347]035,14,,51,010,20,,58,353,23,,75,170,25*7D
$GPGSV,5,5,19,,43,045,1[2024/10/02, 13:16:49.487]6,,28,269,29,,40,215,31*4C
$GPGLL,0114.0425,N,10339.1391,E,051647,[2024/10/02, 13:16:49.628]A,A*43
$GPBOD,,T,,M,,*47
$GPBWC,051647,,,,,,T,,M,,N,,A*7A
$GPVTG[2024/10/02, 13:16:49.768],285.12,T,284.96,M,3.79,N,7.02,K,A*26
$PGRME,12.55,M,15.69,M,20.0[2024/10/02, 13:16:49.909]9,M*2D
$PGRMZ,-17,f,3*00
$PGRMM,WGS 84*06
$HCHDM,,M*07
$WIMWV,,[2024/10/02, 13:16:50.050]R,,,A*6D
$GPAPB,V,V,,,N,V,V,,,,,,,,N*68
$GPZDA,051647,02,10,2024[2024/10/02, 13:16:50.159],-08,00*6B
[2024/10/02, 13:16:50.237]$GPRMC,051649,A,0114.0432,N,10339.1366,E,4.11,291.4[2024/10/02, 13:16:50.503]4,021024,0.16,E,A*23
$GPRMB,A,,,,,,,,,,,,V,A*1C
$GPGGA,051649,011[2024/10/02, 13:16:50.643]4.0432,N,10339.1366,E,1,19,0.64,-5.32,M,9.62,M,,*68
$GPGSA,A,3,10[2024/10/02, 13:16:50.784],12,18,23,25,28,29,31,32,,,,1.29,0.64,1.12*07
$GPGSV,5,1,19,10,31,[2024/10/02, 13:16:50.924]353,25,12,19,071,21,18,51,173,29,23,50,042,15*7F
$GPGSV,5,2,19,25,4[2024/10/02, 13:16:51.065]5,104,17,28,57,256,30,29,11,150,18,31,25,228,28*78
$GPGSV,5,3,19,3[2024/10/02, 13:16:51.205]2,23,328,23,,34,103,14,,43,147,27,,64,337,22*7A
$GPGSV,5,4,19,,56,[2024/10/02, 13:16:51.346]035,14,,51,010,21,,58,353,21,,75,170,27*7C
$GPGSV,5,5,19,,43,045,1[2024/10/02, 13:16:51.487]6,,28,269,29,,40,215,32*4F
$GPGLL,0114.0432,N,10339.1366,E,051649,[2024/10/02, 13:16:51.627]A,A*43
$GPBOD,,T,,M,,*47
$GPBWC,051649,,,,,,T,,M,,N,,A*74
$GPVT[2024/10/02, 13:16:51.768]G,291.44,T,291.28,M,4.11,N,7.61,K,A*2D
$PGRME,12.55,M,15.91,M,20.2[2024/10/02, 13:16:51.908]6,M*27
$PGRMZ,-17,f,3*00
$PGRMM,WGS 84*06
$HCHDM,,M*07
$WIMWV,[2024/10/02, 13:16:52.049],R,,,A*6D
$GPAPB,V,V,,,N,V,V,,,,,,,,N*68
$GPZDA,051649,02,10,202[2024/10/02, 13:16:52.158]4,-08,00*65
[2024/10/02, 13:16:52.237]$GPRMC,051651,A,0114.0434,N,10339.1339,E,4.55,278.9[2024/10/02, 13:16:52.502]0,021024,0.16,E,A*28
$GPRMB,A,,,,,,,,,,,,V,A*1C
$GPGGA,051651,011[2024/10/02, 13:16:52.643]4.0434,N,10339.1339,E,1,19,0.64,-4.58,M,9.62,M,,*60
$GPGSA,A,3,10,[2024/10/02, 13:16:52.783]12,18,23,25,28,29,31,32,,,,1.29,0.64,1.12*07
$GPGSV,5,1,19,10,31,3[2024/10/02, 13:16:52.924]53,22,12,19,071,20,18,51,173,29,23,50,042,15*79
$GPGSV,5,2,19,25,4[2024/10/02, 13:16:53.064]5,104,21,28,57,256,29,29,11,150,20,31,25,228,28*7E
$GPGSV,5,3,19,3[2024/10/02, 13:16:53.205]2,23,328,22,,34,103,17,,43,148,25,,64,337,25*72
$GPGSV,5,4,19,,56,[2024/10/02, 13:16:53.346]035,14,,51,010,18,,58,353,22,,75,170,23*71
$GPGSV,5,5,19,,43,045,1[2024/10/02, 13:16:53.486]6,,28,269,28,,40,215,31*4D
$GPGLL,0114.0434,N,10339.1339,E,051651,[2024/10/02, 13:16:53.627]A,A*46
$GPBOD,,T,,M,,*47
$GPBWC,051651,,,,,,T,,M,,N,,A*7D
$GPVT[2024/10/02, 13:16:53.767]G,278.90,T,278.74,M,4.55,N,8.43,K,A*22
$PGRME,12.56,M,16.18,M,20.4[2024/10/02, 13:16:53.908]8,M*2E
$PGRMZ,-15,f,3*02
$PGRMM,WGS 84*06
$HCHDM,,M*07
$WIMWV,[2024/10/02, 13:16:54.049],R,,,A*6D
$GPAPB,V,V,,,N,V,V,,,,,,,,N*68
$GPZDA,051651,02,10,202[2024/10/02, 13:16:54.158]4,-08,00*6C
[2024/10/02, 13:16:54.236]$GPRMC,051653,A,0114.0440,N,10339.1315,E,4.65,288.1[2024/10/02, 13:16:54.502]1,021024,0.16,E,A*22
$GPRMB,A,,,,,,,,,,,,V,A*1C
$GPGGA,051653,011[2024/10/02, 13:16:54.642]4.0440,N,10339.1315,E,1,19,0.64,-4.13,M,9.62,M,,*60
$GPGSA,A,3,10,[2024/10/02, 13:16:54.783]12,18,23,25,28,29,31,32,,,,1.29,0.64,1.12*07
$GPGSV,5,1,19,10,31,3[2024/10/02, 13:16:54.923]53,24,12,19,071,17,18,51,173,26,23,50,042,16*77
$GPGSV,5,2,19,25,4[2024/10/02, 13:16:55.064]5,104,20,28,57,256,29,29,11,150,20,31,25,228,29*7E
$GPGSV,5,3,19,3[2024/10/02, 13:16:55.205]2,23,328,24,,34,103,21,,43,148,25,,64,337,23*77
$GPGSV,5,4,19,,56,[2024/10/02, 13:16:55.345]035,14,,51,010,18,,58,353,25,,75,170,24*71
$GPGSV,5,5,19,,43,045,1[2024/10/02, 13:16:55.486]4,,28,269,28,,40,215,32*4C
$GPGLL,0114.0440,N,10339.1315,E,051653,[2024/10/02, 13:16:55.626]A,A*49
$GPBOD,,T,,M,,*47
$GPBWC,051653,,,,,,T,,M,,N,,A*7F
$GPVT[2024/10/02, 13:16:55.767]G,288.11,T,287.95,M,4.65,N,8.62,K,A*2B
$PGRME,12.56,M,16.33,M,20.6[2024/10/02, 13:16:55.908]0,M*2D
$PGRMZ,-14,f,3*03
$PGRMM,WGS 84*06
$HCHDM,,M*07
$WIMWV,[2024/10/02, 13:16:56.048],R,,,A*6D
$GPAPB,V,V,,,N,V,V,,,,,,,,N*68
$GPZDA,051653,02,10,2024[2024/10/02, 13:16:56.157],-08,00*6E
[2024/10/02, 13:16:56.236]$GPRMC,051655,A,0114.0446,N,10339.1293,E,4.61,287.8[2024/10/02, 13:16:56.501]1,021024,0.16,E,A*2F
$GPRMB,A,,,,,,,,,,,,V,A*1C
$GPGGA,051655,01[2024/10/02, 13:16:56.642]14.0446,N,10339.1293,E,1,19,0.64,-3.54,M,9.62,M,,*6B
$GPGSA,A,3,10[2024/10/02, 13:16:56.782],12,18,23,25,28,29,31,32,,,,1.29,0.64,1.12*07
$GPGSV,5,1,19,10,31,[2024/10/02, 13:16:56.923]353,26,12,19,071,17,18,51,173,26,23,50,042,21*71
$GPGSV,5,2,19,25,[2024/10/02, 13:16:57.063]45,104,23,28,57,256,29,29,11,150,19,31,25,228,29*77
$GPGSV,5,3,19,[2024/10/02, 13:16:57.204]32,23,328,25,,34,103,23,,43,148,26,,64,337,24*70
$GPGSV,5,4,19,,56,[2024/10/02, 13:16:57.345]035,18,,51,010,18,,58,353,23,,75,170,22*7D
$GPGSV,5,5,19,,43,045,1[2024/10/02, 13:16:57.485]5,,28,269,27,,40,215,32*42
$GPGLL,0114.0446,N,10339.1293,E,051655[2024/10/02, 13:16:57.626],A,A*46
$GPBOD,,T,,M,,*47
$GPBWC,051655,,,,,,T,,M,,N,,A*79
$GPVT[2024/10/02, 13:16:57.766]G,287.81,T,287.65,M,4.61,N,8.54,K,A*23
$PGRME,12.56,M,16.60,M,20.8[2024/10/02, 13:16:57.907]2,M*27
$PGRMZ,-12,f,3*05
$PGRMM,WGS 84*06
$HCHDM,,M*07
$WIMWV,[2024/10/02, 13:16:58.048],R,,,A*6D
$GPAPB,V,V,,,N,V,V,,,,,,,,N*68
$GPZDA,051655,02,10,202[2024/10/02, 13:16:58.157]4,-08,00*68
[2024/10/02, 13:16:58.235]$GPRMC,051657,A,0114.0450,N,10339.1268,E,4.79,281.[2024/10/02, 13:16:58.501]09,021024,0.16,E,A*21
$GPRMB,A,,,,,,,,,,,,V,A*1C
$GPGGA,051657,01[2024/10/02, 13:16:58.641]14.0450,N,10339.1268,E,1,19,0.64,-3.44,M,9.62,M,,*6B
$GPGSA,A,3,10[2024/10/02, 13:16:58.782],12,18,23,25,28,29,31,32,,,,1.29,0.64,1.12*07
$GPGSV,5,1,19,10,31,[2024/10/02, 13:16:58.922]353,24,12,19,071,20,18,51,173,26,23,50,042,19*7C
$GPGSV,5,2,19,25,[2024/10/02, 13:16:59.063]45,104,21,28,57,256,29,29,11,150,22,31,25,228,29*7D
$GPGSV,5,3,19,[2024/10/02, 13:16:59.204]32,23,328,25,,34,103,23,,43,148,26,,64,337,23*77
$GPGSV,5,4,19,,56[2024/10/02, 13:16:59.344],035,19,,51,010,18,,58,353,22,,75,170,24*7B
$GPGSV,5,5,19,,43,045,[2024/10/02, 13:16:59.485]15,,28,269,26,,40,215,32*43
$GPGLL,0114.0450,N,10339.1268,E,051657[2024/10/02, 13:16:59.625],A,A*47
$GPBOD,,T,,M,,*47
$GPBWC,051657,,,,,,T,,M,,N,,A*7B
$GPV[2024/10/02, 13:16:59.766]TG,281.09,T,280.93,M,4.79,N,8.88,K,A*23
$PGRME,12.57,M,16.82,M,21.[2024/10/02, 13:16:59.907]00,M*21
$PGRMZ,-11,f,3*06
$PGRMM,WGS 84*06
$HCHDM,,M*07
$WIMWV[2024/10/02, 13:17:00.047],,R,,,A*6D
$GPAPB,V,V,,,N,V,V,,,,,,,,N*68
$GPZDA,051657,02,10,202[2024/10/02, 13:17:00.157]4,-08,00*6A
[2024/10/02, 13:17:00.235]$GPRMC,051659,A,0114.0457,N,10339.1245,E,4.74,281.[2024/10/02, 13:17:00.500]70,021024,0.16,E,A*24
$GPRMB,A,,,,,,,,,,,,V,A*1C
$GPGGA,051659,01[2024/10/02, 13:17:00.641]14.0457,N,10339.1245,E,1,19,0.64,-3.28,M,9.62,M,,*67
$GPGSA,A,3,10[2024/10/02, 13:17:00.781],12,18,23,25,28,29,31,32,,,,1.29,0.64,1.12*07
$GPGSV,5,1,19,10,31,[2024/10/02, 13:17:00.922]353,25,12,19,071,20,18,51,173,25,23,50,042,17*70
$GPGSV,5,2,19,25,[2024/10/02, 13:17:01.063]45,104,20,28,57,256,29,29,11,150,18,31,25,228,29*75
$GPGSV,5,3,19,[2024/10/02, 13:17:01.203]32,23,328,25,,34,103,20,,43,148,26,,64,337,23*74
$GPGSV,5,4,19,,57[2024/10/02, 13:17:01.344],035,19,,51,010,17,,58,353,23,,75,170,22*72
$GPGSV,5,5,19,,43,045,[2024/10/02, 13:17:01.484]16,,28,269,27,,40,215,32*41
$GPGLL,0114.0457,N,10339.1245,E,051659[2024/10/02, 13:17:01.625],A,A*41
$GPBOD,,T,,M,,*47
$GPBWC,051659,,,,,,T,,M,,N,,A*75
$GPV[2024/10/02, 13:17:01.765]TG,281.70,T,281.53,M,4.74,N,8.77,K,A*2D
$PGRME,12.57,M,17.02,M,21.[2024/10/02, 13:17:01.906]16,M*2F
$PGRMZ,-11,f,3*06
$PGRMM,WGS 84*06
$HCHDM,,M*07
$WIMWV[2024/10/02, 13:17:02.047],,R,,,A*6D
$GPAPB,V,V,,,N,V,V,,,,,,,,N*68
$GPZDA,051659,02,10,202[2024/10/02, 13:17:02.156]4,-08,00*64
[2024/10/02, 13:17:02.234]$GPRMC,051701,A,0114.0463,N,10339.1225,E,4.48,283.[2024/10/02, 13:17:02.500]45,021024,0.16,E,A*22
$GPRMB,A,,,,,,,,,,,,V,A*1C
$GPGGA,051701,01[2024/10/02, 13:17:02.640]14.0463,N,10339.1225,E,1,19,0.64,-3.06,M,9.62,M,,*66
$GPGSA,A,3,10[2024/10/02, 13:17:02.781],12,18,23,25,28,29,31,32,,,,1.29,0.64,1.12*07
$GPGSV,5,1,19,10,31[2024/10/02, 13:17:02.921],353,23,12,19,071,23,18,51,173,27,23,50,042,17*77
$GPGSV,5,2,19,25[2024/10/02, 13:17:03.062],45,104,21,28,57,256,29,29,11,150,20,31,25,228,27*71
$GPGSV,5,3,19[2024/10/02, 13:17:03.203],32,23,328,25,,34,103,21,,43,148,27,,64,337,22*75
$GPGSV,5,4,19,,5[2024/10/02, 13:17:03.343]7,035,19,,51,010,18,,58,353,24,,75,170,24*7C
$GPGSV,5,5,19,,43,045[2024/10/02, 13:17:03.484],14,,28,269,28,,40,215,32*4C
$GPGLL,0114.0463,N,10339.1225,E,05170[2024/10/02, 13:17:03.624]1,A,A*4C
$GPBOD,,T,,M,,*47
$GPBWC,051701,,,,,,T,,M,,N,,A*79
$GPV[2024/10/02, 13:17:03.765]TG,283.45,T,283.29,M,4.48,N,8.31,K,A*2B
$PGRME,12.57,M,17.10,M,21[2024/10/02, 13:17:03.906].22,M*2B
$PGRMZ,-10,f,3*07
$PGRMM,WGS 84*06
$HCHDM,,M*07
$WIMWV[2024/10/02, 13:17:04.046],,R,,,A*6D
$GPAPB,V,V,,,N,V,V,,,,,,,,N*68
$GPZDA,051701,02,10,20[2024/10/02, 13:17:04.156]24,-08,00*68
[2024/10/02, 13:17:04.234]$GPRMC,051703,A,0114.0470,N,10339.1204,E,4.49,280.[2024/10/02, 13:17:04.499]98,021024,0.16,E,A*23
$GPRMB,A,,,,,,,,,,,,V,A*1C
$GPGGA,051703,01[2024/10/02, 13:17:04.641]14.0470,N,10339.1204,E,1,19,0.64,-1.96,M,9.62,M,,*6E
$GPGSA,A,3,10[2024/10/02, 13:17:04.782],12,18,23,25,28,29,31,32,,,,1.29,0.64,1.12*07
$GPGSV,5,1,19,10,31,[2024/10/02, 13:17:04.922]353,25,12,19,071,23,18,51,173,27,23,50,042,19*7F
$GPGSV,5,2,19,25,[2024/10/02, 13:17:05.063]45,104,22,28,57,256,28,29,11,150,22,31,25,228,29*7F
$GPGSV,5,3,19,[2024/10/02, 13:17:05.203]32,23,328,24,,34,103,20,,43,148,26,,64,337,22*74
$GPGSV,5,4,19,,57[2024/10/02, 13:17:05.344],035,17,,51,010,16,,58,353,24,,75,170,24*7C
$GPGSV,5,5,19,,43,045,[2024/10/02, 13:17:05.485]14,,28,269,27,,40,215,32*43
$GPGLL,0114.0470,N,10339.1204,E,051703[2024/10/02, 13:17:05.625],A,A*4F
$GPBOD,,T,,M,,*47
$GPBWC,051703,,,,,,T,,M,,N,,A*7B
$GPV[2024/10/02, 13:17:05.766]TG,280.98,T,280.82,M,4.49,N,8.31,K,A*2B
$PGRME,12.58,M,17.27,M,21.[2024/10/02, 13:17:05.906]36,M*25
$PGRMZ,-6,f,3*30
$PGRMM,WGS 84*06
$HCHDM,,M*07
$WIMWV,[2024/10/02, 13:17:06.047],R,,,A*6D
$GPAPB,V,V,,,N,V,V,,,,,,,,N*68
$GPZDA,051703,02,10,2024[2024/10/02, 13:17:06.156],-08,00*6A
[2024/10/02, 13:17:06.234]$GPRMC,051705,A,0114.0480,N,10339.1183,E,4.44,292.[2024/10/02, 13:17:06.500]14,021024,0.16,E,A*2C
$GPRMB,A,,,,,,,,,,,,V,A*1C
$GPGGA,051705,01[2024/10/02, 13:17:06.641]14.0480,N,10339.1183,E,1,19,0.64,-1.43,M,9.62,M,,*63
$GPGSA,A,3,10[2024/10/02, 13:17:06.781],12,18,23,25,28,29,31,32,,,,1.29,0.64,1.12*07
$GPGSV,5,1,19,10,31[2024/10/02, 13:17:06.922],353,26,12,19,071,23,18,51,173,27,23,50,042,19*7C
$GPGSV,5,2,19,25[2024/10/02, 13:17:07.062],45,104,22,28,57,256,28,29,11,150,19,31,25,228,29*77
$GPGSV,5,3,19,[2024/10/02, 13:17:07.203]32,23,328,25,,34,103,22,,43,148,26,,64,337,24*71
$GPGSV,5,4,19,,57[2024/10/02, 13:17:07.344],035,18,,52,010,17,,58,353,23,,75,170,24*76
$GPGSV,5,5,19,,43,045,[2024/10/02, 13:17:07.484]15,,28,269,27,,40,215,33*43
$GPGLL,0114.0480,N,10339.1183,E,05170[2024/10/02, 13:17:07.625]5,A,A*4A
$GPBOD,,T,,M,,*47
$GPBWC,051705,,,,,,T,,M,,N,,A*7D
$GPV[2024/10/02, 13:17:07.765]TG,292.14,T,291.98,M,4.44,N,8.23,K,A*29
$PGRME,12.48,M,17.34,M,21.[2024/10/02, 13:17:07.906]36,M*26
$PGRMZ,-5,f,3*33
$PGRMM,WGS 84*06
$HCHDM,,M*07
$WIMWV,[2024/10/02, 13:17:08.047],R,,,A*6D
$GPAPB,V,V,,,N,V,V,,,,,,,,N*68
$GPZDA,051705,02,10,202[2024/10/02, 13:17:08.156]4,-08,00*6C
[2024/10/02, 13:17:08.234]$GPRMC,051707,A,0114.0486,N,10339.1164,E,4.21,290.[2024/10/02, 13:17:08.500]81,021024,0.16,E,A*2C
$GPRMB,A,,,,,,,,,,,,V,A*1C
$GPGGA,051707,01[2024/10/02, 13:17:08.640]14.0486,N,10339.1164,E,1,19,0.64,-1.07,M,9.62,M,,*6E
$GPGSA,A,3,10[2024/10/02, 13:17:08.781],12,18,23,25,28,29,31,32,,,,1.29,0.64,1.12*07
$GPGSV,5,1,19,10,31,[2024/10/02, 13:17:08.921]353,23,12,19,071,21,18,51,173,27,23,50,042,19*7B
$GPGSV,5,2,19,25,[2024/10/02, 13:17:09.062]45,104,24,28,57,256,29,29,11,150,21,31,25,228,30*73
$GPGSV,5,3,19,[2024/10/02, 13:17:09.203]32,23,328,25,,34,103,23,,43,148,26,,64,337,24*70
$GPGSV,5,4,19,,57[2024/10/02, 13:17:09.343],035,18,,52,010,18,,58,353,22,,75,170,23*7F
$GPGSV,5,5,19,,43,045,[2024/10/02, 13:17:09.484]15,,28,269,27,,40,215,32*42
$GPGLL,0114.0486,N,10339.1164,E,051707[2024/10/02, 13:17:09.624],A,A*47
$GPBOD,,T,,M,,*47
$GPBWC,051707,,,,,,T,,M,,N,,A*7F
$GPV[2024/10/02, 13:17:09.765]TG,290.81,T,290.65,M,4.21,N,7.80,K,A*21
$PGRME,12.37,M,17.43,M,21.[2024/10/02, 13:17:09.905]38,M*20
$PGRMZ,-4,f,3*32
$PGRMM,WGS 84*06
$HCHDM,,M*07
$WIMWV,[2024/10/02, 13:17:10.046],R,,,A*6D
$GPAPB,V,V,,,N,V,V,,,,,,,,N*68
$GPZDA,051707,02,10,2024[2024/10/02, 13:17:10.155],-08,00*6E
[2024/10/02, 13:17:10.234]$GPRMC,051709,A,0114.0492,N,10339.1141,E,4.23,289.[2024/10/02, 13:17:10.499]49,021024,0.16,E,A*2E
$GPRMB,A,,,,,,,,,,,,V,A*1C
$GPGGA,051709,0[2024/10/02, 13:17:10.640]114.0492,N,10339.1141,E,1,19,0.64,-0.59,M,9.62,M,,*68
$GPGSA,A,3,1[2024/10/02, 13:17:10.780]0,12,18,23,25,28,29,31,32,,,,1.29,0.64,1.12*07
$GPGSV,5,1,19,10,31[2024/10/02, 13:17:10.921],353,26,12,19,071,21,18,51,173,27,23,50,042,20*74
$GPGSV,5,2,19,25[2024/10/02, 13:17:11.061],45,104,25,28,57,256,29,29,11,150,20,31,25,228,30*73
$GPGSV,5,3,19[2024/10/02, 13:17:11.202],32,23,328,25,,34,103,25,,43,148,25,,64,337,23*72
$GPGSV,5,4,19,,5[2024/10/02, 13:17:11.343]7,035,18,,52,010,18,,58,353,25,,75,170,23*78
$GPGSV,5,5,19,,43,045[2024/10/02, 13:17:11.483],14,,28,269,26,,40,215,32*42
$GPGLL,0114.0492,N,10339.1141,E,05170[2024/10/02, 13:17:11.624]9,A,A*4B
$GPBOD,,T,,M,,*47
$GPBWC,051709,,,,,,T,,M,,N,,A*71
$GP[2024/10/02, 13:17:11.764]VTG,289.49,T,289.33,M,4.23,N,7.83,K,A*27
$PGRME,12.23,M,17.53,M,21[2024/10/02, 13:17:11.905].37,M*2B
$PGRMZ,-2,f,3*34
$PGRMM,WGS 84*06
$HCHDM,,M*07
$WIMWV,[2024/10/02, 13:17:12.046],R,,,A*6D
$GPAPB,V,V,,,N,V,V,,,,,,,,N*68
$GPZDA,051709,02,10,202[2024/10/02, 13:17:12.155]4,-08,00*60
[2024/10/02, 13:17:12.233]$GPRMC,051711,A,0114.0500,N,10339.1119,E,4.26,285.[2024/10/02, 13:17:12.499]00,021024,0.16,E,A*24
$GPRMB,A,,,,,,,,,,,,V,A*1C
$GPGGA,051711,0[2024/10/02, 13:17:12.639]114.0500,N,10339.1119,E,1,19,0.64,-0.16,M,9.62,M,,*6D
$GPGSA,A,3,1[2024/10/02, 13:17:12.780]0,12,18,23,25,28,29,31,32,,,,1.29,0.64,1.12*07
$GPGSV,5,1,19,10,31[2024/10/02, 13:17:12.920],353,24,12,19,071,19,18,51,173,27,23,50,042,17*79
$GPGSV,5,2,19,25[2024/10/02, 13:17:13.061],45,104,23,28,57,256,28,29,11,150,17,31,25,228,30*70
$GPGSV,5,3,19[2024/10/02, 13:17:13.202],32,23,328,26,,34,103,25,,43,148,23,,64,337,22*76
$GPGSV,5,4,19,,5[2024/10/02, 13:17:13.342]7,035,18,,52,010,19,,58,353,23,,75,170,24*78
$GPGSV,5,5,19,,43,045[2024/10/02, 13:17:13.483],17,,28,269,27,,40,215,31*43
$GPGLL,0114.0500,N,10339.1119,E,05171[2024/10/02, 13:17:13.623]1,A,A*45
$GPBOD,,T,,M,,*47
$GPBWC,051711,,,,,,T,,M,,N,,A*78
$GP[2024/10/02, 13:17:13.764]VTG,285.00,T,284.84,M,4.26,N,7.88,K,A*29
$PGRME,12.05,M,17.66,M,21[2024/10/02, 13:17:13.905].38,M*26
$PGRMZ,-1,f,3*37
$PGRMM,WGS 84*06
$HCHDM,,M*07
$WIMWV[2024/10/02, 13:17:14.045],,R,,,A*6D
$GPAPB,V,V,,,N,V,V,,,,,,,,N*68
$GPZDA,051711,02,10,20[2024/10/02, 13:17:14.154]24,-08,00*69
[2024/10/02, 13:17:14.233]$GPRMC,051713,A,0114.0506,N,10339.1096,E,4.29,284[2024/10/02, 13:17:14.498].53,021024,0.16,E,A*2E
$GPRMB,A,,,,,,,,,,,,V,A*1C
$GPGGA,051713,0[2024/10/02, 13:17:14.639]114.0506,N,10339.1096,E,1,19,0.64,0.62,M,9.62,M,,*41
$GPGSA,A,3,10[2024/10/02, 13:17:14.779],12,18,23,25,28,29,31,32,,,,1.29,0.64,1.12*07
$GPGSV,5,1,19,10,31,[2024/10/02, 13:17:14.920]353,26,12,19,071,18,18,51,173,25,23,50,042,17*78
$GPGSV,5,2,19,25,[2024/10/02, 13:17:15.061]45,104,20,28,57,256,26,29,11,150,19,31,25,228,31*72
$GPGSV,5,3,19,[2024/10/02, 13:17:15.201]32,23,328,26,,34,103,26,,43,148,24,,64,337,23*73
$GPGSV,5,4,19,,57[2024/10/02, 13:17:15.342],035,18,,52,010,21,,58,353,25,,75,170,21*70
$GPGSV,5,5,19,,43,045,[2024/10/02, 13:17:15.482]16,,28,269,24,,40,215,32*42
$GPGLL,0114.0506,N,10339.1096,E,051713[2024/10/02, 13:17:15.623],A,A*47
$GPBOD,,T,,M,,*47
$GPBWC,051713,,,,,,T,,M,,N,,A*7A
$GPVT[2024/10/02, 13:17:15.763]G,284.53,T,284.37,M,4.29,N,7.95,K,A*25
$PGRME,12.01,M,17.83,M,21.[2024/10/02, 13:17:15.904]50,M*27
$PGRMZ,2,f,3*19
$PGRMM,WGS 84*06
$HCHDM,,M*07
$WIMWV,,[2024/10/02, 13:17:16.045]R,,,A*6D
$GPAPB,V,V,,,N,V,V,,,,,,,,N*68
$GPZDA,051713,02,10,2024[2024/10/02, 13:17:16.154],-08,00*6B
[2024/10/02, 13:17:16.232]$GPRMC,051715,A,0114.0514,N,10339.1077,E,4.26,290[2024/10/02, 13:17:16.498].76,021024,0.16,E,A*29
$GPRMB,A,,,,,,,,,,,,V,A*1C
$GPGGA,051715,0[2024/10/02, 13:17:16.638]114.0514,N,10339.1077,E,1,19,0.64,0.77,M,9.62,M,,*4F
$GPGSA,A,3,10[2024/10/02, 13:17:16.779],12,18,23,25,28,29,31,32,,,,1.29,0.64,1.12*07
$GPGSV,5,1,19,10,31,[2024/10/02, 13:17:16.919]353,24,12,19,071,19,18,51,173,27,23,50,042,19*77
$GPGSV,5,2,19,25,[2024/10/02, 13:17:17.060]45,104,22,28,57,256,27,29,11,150,16,31,25,228,31*7E
$GPGSV,5,3,19,[2024/10/02, 13:17:17.201]32,23,328,27,,34,103,26,,43,148,23,,64,337,24*72
$GPGSV,5,4,19,,57[2024/10/02, 13:17:17.341],035,18,,52,010,22,,58,353,24,,76,170,20*70
$GPGSV,5,5,19,,43,045,[2024/10/02, 13:17:17.482]19,,28,269,27,,40,215,32*4E
$GPGLL,0114.0514,N,10339.1077,E,051715[2024/10/02, 13:17:17.622],A,A*4D
$GPBOD,,T,,M,,*47
$GPBWC,051715,,,,,,T,,M,,N,,A*7C
$GPV[2024/10/02, 13:17:17.763]TG,290.76,T,290.60,M,4.26,N,7.89,K,A*22
$PGRME,11.99,M,17.91,M,21.[2024/10/02, 13:17:17.904]55,M*23
$PGRMZ,3,f,3*18
$PGRMM,WGS 84*06
$HCHDM,,M*07
$WIMWV,,[2024/10/02, 13:17:18.044]R,,,A*6D
$GPAPB,V,V,,,N,V,V,,,,,,,,N*68
$GPZDA,051715,02,10,2024,[2024/10/02, 13:17:18.154]-08,00*6D
[2024/10/02, 13:17:18.232]$GPRMC,051717,A,0114.0517,N,10339.1055,E,4.27,289[2024/10/02, 13:17:18.497].20,021024,0.16,E,A*22
$GPRMB,A,,,,,,,,,,,,V,A*1C
$GPGGA,051717,0[2024/10/02, 13:17:18.638]114.0517,N,10339.1055,E,1,19,0.64,0.81,M,9.62,M,,*47
$GPGSA,A,3,10[2024/10/02, 13:17:18.778],12,18,23,25,28,29,31,32,,,,1.29,0.64,1.12*07
$GPGSV,5,1,19,10,31,[2024/10/02, 13:17:18.919]353,25,12,19,071,22,18,51,173,26,23,50,042,19*7F
$GPGSV,5,2,19,25,[2024/10/02, 13:17:19.060]45,104,20,28,57,256,27,29,11,150,16,31,25,228,31*7C
$GPGSV,5,3,19,[2024/10/02, 13:17:19.200]32,23,328,26,,34,103,24,,43,148,25,,64,337,23*70
$GPGSV,5,4,19,,57[2024/10/02, 13:17:19.341],035,20,,52,010,20,,58,353,25,,76,170,23*7B
$GPGSV,5,5,19,,43,045,[2024/10/02, 13:17:19.481]16,,28,269,25,,40,215,33*42
$GPGLL,0114.0517,N,10339.1055,E,051717[2024/10/02, 13:17:19.622],A,A*4C
$GPBOD,,T,,M,,*47
$GPBWC,051717,,,,,,T,,M,,N,,A*7E
$GPV[2024/10/02, 13:17:19.763]TG,289.20,T,289.04,M,4.27,N,7.90,K,A*2A
$PGRME,11.99,M,18.03,M,21.[2024/10/02, 13:17:19.903]65,M*24
$PGRMZ,3,f,3*18
$PGRMM,WGS 84*06
$HCHDM,,M*07
$WIMWV,,[2024/10/02, 13:17:20.044]R,,,A*6D
$GPAPB,V,V,,,N,V,V,,,,,,,,N*68
$GPZDA,051717,02,10,2024,[2024/10/02, 13:17:20.153]-08,00*6F
[2024/10/02, 13:17:20.231]$GPRMC,051719,A,0114.0520,N,10339.1033,E,4.26,283[2024/10/02, 13:17:20.497].11,021024,0.16,E,A*21
$GPRMB,A,,,,,,,,,,,,V,A*1C
$GPGGA,051719,0[2024/10/02, 13:17:20.637]114.0520,N,10339.1033,E,1,19,0.64,0.97,M,9.62,M,,*4A
$GPGSA,A,3,1[2024/10/02, 13:17:20.778]0,12,18,23,25,28,29,31,32,,,,1.29,0.64,1.12*07
$GPGSV,5,1,19,10,31[2024/10/02, 13:17:20.919],353,27,12,19,071,20,18,51,173,25,23,50,042,21*77
$GPGSV,5,2,19,25[2024/10/02, 13:17:21.059],45,104,22,28,57,256,28,29,11,150,22,31,25,228,30*77
$GPGSV,5,3,19[2024/10/02, 13:17:21.200],32,23,328,25,,34,103,22,,43,148,26,,64,337,23*76
$GPGSV,5,4,19,,57[2024/10/02, 13:17:21.340],035,18,,52,010,19,,58,353,23,,76,170,23*7C
$GPGSV,5,5,19,,43,045,[2024/10/02, 13:17:21.481]16,,28,269,26,,40,214,32*41
$GPGLL,0114.0520,N,10339.1033,E,05171[2024/10/02, 13:17:21.621]9,A,A*46
$GPBOD,,T,,M,,*47
$GPBWC,051719,,,,,,T,,M,,N,,A*70
$GPV[2024/10/02, 13:17:21.762]TG,283.11,T,282.95,M,4.26,N,7.90,K,A*20
$PGRME,11.99,M,18.02,M,21.[2024/10/02, 13:17:21.903]65,M*25
$PGRMZ,3,f,3*18
$PGRMM,WGS 84*06
$HCHDM,,M*07
$WIMWV,,[2024/10/02, 13:17:22.043]R,,,A*6D
$GPAPB,V,V,,,N,V,V,,,,,,,,N*68
$GPZDA,051719,02,10,2024[2024/10/02, 13:17:22.153],-08,00*61
[2024/10/02, 13:17:22.231]$GPRMC,051721,A,0114.0524,N,10339.1015,E,3.92,283[2024/10/02, 13:17:22.496].53,021024,0.16,E,A*24
$GPRMB,A,,,,,,,,,,,,V,A*1C
$GPGGA,051721,[2024/10/02, 13:17:22.637]0114.0524,N,10339.1015,E,1,19,0.64,0.70,M,9.62,M,,*48
$GPGSA,A,3,1[2024/10/02, 13:17:22.777]0,12,18,23,25,28,29,31,32,,,,1.29,0.64,1.12*07
$GPGSV,5,1,19,10,31[2024/10/02, 13:17:22.918],353,26,12,19,071,22,18,51,173,27,23,50,042,18*7C
$GPGSV,5,2,19,25[2024/10/02, 13:17:23.059],45,104,22,28,57,256,29,29,11,150,22,31,25,228,30*76
$GPGSV,5,3,19[2024/10/02, 13:17:23.199],32,23,328,24,,34,103,24,,43,148,24,,64,337,24*74
$GPGSV,5,4,19,,5[2024/10/02, 13:17:23.340]7,035,19,,52,010,17,,58,353,22,,76,170,23*72
$GPGSV,5,5,19,,43,045[2024/10/02, 13:17:23.480],16,,28,269,27,,40,214,33*41
$GPGLL,0114.0524,N,10339.1015,E,05172[2024/10/02, 13:17:23.621]1,A,A*4D
$GPBOD,,T,,M,,*47
$GPBWC,051721,,,,,,T,,M,,N,,A*7B
$GPV[2024/10/02, 13:17:23.762]TG,283.53,T,283.37,M,3.92,N,7.27,K,A*2B
$PGRME,11.99,M,18.10,M,21[2024/10/02, 13:17:23.902].71,M*23
$PGRMZ,2,f,3*19
$PGRMM,WGS 84*06
$HCHDM,,M*07
$WIMWV,,[2024/10/02, 13:17:24.043]R,,,A*6D
$GPAPB,V,V,,,N,V,V,,,,,,,,N*68
$GPZDA,051721,02,10,2024[2024/10/02, 13:17:24.152],-08,00*6A
[2024/10/02, 13:17:24.230]$GPRMC,051723,A,0114.0526,N,10339.0996,E,3.89,28[2024/10/02, 13:17:24.496]1.16,021024,0.16,E,A*2E
$GPRMB,A,,,,,,,,,,,,V,A*1C
$GPGGA,051723,[2024/10/02, 13:17:24.636]0114.0526,N,10339.0996,E,1,19,0.64,0.93,M,9.62,M,,*46
$GPGSA,A,3,1[2024/10/02, 13:17:24.777]0,12,18,23,25,28,29,31,32,,,,1.29,0.64,1.12*07
$GPGSV,5,1,19,10,31[2024/10/02, 13:17:24.918],353,26,12,19,071,20,18,51,173,26,23,50,042,18*7F
$GPGSV,5,2,19,25[2024/10/02, 13:17:25.058],45,104,21,28,57,256,29,29,11,150,22,31,25,228,29*7D
$GPGSV,5,3,19[2024/10/02, 13:17:25.199],32,23,328,26,,34,103,20,,43,148,25,,64,337,25*72
$GPGSV,5,4,19,,5[2024/10/02, 13:17:25.339]7,035,17,,52,010,17,,58,353,24,,76,170,22*7B
$GPGSV,5,5,19,,43,045[2024/10/02, 13:17:25.480],17,,28,269,25,,40,214,32*43
$GPGLL,0114.0526,N,10339.0996,E,05172[2024/10/02, 13:17:25.621]3,A,A*4E
$GPBOD,,T,,M,,*47
$GPBWC,051723,,,,,,T,,M,,N,,A*79
$GP[2024/10/02, 13:17:25.761]VTG,281.16,T,280.99,M,3.89,N,7.20,K,A*22
$PGRME,12.00,M,18.18,M,21[2024/10/02, 13:17:25.902].78,M*21
$PGRMZ,3,f,3*18
$PGRMM,WGS 84*06
$HCHDM,,M*07
$WIMWV,[2024/10/02, 13:17:26.042],R,,,A*6D
$GPAPB,V,V,,,N,V,V,,,,,,,,N*68
$GPZDA,051723,02,10,2024[2024/10/02, 13:17:26.152],-08,00*68
[2024/10/02, 13:17:26.230]$GPRMC,051725,A,0114.0529,N,10339.0975,E,3.90,28[2024/10/02, 13:17:26.495]0.37,021024,0.16,E,A*20
$GPRMB,A,,,,,,,,,,,,V,A*1C
$GPGGA,051725,[2024/10/02, 13:17:26.636]0114.0529,N,10339.0975,E,1,19,0.64,0.50,M,9.62,M,,*4D
$GPGSA,A,3,1[2024/10/02, 13:17:26.776]0,12,18,23,25,28,29,31,32,,,,1.29,0.64,1.12*07
$GPGSV,5,1,19,10,31[2024/10/02, 13:17:26.917],353,25,12,19,071,22,18,51,173,27,23,50,042,19*7E
$GPGSV,5,2,19,25[2024/10/02, 13:17:27.058],45,104,20,28,57,256,29,29,11,150,19,31,25,228,29*74
$GPGSV,5,3,19[2024/10/02, 13:17:27.198],32,23,328,27,,34,103,19,,43,148,25,,64,337,22*7E
$GPGSV,5,4,19,,5[2024/10/02, 13:17:27.339]7,035,19,,52,010,19,,58,353,25,,76,170,26*7E
$GPGSV,5,5,19,,43,045[2024/10/02, 13:17:27.479],14,,28,269,26,,40,214,32*43
$GPGLL,0114.0529,N,10339.0975,E,05172[2024/10/02, 13:17:27.620]5,A,A*4A
$GPBOD,,T,,M,,*47
$GPBWC,051725,,,,,,T,,M,,N,,A*7F
$GP[2024/10/02, 13:17:27.761]VTG,280.37,T,280.21,M,3.90,N,7.23,K,A*28
$PGRME,12.00,M,18.20,M,21[2024/10/02, 13:17:27.901].80,M*2D
$PGRMZ,2,f,3*19
$PGRMM,WGS 84*06
$HCHDM,,M*07
$WIMWV,[2024/10/02, 13:17:28.042],R,,,A*6D
$GPAPB,V,V,,,N,V,V,,,,,,,,N*68
$GPZDA,051725,02,10,2024[2024/10/02, 13:17:28.151],-08,00*6E
[2024/10/02, 13:17:28.229]$GPRMC,051727,A,0114.0529,N,10339.0952,E,4.00,27[2024/10/02, 13:17:28.495]2.67,021024,0.16,E,A*21
$GPRMB,A,,,,,,,,,,,,V,A*1C
$GPGGA,051727,[2024/10/02, 13:17:28.635]0114.0529,N,10339.0952,E,1,19,0.64,0.12,M,9.62,M,,*4C
$GPGSA,A,3,1[2024/10/02, 13:17:28.776]0,12,18,23,25,28,29,31,32,,,,1.29,0.64,1.12*07
$GPGSV,5,1,19,10,3[2024/10/02, 13:17:28.917]1,353,25,12,19,071,17,18,51,173,28,23,50,042,19*77
$GPGSV,5,2,19,25[2024/10/02, 13:17:29.057],45,104,20,28,57,256,26,29,11,150,20,31,25,228,29*71
$GPGSV,5,3,19[2024/10/02, 13:17:29.198],32,23,328,25,,34,103,19,,43,148,25,,64,337,25*7B
$GPGSV,5,4,19,,5[2024/10/02, 13:17:29.338]7,035,18,,52,010,20,,58,353,23,,76,170,23*76
$GPGSV,5,5,19,,43,045[2024/10/02, 13:17:29.479],17,,28,269,27,,40,214,32*41
$GPGLL,0114.0529,N,10339.0952,E,05172[2024/10/02, 13:17:29.620]7,A,A*4D
$GPBOD,,T,,M,,*47
$GPBWC,051727,,,,,,T,,M,,N,,A*7D
$GP[2024/10/02, 13:17:29.760]VTG,272.67,T,272.51,M,4.00,N,7.40,K,A*21
$PGRME,12.01,M,18.30,M,21[2024/10/02, 13:17:29.901].89,M*24
$PGRMZ,0,f,3*1B
$PGRMM,WGS 84*06
$HCHDM,,M*07
$WIMWV,[2024/10/02, 13:17:30.041],R,,,A*6D
$GPAPB,V,V,,,N,V,V,,,,,,,,N*68
$GPZDA,051727,02,10,202[2024/10/02, 13:17:30.151]4,-08,00*6C
[2024/10/02, 13:17:30.229]$GPRMC,051729,A,0114.0534,N,10339.0930,E,4.06,28[2024/10/02, 13:17:30.494]5.68,021024,0.16,E,A*26
$GPRMB,A,,,,,,,,,,,,V,A*1C
$GPGGA,051729[2024/10/02, 13:17:30.635],0114.0534,N,10339.0930,E,1,19,0.64,-1.00,M,9.62,M,,*65
$GPGSA,A,3[2024/10/02, 13:17:30.776],10,12,18,23,25,28,29,31,32,,,,1.29,0.64,1.12*07
$GPGSV,5,1,19,10[2024/10/02, 13:17:30.916],31,353,26,12,19,071,17,18,51,173,24,23,50,042,18*79
$GPGSV,5,2,19[2024/10/02, 13:17:31.057],25,45,104,22,28,57,256,28,29,11,150,19,31,25,228,28*76
$GPGSV,5,3,[2024/10/02, 13:17:31.197]19,32,23,328,24,,34,103,23,,43,148,26,,64,337,23*76
$GPGSV,5,4,19,[2024/10/02, 13:17:31.338],57,035,17,,52,010,20,,58,353,24,,76,170,25*78
$GPGSV,5,5,19,,43,0[2024/10/02, 13:17:31.478]45,15,,28,269,26,,40,214,32*42
$GPGLL,0114.0534,N,10339.0930,E,05[2024/10/02, 13:17:31.619]1729,A,A*4B
$GPBOD,,T,,M,,*47
$GPBWC,051729,,,,,,T,,M,,N,,A*73
$[2024/10/02, 13:17:31.760]GPVTG,285.68,T,285.52,M,4.06,N,7.53,K,A*29
$PGRME,12.02,M,18.34,M,[2024/10/02, 13:17:31.900]21.93,M*28
$PGRMZ,-3,f,3*35
$PGRMM,WGS 84*06
$HCHDM,,M*07
$WIM[2024/10/02, 13:17:32.041]WV,,R,,,A*6D
$GPAPB,V,V,,,N,V,V,,,,,,,,N*68
$GPZDA,051729,02,10,[2024/10/02, 13:17:32.166]2024,-08,00*62
[2024/10/02, 13:17:32.244]$GPRMC,051731,A,0114.0538,N,10339.0910,E,4.01,286.39,02[2024/10/02, 13:17:32.510]1024,0.16,E,A*21
$GPRMB,A,,,,,,,,,,,,V,A*1C
$GPGGA,051731,0114.05[2024/10/02, 13:17:32.650]38,N,10339.0910,E,1,19,0.64,-1.46,M,9.62,M,,*60
$GPGSA,A,3,10,12,1[2024/10/02, 13:17:32.791]8,23,25,28,29,31,32,,,,1.29,0.64,1.12*07
$GPGSV,5,1,19,10,31,353,2[2024/10/02, 13:17:32.931]5,12,19,071,16,18,51,173,27,23,50,042,17*77
$GPGSV,5,2,19,25,45,10[2024/10/02, 13:17:33.072]4,22,28,57,256,29,29,11,150,23,31,25,228,28*7E
$GPGSV,5,3,19,32,23[2024/10/02, 13:17:33.212],328,23,,34,103,21,,43,148,27,,64,337,23*72
$GPGSV,5,4,19,,57,035,[2024/10/02, 13:17:33.353]18,,52,010,19,,58,353,23,,76,170,22*7D
$GPGSV,5,5,19,,43,045,15,,2[2024/10/02, 13:17:33.494]8,269,27,,40,214,31*40
$GPGLL,0114.0538,N,10339.0910,E,051731,A,A*[2024/10/02, 13:17:33.634]4C
$GPBOD,,T,,M,,*47
$GPBWC,051731,,,,,,T,,M,,N,,A*7A
$GPVTG,28[2024/10/02, 13:17:33.775]6.39,T,286.23,M,4.01,N,7.43,K,A*2D
$PGRME,12.03,M,18.62,M,22.17,M*[2024/10/02, 13:17:33.915]25
$PGRMZ,-5,f,3*33
$PGRMM,WGS 84*06
$HCHDM,,M*07
$WIMWV,,R,,,[2024/10/02, 13:17:34.056]A*6D
$GPAPB,V,V,,,N,V,V,,,,,,,,N*68
$GPZDA,051731,02,10,2024,-08[2024/10/02, 13:17:34.150],00*6B
[2024/10/02, 13:17:34.228]$GPRMC,051733,A,0114.0542,N,10339.0886,E,4.04,2[2024/10/02, 13:17:34.493]85.11,021024,0.16,E,A*2C
$GPRMB,A,,,,,,,,,,,,V,A*1C
$GPGGA,051733[2024/10/02, 13:17:34.634],0114.0542,N,10339.0886,E,1,19,0.64,-2.41,M,9.62,M,,*65
$GPGSA,A,3[2024/10/02, 13:17:34.775],10,12,18,23,25,28,29,31,32,,,,1.29,0.64,1.12*07
$GPGSV,5,1,19,10[2024/10/02, 13:17:34.915],31,353,26,12,19,071,19,18,51,173,26,23,50,042,16*7B
$GPGSV,5,2,19,[2024/10/02, 13:17:35.056]25,45,104,17,28,57,256,29,29,11,150,23,31,25,228,28*78
$GPGSV,5,3,[2024/10/02, 13:17:35.196]19,32,23,328,25,,34,103,17,,43,148,27,,64,337,23*71
$GPGSV,5,4,19,[2024/10/02, 13:17:35.337],57,035,16,,52,010,19,,58,353,24,,76,170,25*73
$GPGSV,5,5,19,,43,0[2024/10/02, 13:17:35.478]45,15,,28,269,27,,40,214,31*40
$GPGLL,0114.0542,N,10339.0886,E,051[2024/10/02, 13:17:35.618]733,A,A*4D
$GPBOD,,T,,M,,*47
$GPBWC,051733,,,,,,T,,M,,N,,A*78
$[2024/10/02, 13:17:35.759]GPVTG,285.11,T,284.95,M,4.04,N,7.48,K,A*25
$PGRME,12.05,M,18.74,M,[2024/10/02, 13:17:35.899]22.28,M*28
$PGRMZ,-8,f,3*3E
$PGRMM,WGS 84*06
$HCHDM,,M*07
$WIM[2024/10/02, 13:17:36.040]WV,,R,,,A*6D
$GPAPB,V,V,,,N,V,V,,,,,,,,N*68
$GPZDA,051733,02,10,[2024/10/02, 13:17:36.165]2024,-08,00*69
[2024/10/02, 13:17:36.243]$GPRMC,051735,A,0114.0546,N,10339.0865,E,3.90,281.60,0[2024/10/02, 13:17:36.509]21024,0.16,E,A*2B
$GPRMB,A,,,,,,,,,,,,V,A*1C
$GPGGA,051735,0114.0[2024/10/02, 13:17:36.649]546,N,10339.0865,E,1,19,0.64,-2.96,M,9.62,M,,*60
$GPGSA,A,3,10,12,[2024/10/02, 13:17:36.790]18,23,25,28,29,31,32,,,,1.29,0.64,1.12*07
$GPGSV,5,1,19,10,31,353,[2024/10/02, 13:17:36.930]24,12,19,071,18,18,51,173,28,23,50,042,16*76
$GPGSV,5,2,19,25,45,1[2024/10/02, 13:17:37.071]04,22,28,57,256,29,29,11,150,18,31,25,228,28*76
$GPGSV,5,3,19,32,2[2024/10/02, 13:17:37.212]3,328,25,,34,103,15,,43,148,28,,64,337,24*7B
$GPGSV,5,4,19,,57,035[2024/10/02, 13:17:37.352],16,,52,010,18,,58,353,23,,76,170,22*72
$GPGSV,5,5,19,,43,045,13,,[2024/10/02, 13:17:37.493]28,269,27,,40,214,30*47
$GPGLL,0114.0546,N,10339.0865,E,051735,A,A[2024/10/02, 13:17:37.633]*42
$GPBOD,,T,,M,,*47
$GPBWC,051735,,,,,,T,,M,,N,,A*7E
$GPVTG,28[2024/10/02, 13:17:37.771]1.60,T,281.44,M,3.90,N,7.22,K,A*28
$PGRME,12.07,M,18.82,M,22.36,[2024/10/02, 13:17:37.912]M*2C
$PGRMZ,-10,f,3*07
$PGRMM,WGS 84*06
$HCHDM,,M*07
$WIMWV,,R[2024/10/02, 13:17:38.052],,,A*6D
$GPAPB,V,V,,,N,V,V,,,,,,,,N*68
$GPZDA,051735,02,10,2024,-[2024/10/02, 13:17:38.161]08,00*6F
[2024/10/02, 13:17:38.240]$GPRMC,051737,A,0114.0547,N,10339.0837,E,3.99,264.91,[2024/10/02, 13:17:38.505]021024,0.16,E,A*23
$GPRMB,A,,,,,,,,,,,,V,A*1C
$GPGGA,051737,0114.[2024/10/02, 13:17:38.646]0547,N,10339.0837,E,1,19,0.64,-3.94,M,9.62,M,,*67
$GPGSA,A,3,10,12[2024/10/02, 13:17:38.786],18,23,25,28,29,31,32,,,,1.29,0.64,1.12*07
$GPGSV,5,1,19,10,31,353[2024/10/02, 13:17:38.927],22,12,19,071,19,18,51,173,29,23,50,042,16*70
$GPGSV,5,2,19,25,45,[2024/10/02, 13:17:39.068]104,20,28,57,256,30,29,11,150,20,31,25,228,24*7B
$GPGSV,5,3,19,32,[2024/10/02, 13:17:39.208]23,328,25,,34,103,15,,43,148,27,,64,337,23*73
$GPGSV,5,4,19,,57,03[2024/10/02, 13:17:39.349]5,16,,52,010,20,,58,353,22,,76,170,27*7D
$GPGSV,5,5,19,,43,045,16,[2024/10/02, 13:17:39.489],28,269,27,,40,214,29*4A
$GPGLL,0114.0547,N,10339.0837,E,051737,A,[2024/10/02, 13:17:39.630]A*46
$GPBOD,,T,,M,,*47
$GPBWC,051737,,,,,,T,,M,,N,,A*7C
$GPVTG,[2024/10/02, 13:17:39.770]264.91,T,264.75,M,3.99,N,7.39,K,A*27
$PGRME,12.08,M,18.83,M,22.37,[2024/10/02, 13:17:39.911]M*23
$PGRMZ,-13,f,3*04
$PGRMM,WGS 84*06
$HCHDM,,M*07
$WIMWV,,R[2024/10/02, 13:17:40.052],,,A*6D
$GPAPB,V,V,,,N,V,V,,,,,,,,N*68
$GPZDA,051737,02,10,2024,-[2024/10/02, 13:17:40.161]08,00*6D
[2024/10/02, 13:17:40.239]$GPRMC,051739,A,0114.0559,N,10339.0816,E,4.04,294.67,[2024/10/02, 13:17:40.505]021024,0.16,E,A*24
$GPRMB,A,,,,,,,,,,,,V,A*1C
$GPGGA,051739,0114[2024/10/02, 13:17:40.645].0559,N,10339.0816,E,1,19,0.64,-4.83,M,9.62,M,,*64
$GPGSA,A,3,10,1[2024/10/02, 13:17:40.786]2,18,23,25,28,29,31,32,,,,1.29,0.64,1.12*07
$GPGSV,5,1,19,10,31,35[2024/10/02, 13:17:40.926]3,23,12,19,071,19,18,51,173,30,23,50,042,21*7D
$GPGSV,5,2,19,25,45[2024/10/02, 13:17:41.067],104,20,28,57,256,29,29,11,150,18,31,25,228,25*79
$GPGSV,5,3,19,32[2024/10/02, 13:17:41.208],23,328,25,,34,103,17,,43,148,28,,64,337,23*7E
$GPGSV,5,4,19,,57,0[2024/10/02, 13:17:41.348]35,15,,52,010,21,,58,353,22,,76,170,26*7E
$GPGSV,5,5,19,,43,045,16[2024/10/02, 13:17:41.489],,28,269,29,,40,214,28*45
$GPGLL,0114.0559,N,10339.0816,E,051739,A[2024/10/02, 13:17:41.629],A*44
$GPBOD,,T,,M,,*47
$GPBWC,051739,,,,,,T,,M,,N,,A*72
$GPVTG[2024/10/02, 13:17:41.770],294.67,T,294.51,M,4.04,N,7.48,K,A*2D
$PGRME,12.10,M,18.76,M,22.33[2024/10/02, 13:17:41.911],M*24
$PGRMZ,-16,f,3*01
$PGRMM,WGS 84*06
$HCHDM,,M*07
$WIMWV,,[2024/10/02, 13:17:42.051]R,,,A*6D
$GPAPB,V,V,,,N,V,V,,,,,,,,N*68
$GPZDA,051739,02,10,2024[2024/10/02, 13:17:42.161],-08,00*63
[2024/10/02, 13:17:42.239]$GPRMC,051741,A,0114.0564,N,10339.0796,E,3.81,292.34[2024/10/02, 13:17:42.504],021024,0.16,E,A*28
$GPRMB,A,,,,,,,,,,,,V,A*1C
$GPGGA,051741,0114[2024/10/02, 13:17:42.645].0564,N,10339.0796,E,1,19,0.64,-5.93,M,9.62,M,,*62
$GPGSA,A,3,10,1[2024/10/02, 13:17:42.785]2,18,23,25,28,29,31,32,,,,1.29,0.64,1.12*07
$GPGSV,5,1,19,10,31,3[2024/10/02, 13:17:42.926]53,22,12,19,071,21,18,51,173,30,23,50,042,22*74
$GPGSV,5,2,19,25,4[2024/10/02, 13:17:43.067]5,104,16,28,57,256,29,29,11,150,20,31,25,228,24*76
$GPGSV,5,3,19,3[2024/10/02, 13:17:43.207]2,23,328,25,,34,103,17,,43,148,28,,64,337,23*7E
$GPGSV,5,4,19,,57,[2024/10/02, 13:17:43.348]035,15,,52,010,20,,58,353,21,,76,170,27*7D
$GPGSV,5,5,19,,43,045,1[2024/10/02, 13:17:43.488]6,,28,269,29,,40,214,28*45
$GPGLL,0114.0564,N,10339.0796,E,051741,[2024/10/02, 13:17:43.629]A,A*42
$GPBOD,,T,,M,,*47
$GPBWC,051741,,,,,,T,,M,,N,,A*7D
$GPVTG[2024/10/02, 13:17:43.770],292.34,T,292.18,M,3.81,N,7.06,K,A*26
$PGRME,12.11,M,18.68,M,22.2[2024/10/02, 13:17:43.910]6,M*2E
$PGRMZ,-19,f,3*0E
$PGRMM,WGS 84*06
$HCHDM,,M*07
$WIMWV,,[2024/10/02, 13:17:44.051]R,,,A*6D
$GPAPB,V,V,,,N,V,V,,,,,,,,N*68
$GPZDA,051741,02,10,2024[2024/10/02, 13:17:44.160],-08,00*6C
[2024/10/02, 13:17:44.238]$GPRMC,051743,A,0114.0557,N,10339.0773,E,3.88,256.77[2024/10/02, 13:17:44.504],021024,0.16,E,A*27
$GPRMB,A,,,,,,,,,,,,V,A*1C
$GPGGA,051743,0114[2024/10/02, 13:17:44.644].0557,N,10339.0773,E,1,19,0.64,-6.06,M,9.62,M,,*64
$GPGSA,A,3,10,1[2024/10/02, 13:17:44.785]2,18,23,25,28,29,31,32,,,,1.29,0.64,1.12*07
$GPGSV,5,1,19,10,31,35[2024/10/02, 13:17:44.925]4,23,12,19,071,15,18,51,173,30,23,50,042,21*76
$GPGSV,5,2,19,25,45[2024/10/02, 13:17:45.066],104,19,28,57,256,27,29,11,150,18,31,25,228,26*7E
$GPGSV,5,3,19,32[2024/10/02, 13:17:45.207],23,328,26,,34,103,15,,43,148,28,,64,337,22*7E
$GPGSV,5,4,19,,57,0[2024/10/02, 13:17:45.347]35,13,,52,010,20,,58,353,20,,76,170,27*7A
$GPGSV,5,5,19,,43,045,20[2024/10/02, 13:17:45.488],,28,269,30,,40,214,29*49
$GPGLL,0114.0557,N,10339.0773,E,051743,A[2024/10/02, 13:17:45.628],A*4B
$GPBOD,,T,,M,,*47
$GPBWC,051743,,,,,,T,,M,,N,,A*7F
$GPVTG[2024/10/02, 13:17:45.769],256.77,T,256.61,M,3.88,N,7.18,K,A*29
$PGRME,12.12,M,18.63,M,22.23[2024/10/02, 13:17:45.910],M*23
$PGRMZ,-20,f,3*04
$PGRMM,WGS 84*06
$HCHDM,,M*07
$WIMWV,,[2024/10/02, 13:17:46.050]R,,,A*6D
$GPAPB,V,V,,,N,V,V,,,,,,,,N*68
$GPZDA,051743,02,10,2024,[2024/10/02, 13:17:46.160]-08,00*6E
[2024/10/02, 13:17:46.238]$GPRMC,051745,A,0114.0557,N,10339.0754,E,3.79,259.24[2024/10/02, 13:17:46.503],021024,0.16,E,A*23
$GPRMB,A,,,,,,,,,,,,V,A*1C
$GPGGA,051745,0114[2024/10/02, 13:17:46.644].0557,N,10339.0754,E,1,19,0.64,-7.20,M,9.62,M,,*62
$GPGSA,A,3,10,1[2024/10/02, 13:17:46.784]2,18,23,25,28,29,31,32,,,,1.29,0.64,1.12*07
$GPGSV,5,1,19,10,31,3[2024/10/02, 13:17:46.925]54,24,12,19,070,17,18,51,173,30,23,50,042,23*70
$GPGSV,5,2,19,25,4[2024/10/02, 13:17:47.066]5,104,19,28,57,256,29,29,11,150,20,31,25,228,26*7B
$GPGSV,5,3,19,3[2024/10/02, 13:17:47.206]2,23,328,26,,34,103,18,,43,148,27,,64,337,22*7C
$GPGSV,5,4,19,,57,[2024/10/02, 13:17:47.347]035,15,,52,010,21,,58,353,20,,76,170,27*7D
$GPGSV,5,5,19,,43,045,1[2024/10/02, 13:17:47.487]7,,28,269,29,,40,214,29*45
$GPGLL,0114.0557,N,10339.0754,E,051745,[2024/10/02, 13:17:47.628]A,A*48
$GPBOD,,T,,M,,*47
$GPBWC,051745,,,,,,T,,M,,N,,A*79
$GPVT[2024/10/02, 13:17:47.769]G,259.24,T,259.08,M,3.79,N,7.02,K,A*25
$PGRME,12.13,M,18.55,M,22.1[2024/10/02, 13:17:47.909]6,M*21
$PGRMZ,-24,f,3*00
$PGRMM,WGS 84*06
$HCHDM,,M*07
$WIMWV,[2024/10/02, 13:17:48.050],R,,,A*6D
$GPAPB,V,V,,,N,V,V,,,,,,,,N*68
$GPZDA,051745,02,10,2024[2024/10/02, 13:17:48.159],-08,00*68
[2024/10/02, 13:17:48.237]$GPRMC,051747,A,0114.0561,N,10339.0732,E,3.58,271.94[2024/10/02, 13:17:48.503],021024,0.16,E,A*26
$GPRMB,A,,,,,,,,,,,,V,A*1C
$GPGGA,051747,0114[2024/10/02, 13:17:48.643].0561,N,10339.0732,E,1,19,0.64,-8.71,M,9.62,M,,*6E
$GPGSA,A,3,10,1[2024/10/02, 13:17:48.784]2,18,23,25,28,29,31,32,,,,1.29,0.64,1.12*07
$GPGSV,5,1,19,10,31,3[2024/10/02, 13:17:48.925]54,24,12,19,070,16,18,51,173,31,23,50,042,21*72
$GPGSV,5,2,19,25,45[2024/10/02, 13:17:49.065],104,22,28,57,256,28,29,11,150,20,31,25,228,27*73
$GPGSV,5,3,19,32[2024/10/02, 13:17:49.206],23,328,26,,34,103,14,,43,148,28,,64,337,23*7E
$GPGSV,5,4,19,,57,0[2024/10/02, 13:17:49.346]35,15,,52,010,18,,58,353,18,,76,170,26*7D
$GPGSV,5,5,19,,43,045,18[2024/10/02, 13:17:49.487],,28,269,30,,40,214,29*42
$GPGLL,0114.0561,N,10339.0732,E,051747,A[2024/10/02, 13:17:49.627],A*4F
$GPBOD,,T,,M,,*47
$GPBWC,051747,,,,,,T,,M,,N,,A*7B
$GPVTG[2024/10/02, 13:17:49.768],271.94,T,271.78,M,3.58,N,6.63,K,A*2C
$PGRME,12.14,M,18.46,M,22.09[2024/10/02, 13:17:49.909],M*2A
$PGRMZ,-29,f,3*0D
$PGRMM,WGS 84*06
$HCHDM,,M*07
$WIMWV,,[2024/10/02, 13:17:50.049]R,,,A*6D
$GPAPB,V,V,,,N,V,V,,,,,,,,N*68
$GPZDA,051747,02,10,2024[2024/10/02, 13:17:50.159],-08,00*6A
[2024/10/02, 13:17:50.237]$GPRMC,051749,A,0114.0560,N,10339.0711,E,3.78,260.73[2024/10/02, 13:17:50.502],021024,0.16,E,A*23
$GPRMB,A,,,,,,,,,,,,V,A*1C
$GPGGA,051749,011[2024/10/02, 13:17:50.643]4.0560,N,10339.0711,E,1,19,0.64,-9.20,M,9.62,M,,*65
$GPGSA,A,3,10,[2024/10/02, 13:17:50.783]12,18,23,25,28,29,31,32,,,,1.29,0.64,1.12*07
$GPGSV,5,1,19,10,31,3[2024/10/02, 13:17:50.924]54,25,12,19,070,19,18,51,173,30,23,50,042,22*7E
$GPGSV,5,2,19,25,4[2024/10/02, 13:17:51.065]5,104,21,28,57,256,29,29,11,150,19,31,25,228,25*79
$GPGSV,5,3,19,3[2024/10/02, 13:17:51.205]2,23,328,25,,34,103,16,,43,148,27,,64,337,23*70
$GPGSV,5,4,19,,57,[2024/10/02, 13:17:51.346]035,15,,52,010,20,,58,353,21,,76,170,27*7D
$GPGSV,5,5,19,,43,045,19[2024/10/02, 13:17:51.486],,28,269,30,,40,214,28*42
$GPGLL,0114.0560,N,10339.0711,E,051749,[2024/10/02, 13:17:51.627]A,A*41
$GPBOD,,T,,M,,*47
$GPBWC,051749,,,,,,T,,M,,N,,A*75
$GPVTG[2024/10/02, 13:17:51.768],260.73,T,260.57,M,3.78,N,7.00,K,A*2E
$PGRME,12.15,M,18.52,M,22.15[2024/10/02, 13:17:51.908],M*23
$PGRMZ,-30,f,3*05
$PGRMM,WGS 84*06
$HCHDM,,M*07
$WIMWV,,[2024/10/02, 13:17:52.049]R,,,A*6D
$GPAPB,V,V,,,N,V,V,,,,,,,,N*68
$GPZDA,051749,02,10,2024[2024/10/02, 13:17:52.158],-08,00*64
[2024/10/02, 13:17:52.236]$GPRMC,051751,A,0114.0562,N,10339.0693,E,3.71,270.9[2024/10/02, 13:17:52.502]7,021024,0.16,E,A*21
$GPRMB,A,,,,,,,,,,,,V,A*1C
$GPGGA,051751,011[2024/10/02, 13:17:52.642]4.0562,N,10339.0693,E,1,19,0.64,-9.32,M,9.62,M,,*66
$GPGSA,A,3,10,[2024/10/02, 13:17:52.783]12,18,23,25,28,29,31,32,,,,1.29,0.64,1.12*07
$GPGSV,5,1,19,10,31,3[2024/10/02, 13:17:52.924]54,25,12,19,070,20,18,50,173,30,23,50,042,18*7C
$GPGSV,5,2,19,25,4[2024/10/02, 13:17:53.064]5,104,18,28,57,256,28,29,11,150,20,31,25,228,27*7A
$GPGSV,5,3,19,3[2024/10/02, 13:17:53.205]2,23,328,23,,34,103,16,,43,148,28,,64,337,23*79
$GPGSV,5,4,19,,57,[2024/10/02, 13:17:53.345]035,15,,52,010,18,,58,353,21,,76,170,23*72
$GPGSV,5,5,19,,43,045,1[2024/10/02, 13:17:53.486]9,,28,269,30,,40,214,28*42
$GPGLL,0114.0562,N,10339.0693,E,051751,[2024/10/02, 13:17:53.627]A,A*41
$GPBOD,,T,,M,,*47
$GPBWC,051751,,,,,,T,,M,,N,,A*7C
$GPVT[2024/10/02, 13:17:53.767]G,270.97,T,270.81,M,3.71,N,6.88,K,A*27
$PGRME,12.16,M,18.55,M,22.1[2024/10/02, 13:17:53.908]8,M*2A
$PGRMZ,-31,f,3*04
$PGRMM,WGS 84*06
$HCHDM,,M*07
$WIMWV,[2024/10/02, 13:17:54.048],R,,,A*6D
$GPAPB,V,V,,,N,V,V,,,,,,,,N*68
$GPZDA,051751,02,10,2024[2024/10/02, 13:17:54.158],-08,00*6D
[2024/10/02, 13:17:54.236]$GPRMC,051753,A,0114.0563,N,10339.0674,E,3.70,271.0[2024/10/02, 13:17:54.501]0,021024,0.16,E,A*25
$GPRMB,A,,,,,,,,,,,,V,A*1C
$GPGGA,051753,011[2024/10/02, 13:17:54.642]4.0563,N,10339.0674,E,1,19,0.64,-9.53,M,9.62,M,,*6B
$GPGSA,A,3,10,[2024/10/02, 13:17:54.783]12,18,23,25,28,29,31,32,,,,1.29,0.64,1.12*07
$GPGSV,5,1,19,10,31,3[2024/10/02, 13:17:54.923]54,26,12,19,070,20,18,50,173,27,23,50,042,17*76
$GPGSV,5,2,19,25,4[2024/10/02, 13:17:55.064]5,104,21,28,57,256,29,29,11,150,22,31,25,228,27*73
$GPGSV,5,3,19,3[2024/10/02, 13:17:55.204]2,23,328,24,,34,103,17,,43,148,26,,64,337,24*76
$GPGSV,5,4,19,,57,[2024/10/02, 13:17:55.345]035,18,,52,010,18,,58,353,25,,76,170,27*7F
$GPGSV,5,5,19,,43,045,1[2024/10/02, 13:17:55.486]6,,28,269,25,,40,214,30*40
$GPGLL,0114.0563,N,10339.0674,E,051753,[2024/10/02, 13:17:55.626]A,A*4B
$GPBOD,,T,,M,,*47
$GPBWC,051753,,,,,,T,,M,,N,,A*7E
$GPVT[2024/10/02, 13:17:55.767]G,271.00,T,270.84,M,3.70,N,6.85,K,A*21
$PGRME,12.16,M,18.71,M,22.3[2024/10/02, 13:17:55.907]2,M*24
$PGRMZ,-31,f,3*04
$PGRMM,WGS 84*06
$HCHDM,,M*07
$WIMWV,[2024/10/02, 13:17:56.048],R,,,A*6D
$GPAPB,V,V,,,N,V,V,,,,,,,,N*68
$GPZDA,051753,02,10,202[2024/10/02, 13:17:56.157]4,-08,00*6F
[2024/10/02, 13:17:56.235]$GPRMC,051755,A,0114.0565,N,10339.0658,E,3.66,277.0[2024/10/02, 13:17:56.501]9,021024,0.16,E,A*23
$GPRMB,A,,,,,,,,,,,,V,A*1C
$GPGGA,051755,011[2024/10/02, 13:17:56.642]4.0565,N,10339.0658,E,1,19,0.64,-8.90,M,9.62,M,,*6B
$GPGSA,A,3,10,[2024/10/02, 13:17:56.782]12,18,23,25,28,29,31,32,,,,1.29,0.64,1.12*07
$GPGSV,5,1,19,10,31,3[2024/10/02, 13:17:56.923]54,26,12,19,070,17,18,50,173,26,23,50,042,21*76
$GPGSV,5,2,19,25,4[2024/10/02, 13:17:57.063]5,104,20,28,57,256,28,29,11,150,19,31,25,228,29*75
$GPGSV,5,3,19,3[2024/10/02, 13:17:57.204]2,23,328,24,,34,103,25,,43,148,25,,64,337,25*75
$GPGSV,5,4,19,,57,[2024/10/02, 13:17:57.344]035,18,,52,010,17,,58,353,25,,76,170,22*75
$GPGSV,5,5,19,,43,045,1[2024/10/02, 13:17:57.485]6,,28,269,28,,40,214,31*4C
$GPGLL,0114.0565,N,10339.0658,E,051755,[2024/10/02, 13:17:57.626]A,A*45
$GPBOD,,T,,M,,*47
$GPBWC,051755,,,,,,T,,M,,N,,A*78
$GPVT[2024/10/02, 13:17:57.766]G,277.09,T,276.92,M,3.66,N,6.78,K,A*2A
$PGRME,12.17,M,18.87,M,22.4[2024/10/02, 13:17:57.907]5,M*2C
$PGRMZ,-29,f,3*0D
$PGRMM,WGS 84*06
$HCHDM,,M*07
$WIMWV,[2024/10/02, 13:17:58.047],R,,,A*6D
$GPAPB,V,V,,,N,V,V,,,,,,,,N*68
$GPZDA,051755,02,10,2024[2024/10/02, 13:17:58.157],-08,00*69
[2024/10/02, 13:17:58.235]$GPRMC,051757,A,0114.0571,N,10339.0645,E,3.34,292.8[2024/10/02, 13:17:58.500]0,021024,0.16,E,A*25
$GPRMB,A,,,,,,,,,,,,V,A*1C
$GPGGA,051757,011[2024/10/02, 13:17:58.641]4.0571,N,10339.0645,E,1,19,0.64,-8.83,M,9.62,M,,*62
$GPGSA,A,3,10[2024/10/02, 13:17:58.782],12,18,23,25,28,29,31,32,,,,1.29,0.64,1.12*07
$GPGSV,5,1,19,10,31,[2024/10/02, 13:17:58.922]354,25,12,19,070,21,18,50,173,26,23,51,043,18*7A
$GPGSV,5,2,19,25,[2024/10/02, 13:17:59.063]45,104,22,28,57,256,27,29,11,150,18,31,25,228,30*71
$GPGSV,5,3,19,[2024/10/02, 13:17:59.203]32,23,328,26,,34,103,24,,43,148,25,,64,337,24*77
$GPGSV,5,4,19,,57[2024/10/02, 13:17:59.344],035,20,,52,010,21,,58,353,26,,76,170,24*7E
$GPGSV,5,5,19,,43,045,[2024/10/02, 13:17:59.485]16,,28,269,25,,40,214,32*42
$GPGLL,0114.0571,N,10339.0645,E,051757[2024/10/02, 13:17:59.625],A,A*4E
$GPBOD,,T,,M,,*47
$GPBWC,051757,,,,,,T,,M,,N,,A*7A
$GPV[2024/10/02, 13:17:59.766]TG,292.80,T,292.64,M,3.34,N,6.18,K,A*22
$PGRME,12.18,M,18.98,M,22.[2024/10/02, 13:17:59.906]55,M*2C
$PGRMZ,-29,f,3*0D
$PGRMM,WGS 84*06
$HCHDM,,M*07
$WIMWV[2024/10/02, 13:18:00.047],,R,,,A*6D
$GPAPB,V,V,,,N,V,V,,,,,,,,N*68
$GPZDA,051757,02,10,20[2024/10/02, 13:18:00.156]24,-08,00*6B
[2024/10/02, 13:18:00.234]$GPRMC,051759,A,0114.0577,N,10339.0630,E,3.23,292.1[2024/10/02, 13:18:00.500]2,021024,0.16,E,A*22
$GPRMB,A,,,,,,,,,,,,V,A*1C
$GPGGA,051759,01[2024/10/02, 13:18:00.641]14.0577,N,10339.0630,E,1,19,0.64,-7.88,M,9.62,M,,*6C
$GPGSA,A,3,10[2024/10/02, 13:18:00.781],12,18,23,25,28,29,31,32,,,,1.29,0.64,1.12*07
$GPGSV,5,1,19,10,31,[2024/10/02, 13:18:00.922]354,26,12,19,070,20,18,50,173,26,23,51,043,18*78
$GPGSV,5,2,19,25,[2024/10/02, 13:18:01.062]45,103,24,28,57,256,26,29,11,150,17,31,25,228,30*7E
$GPGSV,5,3,19,[2024/10/02, 13:18:01.203]32,23,328,23,,34,103,23,,43,148,20,,64,337,25*71
$GPGSV,5,4,19,,57[2024/10/02, 13:18:01.344],035,21,,52,010,21,,58,353,26,,76,170,22*79
$GPGSV,5,5,19,,43,045,1[2024/10/02, 13:18:01.484]6,,28,269,26,,40,214,32*41
$GPGLL,0114.0577,N,10339.0630,E,051759[2024/10/02, 13:18:01.625],A,A*44
$GPBOD,,T,,M,,*47
$GPBWC,051759,,,,,,T,,M,,N,,A*74
$GPVT[2024/10/02, 13:18:01.765]G,292.12,T,291.96,M,3.23,N,5.97,K,A*25
$PGRME,12.18,M,19.21,M,22.7[2024/10/02, 13:18:01.906]5,M*2D
$PGRMZ,-26,f,3*02
$PGRMM,WGS 84*06
$HCHDM,,M*07
$WIMWV[2024/10/02, 13:18:02.046],,R,,,A*6D
$GPAPB,V,V,,,N,V,V,,,,,,,,N*68
$GPZDA,051759,02,10,202[2024/10/02, 13:18:02.156]4,-08,00*65
[2024/10/02, 13:18:02.234]$GPRMC,051801,A,0114.0582,N,10339.0611,E,3.32,290.[2024/10/02, 13:18:02.499]17,021024,0.16,E,A*2E
$GPRMB,A,,,,,,,,,,,,V,A*1C
$GPGGA,051801,01[2024/10/02, 13:18:02.640]14.0582,N,10339.0611,E,1,19,0.64,-8.14,M,9.62,M,,*6D
$GPGSA,A,3,10[2024/10/02, 13:18:02.781],12,18,23,25,28,29,31,32,,,,1.29,0.64,1.12*07
$GPGSV,5,1,19,10,31,[2024/10/02, 13:18:02.921]354,23,12,19,070,18,18,50,173,27,23,51,043,19*76
$GPGSV,5,2,19,25,[2024/10/02, 13:18:03.062]45,103,21,28,57,257,27,29,11,150,21,31,25,228,30*7E
$GPGSV,5,3,19,[2024/10/02, 13:18:03.202]32,23,328,22,,34,103,22,,43,148,20,,64,337,24*70
$GPGSV,5,4,19,,57[2024/10/02, 13:18:03.343],035,22,,52,010,23,,58,353,26,,76,170,23*79
$GPGSV,5,5,19,,43,045,[2024/10/02, 13:18:03.484]16,,28,269,24,,40,214,32*43
$GPGLL,0114.0582,N,10339.0611,E,051801[2024/10/02, 13:18:03.624],A,A*4F
$GPBOD,,T,,M,,*47
$GPBWC,051801,,,,,,T,,M,,N,,A*76
$GPV[2024/10/02, 13:18:03.765]TG,290.17,T,290.01,M,3.32,N,6.15,K,A*24
$PGRME,12.19,M,19.24,M,22.[2024/10/02, 13:18:03.905]77,M*2B
$PGRMZ,-27,f,3*03
$PGRMM,WGS 84*06
$HCHDM,,M*07
$WIMWV[2024/10/02, 13:18:04.046],,R,,,A*6D
$GPAPB,V,V,,,N,V,V,,,,,,,,N*68
$GPZDA,051801,02,10,202[2024/10/02, 13:18:04.155]4,-08,00*67
[2024/10/02, 13:18:04.233]$GPRMC,051803,A,0114.0589,N,10339.0595,E,3.38,295.[2024/10/02, 13:18:04.499]04,021024,0.16,E,A*25
$GPRMB,A,,,,,,,,,,,,V,A*1C
$GPGGA,051803,01[2024/10/02, 13:18:04.640]14.0589,N,10339.0595,E,1,19,0.64,-7.80,M,9.62,M,,*69
$GPGSA,A,3,10[2024/10/02, 13:18:04.780],12,18,23,25,28,29,31,32,,,,1.29,0.64,1.12*07
$GPGSV,5,1,19,10,31,[2024/10/02, 13:18:04.921]354,22,12,19,070,18,18,50,173,26,23,51,043,19*76
$GPGSV,5,2,19,25,[2024/10/02, 13:18:05.062]45,103,22,28,57,257,27,29,11,149,22,31,25,228,30*76
$GPGSV,5,3,19,[2024/10/02, 13:18:05.202]32,23,328,25,,34,103,23,,43,148,22,,64,337,25*75
$GPGSV,5,4,19,,57[2024/10/02, 13:18:05.343],035,18,,52,010,23,,58,353,26,,76,170,23*70
$GPGSV,5,5,19,,43,045,[2024/10/02, 13:18:05.483]15,,28,269,27,,40,214,32*43
$GPGLL,0114.0589,N,10339.0595,E,051803[2024/10/02, 13:18:05.624],A,A*49
$GPBOD,,T,,M,,*47
$GPBWC,051803,,,,,,T,,M,,N,,A*74
$GPV[2024/10/02, 13:18:05.764]TG,295.04,T,294.88,M,3.38,N,6.26,K,A*2C
$PGRME,12.19,M,19.29,M,22.[2024/10/02, 13:18:05.905]82,M*2C
$PGRMZ,-26,f,3*02
$PGRMM,WGS 84*06
$HCHDM,,M*07
$WIMWV[2024/10/02, 13:18:06.046],,R,,,A*6D
$GPAPB,V,V,,,N,V,V,,,,,,,,N*68
$GPZDA,051803,02,10,202[2024/10/02, 13:18:06.155]4,-08,00*65
[2024/10/02, 13:18:06.233]$GPRMC,051805,A,0114.0593,N,10339.0574,E,3.64,280.[2024/10/02, 13:18:06.499]75,021024,0.16,E,A*2C
$GPRMB,A,,,,,,,,,,,,V,A*1C
$GPGGA,051805,01[2024/10/02, 13:18:06.639]14.0593,N,10339.0574,E,1,19,0.64,-8.14,M,9.62,M,,*69
$GPGSA,A,3,10[2024/10/02, 13:18:06.780],12,18,23,25,28,29,31,32,,,,1.29,0.64,1.12*07
$GPGSV,5,1,19,10,31,[2024/10/02, 13:18:06.920]354,25,12,19,070,17,18,50,173,24,23,51,043,19*7C
$GPGSV,5,2,19,25,[2024/10/02, 13:18:07.061]45,103,22,28,57,257,27,29,11,149,21,31,25,228,29*7D
$GPGSV,5,3,19,[2024/10/02, 13:18:07.202]32,23,329,24,,34,103,23,,43,148,21,,64,337,26*75
$GPGSV,5,4,19,,57[2024/10/02, 13:18:07.342],035,18,,52,010,19,,58,353,25,,76,170,22*7B
$GPGSV,5,5,19,,43,045,[2024/10/02, 13:18:07.483]15,,28,269,24,,40,214,32*40
$GPGLL,0114.0593,N,10339.0574,E,051805[2024/10/02, 13:18:07.623],A,A*4B
$GPBOD,,T,,M,,*47
$GPBWC,051805,,,,,,T,,M,,N,,A*72
$GPV[2024/10/02, 13:18:07.764]TG,280.75,T,280.58,M,3.64,N,6.74,K,A*28
$PGRME,12.20,M,19.33,M,22.[2024/10/02, 13:18:07.904]86,M*29
$PGRMZ,-27,f,3*03
$PGRMM,WGS 84*06
$HCHDM,,M*07
$WIMWV[2024/10/02, 13:18:08.045],,R,,,A*6D
$GPAPB,V,V,,,N,V,V,,,,,,,,N*68
$GPZDA,051805,02,10,20[2024/10/02, 13:18:08.154]24,-08,00*63
[2024/10/02, 13:18:08.232]$GPRMC,051807,A,0114.0601,N,10339.0558,E,3.72,292.[2024/10/02, 13:18:08.498]94,021024,0.16,E,A*23
$GPRMB,A,,,,,,,,,,,,V,A*1C
$GPGGA,051807,0[2024/10/02, 13:18:08.639]114.0601,N,10339.0558,E,1,19,0.64,-9.48,M,9.62,M,,*65
$GPGSA,A,3,1[2024/10/02, 13:18:08.779]0,12,18,23,25,28,29,31,32,,,,1.29,0.64,1.12*07
$GPGSV,5,1,19,10,31[2024/10/02, 13:18:08.920],354,24,12,19,070,17,18,50,173,23,23,51,043,18*7B
$GPGSV,5,2,19,25[2024/10/02, 13:18:09.060],45,103,18,28,57,257,26,29,11,149,19,31,25,228,25*72
$GPGSV,5,3,19,[2024/10/02, 13:18:09.201]32,23,329,22,,34,102,25,,43,148,24,,64,337,25*72
$GPGSV,5,4,19,,57[2024/10/02, 13:18:09.342],035,19,,52,010,22,,58,353,26,,76,170,25*76
$GPGSV,5,5,19,,43,045,[2024/10/02, 13:18:09.482]15,,28,269,24,,40,214,32*40
$GPGLL,0114.0601,N,10339.0558,E,05180[2024/10/02, 13:18:09.623]7,A,A*4F
$GPBOD,,T,,M,,*47
$GPBWC,051807,,,,,,T,,M,,N,,A*70
$GPV[2024/10/02, 13:18:09.763]TG,292.94,T,292.78,M,3.72,N,6.89,K,A*20
$PGRME,12.21,M,19.47,M,22.[2024/10/02, 13:18:09.904]98,M*24
$PGRMZ,-31,f,3*04
$PGRMM,WGS 84*06
$HCHDM,,M*07
$WIMWV[2024/10/02, 13:18:10.045],,R,,,A*6D
$GPAPB,V,V,,,N,V,V,,,,,,,,N*68
$GPZDA,051807,02,10,20[2024/10/02, 13:18:10.154]24,-08,00*61
[2024/10/02, 13:18:10.232]$GPRMC,051809,A,0114.0605,N,10339.0544,E,3.61,294[2024/10/02, 13:18:10.498].74,021024,0.16,E,A*2E
$GPRMB,A,,,,,,,,,,,,V,A*1C
$GPGGA,051809,[2024/10/02, 13:18:10.638]0114.0605,N,10339.0544,E,1,19,0.64,-10.32,M,9.62,M,,*57
$GPGSA,A,3[2024/10/02, 13:18:10.779],10,12,18,23,25,28,29,31,32,,,,1.29,0.64,1.12*07
$GPGSV,5,1,19,10,[2024/10/02, 13:18:10.919]31,354,24,12,19,070,20,18,50,173,26,23,51,043,18*7A
$GPGSV,5,2,19,[2024/10/02, 13:18:11.060]25,45,103,23,28,57,257,27,29,11,149,22,31,25,228,27*71
$GPGSV,5,3,[2024/10/02, 13:18:11.201]19,32,23,329,23,,34,102,23,,43,148,23,,64,337,24*73
$GPGSV,5,4,19,[2024/10/02, 13:18:11.341],57,035,18,,52,010,21,,58,353,25,,76,170,23*71
$GPGSV,5,5,19,,43,0[2024/10/02, 13:18:11.482]45,16,,28,269,26,,40,214,33*40
$GPGLL,0114.0605,N,10339.0544,E,051[2024/10/02, 13:18:11.622]809,A,A*48
$GPBOD,,T,,M,,*47
$GPBWC,051809,,,,,,T,,M,,N,,A*7E
$[2024/10/02, 13:18:11.763]GPVTG,294.74,T,294.58,M,3.61,N,6.68,K,A*21
$PGRME,12.22,M,19.59,M,[2024/10/02, 13:18:11.903]23.09,M*21
$PGRMZ,-34,f,3*01
$PGRMM,WGS 84*06
$HCHDM,,M*07
$WI[2024/10/02, 13:18:12.044]MWV,,R,,,A*6D
$GPAPB,V,V,,,N,V,V,,,,,,,,N*68
$GPZDA,051809,02,10,[2024/10/02, 13:18:12.169]2024,-08,00*6F
[2024/10/02, 13:18:12.247]$GPRMC,051811,A,0114.0608,N,10339.0529,E,3.44,293.49,0210[2024/10/02, 13:18:12.513]24,0.16,E,A*2F
$GPRMB,A,,,,,,,,,,,,V,A*1C
$GPGGA,051811,0114.060[2024/10/02, 13:18:12.653]8,N,10339.0529,E,1,19,0.64,-11.09,M,9.62,M,,*51
$GPGSA,A,3,10,12,1[2024/10/02, 13:18:12.794]8,23,25,28,29,31,32,,,,1.29,0.64,1.12*07
$GPGSV,5,1,19,10,31,354,2[2024/10/02, 13:18:12.934]2,12,19,070,20,18,50,173,23,23,51,043,15*74
$GPGSV,5,2,19,25,45,10[2024/10/02, 13:18:13.075]3,23,28,57,257,26,29,11,149,22,31,25,228,27*70
$GPGSV,5,3,19,32,23[2024/10/02, 13:18:13.216],329,25,,34,102,19,,43,148,23,,64,337,24*7C
$GPGSV,5,4,19,,57,035,[2024/10/02, 13:18:13.356]17,,52,010,20,,58,353,25,,76,170,22*7E
$GPGSV,5,5,19,,43,045,16,,2[2024/10/02, 13:18:13.497]8,269,23,,40,214,32*44
$GPGLL,0114.0608,N,10339.0529,E,051811,A,A*[2024/10/02, 13:18:13.637]47
$GPBOD,,T,,M,,*47
$GPBWC,051811,,,,,,T,,M,,N,,A*77
$GPVTG,293[2024/10/02, 13:18:13.778].49,T,293.32,M,3.44,N,6.38,K,A*21
$PGRME,12.24,M,19.70,M,23.19,M*[2024/10/02, 13:18:13.919]2D
$PGRMZ,-36,f,3*03
$PGRMM,WGS 84*06
$HCHDM,,M*07
$WIMWV,,R,,,[2024/10/02, 13:18:14.059]A*6D
$GPAPB,V,V,,,N,V,V,,,,,,,,N*68
$GPZDA,051811,02,10,2024,-08[2024/10/02, 13:18:14.153],00*66
[2024/10/02, 13:18:14.231]$GPRMC,051813,A,0114.0613,N,10339.0513,E,3.35,292[2024/10/02, 13:18:14.497].52,021024,0.16,E,A*23
$GPRMB,A,,,,,,,,,,,,V,A*1C
$GPGGA,051813,0[2024/10/02, 13:18:14.637]114.0613,N,10339.0513,E,1,19,0.64,-11.54,M,9.62,M,,*58
$GPGSA,A,3[2024/10/02, 13:18:14.778],10,12,18,23,25,28,29,31,32,,,,1.29,0.64,1.12*07
$GPGSV,5,1,19,10,[2024/10/02, 13:18:14.918]31,354,26,12,19,070,17,18,50,173,24,23,51,043,17*71
$GPGSV,5,2,19,[2024/10/02, 13:18:15.059]25,45,103,21,28,57,257,25,29,11,149,15,31,25,228,27*75
$GPGSV,5,3,[2024/10/02, 13:18:15.200]19,32,23,329,25,,34,102,23,,43,148,24,,64,337,24*72
$GPGSV,5,4,19,,[2024/10/02, 13:18:15.340]57,035,18,,52,010,19,,58,353,24,,76,170,22*7A
$GPGSV,5,5,19,,43,04[2024/10/02, 13:18:15.481]5,17,,28,269,26,,40,214,33*41
$GPGLL,0114.0613,N,10339.0513,E,051[2024/10/02, 13:18:15.621]813,A,A*46
$GPBOD,,T,,M,,*47
$GPBWC,051813,,,,,,T,,M,,N,,A*75
$G[2024/10/02, 13:18:15.762]PVTG,292.52,T,292.36,M,3.35,N,6.21,K,A*21
$PGRME,12.25,M,19.77,M,2[2024/10/02, 13:18:15.903]3.26,M*27
$PGRMZ,-38,f,3*0D
$PGRMM,WGS 84*06
$HCHDM,,M*07
$WIM[2024/10/02, 13:18:16.043]WV,,R,,,A*6D
$GPAPB,V,V,,,N,V,V,,,,,,,,N*68
$GPZDA,051813,02,10,[2024/10/02, 13:18:16.168]2024,-08,00*64
[2024/10/02, 13:18:16.246]$GPRMC,051815,A,0114.0617,N,10339.0495,E,3.44,279.60,021[2024/10/02, 13:18:16.512]024,0.16,E,A*2C
$GPRMB,A,,,,,,,,,,,,V,A*1C
$GPGGA,051815,0114.061[2024/10/02, 13:18:16.652]7,N,10339.0495,E,1,19,0.64,-11.56,M,9.62,M,,*57
$GPGSA,A,3,10,12,1[2024/10/02, 13:18:16.793]8,23,25,28,29,31,32,,,,1.29,0.64,1.12*07
$GPGSV,5,1,19,10,31,354,2[2024/10/02, 13:18:16.934]6,12,19,070,22,18,50,173,25,23,51,043,17*76
$GPGSV,5,2,19,25,45,10[2024/10/02, 13:18:17.074]3,21,28,57,257,26,29,11,149,15,31,25,228,28*79
$GPGSV,5,3,19,32,23[2024/10/02, 13:18:17.215],329,24,,34,102,21,,43,148,23,,64,337,23*71
$GPGSV,5,4,19,,57,035,[2024/10/02, 13:18:17.355]18,,52,010,21,,58,353,24,,76,170,23*70
$GPGSV,5,5,19,,43,045,19,,2[2024/10/02, 13:18:17.496]8,269,25,,40,214,33*4C
$GPGLL,0114.0617,N,10339.0495,E,051815,A,A*[2024/10/02, 13:18:17.637]4B
$GPBOD,,T,,M,,*47
$GPBWC,051815,,,,,,T,,M,,N,,A*73
$GPVTG,27[2024/10/02, 13:18:17.777]9.60,T,279.44,M,3.44,N,6.37,K,A*24
$PGRME,12.26,M,19.89,M,23.36,M*[2024/10/02, 13:18:17.918]24
$PGRMZ,-38,f,3*0D
$PGRMM,WGS 84*06
$HCHDM,,M*07
$WIMWV,,R,,[2024/10/02, 13:18:18.058],A*6D
$GPAPB,V,V,,,N,V,V,,,,,,,,N*68
$GPZDA,051815,02,10,2024,-08[2024/10/02, 13:18:18.168],00*62
[2024/10/02, 13:18:18.246]$GPRMC,051817,A,0114.0626,N,10339.0477,E,3.72,293.96,021[2024/10/02, 13:18:18.511]024,0.16,E,A*28
$GPRMB,A,,,,,,,,,,,,V,A*1C
$GPGGA,051817,0114.06[2024/10/02, 13:18:18.652]26,N,10339.0477,E,1,19,0.64,-11.04,M,9.62,M,,*5C
$GPGSA,A,3,10,12,[2024/10/02, 13:18:18.792]18,23,25,28,29,31,32,,,,1.29,0.64,1.12*07
$GPGSV,5,1,19,10,31,354,[2024/10/02, 13:18:18.933]23,12,19,070,18,18,50,173,26,23,51,043,17*79
$GPGSV,5,2,19,25,45,1[2024/10/02, 13:18:19.074]03,21,28,57,257,24,29,11,149,18,31,25,228,29*77
$GPGSV,5,3,19,32,2[2024/10/02, 13:18:19.214]3,329,21,,34,102,21,,43,148,21,,64,337,24*71
$GPGSV,5,4,19,,57,035[2024/10/02, 13:18:19.355],17,,52,010,21,,58,353,25,,76,170,21*7C
$GPGSV,5,5,19,,43,045,18,,[2024/10/02, 13:18:19.495]28,269,24,,40,214,32*4D
$GPGLL,0114.0626,N,10339.0477,E,051817,A,A[2024/10/02, 13:18:19.636]*47
$GPBOD,,T,,M,,*47
$GPBWC,051817,,,,,,T,,M,,N,,A*71
$GPVTG,2[2024/10/02, 13:18:19.777]93.96,T,293.80,M,3.72,N,6.90,K,A*2D
$PGRME,12.27,M,20.14,M,23.58,M[2024/10/02, 13:18:19.917]*23
$PGRMZ,-36,f,3*03
$PGRMM,WGS 84*06
$HCHDM,,M*07
$WIMWV,,R,[2024/10/02, 13:18:20.058],,A*6D
$GPAPB,V,V,,,N,V,V,,,,,,,,N*68
$GPZDA,051817,02,10,2024,-0[2024/10/02, 13:18:20.167]8,00*60
[2024/10/02, 13:18:20.245]$GPRMC,051819,A,0114.0634,N,10339.0459,E,3.83,293.14,021[2024/10/02, 13:18:20.511]024,0.16,E,A*2D
$GPRMB,A,,,,,,,,,,,,V,A*1C
$GPGGA,051819,0114.063[2024/10/02, 13:18:20.651]4,N,10339.0459,E,1,19,0.64,-10.55,M,9.62,M,,*58
$GPGSA,A,3,10,12,[2024/10/02, 13:18:20.792]18,23,25,28,29,31,32,,,,1.29,0.64,1.12*07
$GPGSV,5,1,19,10,31,354,[2024/10/02, 13:18:20.933]24,12,19,070,18,18,50,173,23,23,51,043,19*75
$GPGSV,5,2,19,25,45,1[2024/10/02, 13:18:21.073]03,23,28,57,257,26,29,11,149,18,31,25,228,30*7F
$GPGSV,5,3,19,32,2[2024/10/02, 13:18:21.214]3,329,22,,34,102,21,,43,148,22,,64,337,23*76
$GPGSV,5,4,19,,57,035[2024/10/02, 13:18:21.354],20,,52,010,22,,58,353,26,,76,170,21*78
$GPGSV,5,5,19,,43,045,16,,[2024/10/02, 13:18:21.495]28,269,26,,40,214,32*41
$GPGLL,0114.0634,N,10339.0459,E,051819,A,A[2024/10/02, 13:18:21.636]*46
$GPBOD,,T,,M,,*47
$GPBWC,051819,,,,,,T,,M,,N,,A*7F
$GPVTG,29[2024/10/02, 13:18:21.776]3.14,T,292.98,M,3.83,N,7.10,K,A*28
$PGRME,12.29,M,20.27,M,23.71,M[2024/10/02, 13:18:21.917]*26
$PGRMZ,-35,f,3*00
