[2024/10/02, 12:40:37.104]9,29,28,47,230,23,29,16,164,24,32,25,311,22*7E
$GPGSV,5,3,17,41,65[2024/10/02, 12:40:37.245],266,25,,31,110,24,,48,144,28,,73,336,20*79
$GPGSV,5,4,17,,04,151,[2024/10/02, 12:40:37.385]17,,66,358,20,,58,180,26,,26,287,14*79
$GPGSV,5,5,17,,48,234,27*43[2024/10/02, 12:40:37.526]
$GPGLL,0114.3049,N,10338.7707,E,044035,A,D*40
$GPBOD,,T,,M,,*47[2024/10/02, 12:40:37.667]
$GPBWC,044035,,,,,,T,,M,,N,,D*78
$GPVTG,173.07,T,172.91,M,1.63,N[2024/10/02, 12:40:37.807],3.02,K,D*2D
$PGRME,15.36,M,20.73,M,25.80,M*26
$PGRMZ,-20,f,3*04[2024/10/02, 12:40:37.948]
$PGRMM,WGS 84*06
$HCHDM,,M*07
$WIMWV,,R,,,A*6D
$GPAPB,V,V,,,N,[2024/10/02, 12:40:38.088]V,V,,,,,,,,N*68
$GPZDA,044035,02,10,2024,-08,00*6C
[2024/10/02, 12:40:38.276]$GPRMC,044037,A,0114.3044,N,103[2024/10/02, 12:40:38.495]38.7708,E,1.55,175.55,021024,0.16,E,D*2C
$GPRMB,A,,,,,,,,,,,,V,D*1[2024/10/02, 12:40:38.635]9
$GPGGA,044037,0114.3044,N,10338.7708,E,2,15,0.74,-6.18,M,9.58,M,[2024/10/02, 12:40:38.776],*62
$GPGSA,A,3,10,12,18,23,25,28,29,32,,,,,1.40,0.74,1.18*01
$GP[2024/10/02, 12:40:38.916]GSV,5,1,17,10,19,343,19,12,22,088,29,18,70,177,25,23,40,022,18*72
[2024/10/02, 12:40:39.057]$GPGSV,5,2,17,25,41,129,29,28,47,230,23,29,16,164,26,32,25,311,20*7[2024/10/02, 12:40:39.198]E
$GPGSV,5,3,17,41,65,266,26,,31,110,27,,48,144,28,,73,336,21*78
[2024/10/02, 12:40:39.338]$GPGSV,5,4,17,,04,151,15,,66,358,20,,58,180,27,,26,287,14*7A
$GPGS[2024/10/02, 12:40:39.479]V,5,5,17,,48,234,27*43
$GPGLL,0114.3044,N,10338.7708,E,044037,A,D*[2024/10/02, 12:40:39.619]40
$GPBOD,,T,,M,,*47
$GPBWC,044037,,,,,,T,,M,,N,,D*7A
$GPVTG,17[2024/10/02, 12:40:39.760]5.55,T,175.39,M,1.55,N,2.88,K,D*2F
$PGRME,15.37,M,19.97,M,25.20,M*[2024/10/02, 12:40:39.900]2D
$PGRMZ,-20,f,3*04
$PGRMM,WGS 84*06
$HCHDM,,M*07
$WIMWV,,R,,[2024/10/02, 12:40:40.041],A*6D
$GPAPB,V,V,,,N,V,V,,,,,,,,N*68
$GPZDA,044037,02,10,2024,-0[2024/10/02, 12:40:40.150]8,00*6E
[2024/10/02, 12:40:40.228]$GPRMC,044039,A,0114.3038,N,103[2024/10/02, 12:40:40.494]38.7707,E,1.43,186.24,021024,0.16,E,D*2B
$GPRMB,A,,,,,,,,,,,,V,D*1[2024/10/02, 12:40:40.635]9
$GPGGA,044039,0114.3038,N,10338.7707,E,2,15,0.74,-6.26,M,9.58,M,[2024/10/02, 12:40:40.775],*65
$GPGSA,A,3,10,12,18,23,25,28,29,32,,,,,1.40,0.74,1.19*00
$G[2024/10/02, 12:40:40.916]PGSV,5,1,17,10,19,343,18,12,22,088,30,18,69,177,25,23,40,022,21*79[2024/10/02, 12:40:41.057]
$GPGSV,5,2,17,25,41,129,29,28,47,230,22,29,16,164,25,32,25,311,21*[2024/10/02, 12:40:41.197]7D
$GPGSV,5,3,17,41,65,266,26,,31,110,26,,48,144,29,,73,336,22*7B[2024/10/02, 12:40:41.338]
$GPGSV,5,4,17,,04,151,15,,66,358,19,,58,180,26,,26,287,15*70
$GPG[2024/10/02, 12:40:41.478]SV,5,5,17,,48,234,27*43
$GPGLL,0114.3038,N,10338.7707,E,044039,A,D[2024/10/02, 12:40:41.619]*4A
$GPBOD,,T,,M,,*47
$GPBWC,044039,,,,,,T,,M,,N,,D*74
$GPVTG,18[2024/10/02, 12:40:41.759]6.24,T,186.08,M,1.43,N,2.64,K,D*2E
$PGRME,15.37,M,19.70,M,24.99,M[2024/10/02, 12:40:41.900]*27
$PGRMZ,-21,f,3*05
$PGRMM,WGS 84*06
$HCHDM,,M*07
$WIMWV,,R,,[2024/10/02, 12:40:42.041],A*6D
$GPAPB,V,V,,,N,V,V,,,,,,,,N*68
$GPZDA,044039,02,10,2024,-0[2024/10/02, 12:40:42.150]8,00*60
[2024/10/02, 12:40:42.228]$GPRMC,044041,A,0114.3036,N,103[2024/10/02, 12:40:42.494]38.7708,E,1.16,186.24,021024,0.16,E,D*25
$GPRMB,A,,,,,,,,,,,,V,D*1[2024/10/02, 12:40:42.634]9
$GPGGA,044041,0114.3036,N,10338.7708,E,2,15,0.74,-6.58,M,9.58,M,[2024/10/02, 12:40:42.775],*62
$GPGSA,A,3,10,12,18,23,25,28,29,32,,,,,1.40,0.74,1.18*01
$G[2024/10/02, 12:40:42.915]PGSV,5,1,17,10,19,343,20,12,22,088,27,18,69,177,24,23,40,022,19*7E
[2024/10/02, 12:40:43.056]$GPGSV,5,2,17,25,41,129,29,28,47,230,22,29,16,164,25,32,25,311,19*7[2024/10/02, 12:40:43.197]6
$GPGSV,5,3,17,41,65,266,26,,31,110,24,,48,144,28,,73,336,20*7A
[2024/10/02, 12:40:43.337]$GPGSV,5,4,17,,04,151,17,,66,358,20,,58,180,27,,26,287,17*7B
$GPGS[2024/10/02, 12:40:43.478]V,5,5,17,,48,234,28*4C
$GPGLL,0114.3036,N,10338.7708,E,044041,A,D*[2024/10/02, 12:40:43.618]44
$GPBOD,,T,,M,,*47
$GPBWC,044041,,,,,,T,,M,,N,,D*7B
$GPVTG,1[2024/10/02, 12:40:43.759]86.24,T,186.08,M,1.16,N,2.14,K,D*29
$PGRME,15.38,M,19.98,M,25.21,M[2024/10/02, 12:40:43.900]*2C
$PGRMZ,-22,f,3*06
$PGRMM,WGS 84*06
$HCHDM,,M*07
$WIMWV,,R,[2024/10/02, 12:40:44.040],,A*6D
$GPAPB,V,V,,,N,V,V,,,,,,,,N*68
$GPZDA,044041,02,10,2024,-0[2024/10/02, 12:40:44.149]8,00*6F
[2024/10/02, 12:40:44.228]$GPRMC,044043,A,0114.3035,N,103[2024/10/02, 12:40:44.493]38.7707,E,0.85,187.82,021024,0.16,E,D*2D
$GPRMB,A,,,,,,,,,,,,V,D*1[2024/10/02, 12:40:44.634]9
$GPGGA,044043,0114.3035,N,10338.7707,E,2,15,0.74,-6.94,M,9.58,M[2024/10/02, 12:40:44.774],,*6C
$GPGSA,A,3,10,12,18,23,25,28,29,32,,,,,1.40,0.74,1.19*00
$G[2024/10/02, 12:40:44.915]PGSV,5,1,17,10,19,343,19,12,22,088,29,18,69,177,29,23,40,022,19*77[2024/10/02, 12:40:45.056]
$GPGSV,5,2,17,25,41,129,30,28,47,230,24,29,16,164,25,32,25,311,18*[2024/10/02, 12:40:45.196]79
$GPGSV,5,3,17,41,65,266,26,,31,110,26,,48,144,28,,73,336,20*78[2024/10/02, 12:40:45.337]
$GPGSV,5,4,17,,04,151,18,,66,358,19,,58,180,25,,26,287,17*7C
$GPG[2024/10/02, 12:40:45.477]SV,5,5,17,,48,234,26*42
$GPGLL,0114.3035,N,10338.7707,E,044043,A,D[2024/10/02, 12:40:45.618]*4A
$GPBOD,,T,,M,,*47
$GPBWC,044043,,,,,,T,,M,,N,,D*79
$GPVTG,1[2024/10/02, 12:40:45.759]87.82,T,187.66,M,0.85,N,1.58,K,D*2D
$PGRME,15.39,M,20.57,M,25.69,M[2024/10/02, 12:40:45.899]*28
$PGRMZ,-23,f,3*07
$PGRMM,WGS 84*06
$HCHDM,,M*07
$WIMWV,,R,[2024/10/02, 12:40:46.040],,A*6D
$GPAPB,V,V,,,N,V,V,,,,,,,,N*68
$GPZDA,044043,02,10,2024,-[2024/10/02, 12:40:46.149]08,00*6D
[2024/10/02, 12:40:46.227]$GPRMC,044045,A,0114.3037,N,103[2024/10/02, 12:40:46.493]38.7705,E,0.62,203.29,021024,0.16,E,D*2C
$GPRMB,A,,,,,,,,,,,,V,D*[2024/10/02, 12:40:46.633]19
$GPGGA,044045,0114.3037,N,10338.7705,E,2,15,0.74,-7.69,M,9.58,M[2024/10/02, 12:40:46.774],,*69
$GPGSA,A,3,10,12,18,23,25,28,29,32,,,,,1.40,0.74,1.19*00
$G[2024/10/02, 12:40:46.914]PGSV,5,1,17,10,19,343,17,12,22,088,30,18,69,177,26,23,40,022,19*7E[2024/10/02, 12:40:47.055]
$GPGSV,5,2,17,25,41,128,30,28,47,230,22,29,16,164,25,32,25,311,21*[2024/10/02, 12:40:47.196]74
$GPGSV,5,3,17,41,65,266,25,,31,110,27,,48,144,29,,73,336,20*7B[2024/10/02, 12:40:47.336]
$GPGSV,5,4,17,,04,151,19,,66,358,19,,58,180,27,,26,287,17*7F
$GPG[2024/10/02, 12:40:47.477]SV,5,5,17,,48,234,26*42
$GPGLL,0114.3037,N,10338.7705,E,044045,A,D[2024/10/02, 12:40:47.617]*4C
$GPBOD,,T,,M,,*47
$GPBWC,044045,,,,,,T,,M,,N,,D*7F
$GPVTG,2[2024/10/02, 12:40:47.758]03.29,T,203.13,M,0.62,N,1.15,K,D*2E
$PGRME,15.40,M,20.91,M,25.97,M[2024/10/02, 12:40:47.899]*2D
$PGRMZ,-25,f,3*01
$PGRMM,WGS 84*06
$HCHDM,,M*07
$WIMWV,,R,[2024/10/02, 12:40:48.039],,A*6D
$GPAPB,V,V,,,N,V,V,,,,,,,,N*68
$GPZDA,044045,02,10,2024,-0[2024/10/02, 12:40:48.148]8,00*6B
[2024/10/02, 12:40:48.289]$GPRMC,044047,A,0114.3041,N,10338.7702,E,0.43,224.87,021024,[2024/10/02, 12:40:48.555]0.16,E,D*2A
$GPRMB,A,,,,,,,,,,,,V,D*19
$GPGGA,044047,0114.3041,N,[2024/10/02, 12:40:48.695]10338.7702,E,2,15,0.74,-8.24,M,9.58,M,,*6B
$GPGSA,A,3,10,12,18,23,[2024/10/02, 12:40:48.836]25,28,29,32,,,,,1.40,0.74,1.19*00
$GPGSV,5,1,17,10,19,343,19,12,22[2024/10/02, 12:40:48.976],088,30,18,69,177,26,23,40,022,18*71
$GPGSV,5,2,17,25,41,128,30,28[2024/10/02, 12:40:49.117],47,230,20,29,16,164,21,32,25,311,19*79
$GPGSV,5,3,17,41,65,266,25[2024/10/02, 12:40:49.258],,31,110,28,,48,144,29,,73,336,21*75
$GPGSV,5,4,17,,04,151,19,,66,[2024/10/02, 12:40:49.398]358,19,,58,180,28,,26,287,19*7E
$GPGSV,5,5,17,,48,234,24*40
$GPGL[2024/10/02, 12:40:49.539]L,0114.3041,N,10338.7702,E,044047,A,D*48
$GPBOD,,T,,M,,*47
$GPBW[2024/10/02, 12:40:49.679]C,044047,,,,,,T,,M,,N,,D*7D
$GPVTG,224.87,T,224.71,M,0.43,N,0.79,K[2024/10/02, 12:40:49.820],D*26
$PGRME,15.41,M,21.55,M,26.49,M*25
$PGRMZ,-27,f,3*03
$PGRMM[2024/10/02, 12:40:49.961],WGS 84*06
$HCHDM,,M*07
$WIMWV,,R,,,A*6D
$GPAPB,V,V,,,N,V,V,,,,[2024/10/02, 12:40:50.086],,,,N*68
$GPZDA,044047,02,10,2024,-08,00*69
[2024/10/02, 12:40:50.289]$GPRMC,044049,A,0114.3045,N,10338.7701,E,0.35,239.69,021024,[2024/10/02, 12:40:50.554]0.16,E,D*2E
$GPRMB,A,,,,,,,,,,,,V,D*19
$GPGGA,044049,0114.3045,N[2024/10/02, 12:40:50.695],10338.7701,E,2,15,0.74,-8.70,M,9.58,M,,*63
$GPGSA,A,3,10,12,18,23[2024/10/02, 12:40:50.836],25,28,29,32,,,,,1.40,0.74,1.19*00
$GPGSV,5,1,17,10,19,343,16,12,[2024/10/02, 12:40:50.976]22,088,30,18,69,177,26,23,40,022,22*77
$GPGSV,5,2,17,25,41,128,30,[2024/10/02, 12:40:51.117]28,47,230,21,29,16,163,22,32,25,311,20*76
$GPGSV,5,3,17,41,65,266,2[2024/10/02, 12:40:51.257]5,,31,110,26,,48,144,28,,73,336,20*7B
$GPGSV,5,4,17,,04,151,18,,66[2024/10/02, 12:40:51.398],358,19,,58,180,28,,26,287,19*7F
$GPGSV,5,5,17,,48,234,24*40
$GP[2024/10/02, 12:40:51.538]GLL,0114.3045,N,10338.7701,E,044049,A,D*41
$GPBOD,,T,,M,,*47
$GPB[2024/10/02, 12:40:51.679]WC,044049,,,,,,T,,M,,N,,D*73
$GPVTG,239.69,T,239.53,M,0.35,N,0.64,[2024/10/02, 12:40:51.819]K,D*2B
$PGRME,15.43,M,20.59,M,25.73,M*20
$PGRMZ,-29,f,3*0D
$PGR[2024/10/02, 12:40:51.960]MM,WGS 84*06
$HCHDM,,M*07
$WIMWV,,R,,,A*6D
$GPAPB,V,V,,,N,V,V,,[2024/10/02, 12:40:52.085],,,,,,N*68
$GPZDA,044049,02,10,2024,-08,00*67
[2024/10/02, 12:40:52.288]$GPRMC,044051,A,0114.3047,N,10338.7701,E,0.00,250.43,021024,[2024/10/02, 12:40:52.554]0.16,E,D*24
$GPRMB,A,,,,,,,,,,,,V,D*19
$GPGGA,044051,0114.3047,N[2024/10/02, 12:40:52.694],10338.7701,E,2,15,0.74,-9.36,M,9.58,M,,*6B
$GPGSA,A,3,10,12,18,2[2024/10/02, 12:40:52.835]3,25,28,29,32,,,,,1.40,0.74,1.19*00
$GPGSV,5,1,17,10,19,343,16,12,[2024/10/02, 12:40:52.976]22,088,31,18,69,177,27,23,40,022,20*75
$GPGSV,5,2,17,25,41,128,30,[2024/10/02, 12:40:53.116]28,47,230,19,29,16,163,24,32,25,311,17*7F
$GPGSV,5,3,17,41,65,266,[2024/10/02, 12:40:53.257]25,,31,110,26,,48,144,28,,73,336,20*7B
$GPGSV,5,4,17,,04,151,17,,6[2024/10/02, 12:40:53.397]6,358,20,,58,180,28,,26,287,16*75
$GPGSV,5,5,17,,48,234,24*40
$GP[2024/10/02, 12:40:53.538]GLL,0114.3047,N,10338.7701,E,044051,A,D*4A
$GPBOD,,T,,M,,*47
$GPB[2024/10/02, 12:40:53.678]WC,044051,,,,,,T,,M,,N,,D*7A
$GPVTG,250.43,T,250.27,M,0.00,N,0.00[2024/10/02, 12:40:53.819],K,D*24
$PGRME,15.45,M,20.55,M,25.71,M*28
$PGRMZ,-31,f,3*04
$PG[2024/10/02, 12:40:53.960]RMM,WGS 84*06
$HCHDM,,M*07
$WIMWV,,R,,,A*6D
$GPAPB,V,V,,,N,V,V,,[2024/10/02, 12:40:54.085],,,,,,N*68
$GPZDA,044051,02,10,2024,-08,00*6E
[2024/10/02, 12:40:54.288]$GPRMC,044053,A,0114.3050,N,10338.7702,E,0.27,246.67,021024[2024/10/02, 12:40:54.553],0.16,E,D*27
$GPRMB,A,,,,,,,,,,,,V,D*19
$GPGGA,044053,0114.3050,N[2024/10/02, 12:40:54.694],10338.7702,E,2,15,0.74,-9.93,M,9.58,M,,*63
$GPGSA,A,3,10,12,18,23[2024/10/02, 12:40:54.834],25,28,29,32,,,,,1.40,0.74,1.19*00
$GPGSV,5,1,17,10,19,343,17,12,[2024/10/02, 12:40:54.975]22,088,30,18,69,177,28,23,40,022,15*7C
$GPGSV,5,2,17,25,41,128,30,2[2024/10/02, 12:40:55.116]8,47,230,21,29,16,163,23,32,25,311,17*73
$GPGSV,5,3,17,41,65,266,2[2024/10/02, 12:40:55.256]5,,31,110,27,,48,144,28,,73,336,19*70
$GPGSV,5,4,17,,04,151,17,,66[2024/10/02, 12:40:55.397],358,19,,58,180,28,,26,287,19*70
$GPGSV,5,5,17,,48,234,20*44
$GP[2024/10/02, 12:40:55.537]GLL,0114.3050,N,10338.7702,E,044053,A,D*4D
$GPBOD,,T,,M,,*47
$GPB[2024/10/02, 12:40:55.678]WC,044053,,,,,,T,,M,,N,,D*78
$GPVTG,246.67,T,246.51,M,0.27,N,0.50,[2024/10/02, 12:40:55.819]K,D*23
$PGRME,15.48,M,20.90,M,26.01,M*28
$PGRMZ,-33,f,3*06
$PGR[2024/10/02, 12:40:55.959]MM,WGS 84*06
$HCHDM,,M*07
$WIMWV,,R,,,A*6D
$GPAPB,V,V,,,N,V,V,,[2024/10/02, 12:40:56.084],,,,,,N*68
$GPZDA,044053,02,10,2024,-08,00*6C
[2024/10/02, 12:40:56.287]$GPRMC,044055,A,0114.3050,N,10338.7702,E,0.27,241.96,021024[2024/10/02, 12:40:56.553],0.16,E,D*28
$GPRMB,A,,,,,,,,,,,,V,D*19
$GPGGA,044055,0114.3050,[2024/10/02, 12:40:56.693]N,10338.7702,E,2,15,0.74,-10.39,M,9.58,M,,*5D
$GPGSA,A,3,10,12,18,[2024/10/02, 12:40:56.834]23,25,28,29,32,,,,,1.40,0.74,1.19*00
$GPGSV,5,1,17,10,19,343,19,12[2024/10/02, 12:40:56.975],22,088,31,18,69,177,28,23,40,022,15*73
$GPGSV,5,2,17,25,41,128,29[2024/10/02, 12:40:57.115],28,47,230,19,29,16,163,24,32,25,311,17*77
$GPGSV,5,3,17,41,65,266[2024/10/02, 12:40:57.256],24,,31,110,27,,48,144,28,,73,336,19*71
$GPGSV,5,4,17,,04,151,16,,[2024/10/02, 12:40:57.396]66,358,21,,58,180,28,,26,287,16*75
$GPGSV,5,5,17,,48,234,24*40
$G[2024/10/02, 12:40:57.537]PGLL,0114.3050,N,10338.7702,E,044055,A,D*4B
$GPBOD,,T,,M,,*47
$GP[2024/10/02, 12:40:57.677]BWC,044055,,,,,,T,,M,,N,,D*7E
$GPVTG,241.96,T,241.80,M,0.27,N,0.5[2024/10/02, 12:40:57.818]0,K,D*21
$PGRME,15.52,M,21.29,M,26.35,M*27
$PGRMZ,-34,f,3*01
$PG[2024/10/02, 12:40:57.959]RMM,WGS 84*06
$HCHDM,,M*07
$WIMWV,,R,,,A*6D
$GPAPB,V,V,,,N,V,V,[2024/10/02, 12:40:58.084],,,,,,,N*68
$GPZDA,044055,02,10,2024,-08,00*6A
[2024/10/02, 12:40:58.287]$GPRMC,044057,A,0114.3049,N,10338.7703,E,0.30,245.58,021024[2024/10/02, 12:40:58.552],0.16,E,D*23
$GPRMB,A,,,,,,,,,,,,V,D*19
$GPGGA,044057,0114.3049,[2024/10/02, 12:40:58.693]N,10338.7703,E,2,15,0.74,-10.83,M,9.58,M,,*57
$GPGSA,A,3,10,12,18,[2024/10/02, 12:40:58.834]23,25,28,29,32,,,,,1.40,0.74,1.19*00
$GPGSV,5,1,17,10,19,343,17,12[2024/10/02, 12:40:58.974],22,088,31,18,69,177,28,23,40,022,15*7D
$GPGSV,5,2,17,25,41,128,29[2024/10/02, 12:40:59.115],28,47,230,22,29,16,163,25,32,25,311,18*71
$GPGSV,5,3,17,41,65,266[2024/10/02, 12:40:59.255],23,,31,110,27,,48,144,28,,73,336,19*76
$GPGSV,5,4,17,,04,151,16,,[2024/10/02, 12:40:59.396]66,358,19,,58,180,28,,26,287,16*7E
$GPGSV,5,5,17,,48,234,21*45
$G[2024/10/02, 12:40:59.536]PGLL,0114.3049,N,10338.7703,E,044057,A,D*40
$GPBOD,,T,,M,,*47
$G[2024/10/02, 12:40:59.677]PBWC,044057,,,,,,T,,M,,N,,D*7C
$GPVTG,245.58,T,245.42,M,0.30,N,0.5[2024/10/02, 12:40:59.818]6,K,D*2D
$PGRME,15.57,M,21.76,M,26.75,M*2C
$PGRMZ,-36,f,3*03
$PG[2024/10/02, 12:40:59.958]RMM,WGS 84*06
$HCHDM,,M*07
$WIMWV,,R,,,A*6D
$GPAPB,V,V,,,N,V,V,[2024/10/02, 12:41:00.083],,,,,,,N*68
$GPZDA,044057,02,10,2024,-08,00*68
[2024/10/02, 12:41:00.286]$GPRMC,044059,A,0114.3045,N,10338.7703,E,0.87,162.11,021024[2024/10/02, 12:41:00.552],0.16,E,D*26
$GPRMB,A,,,,,,,,,,,,V,D*19
$GPGGA,044059,0114.3045,[2024/10/02, 12:41:00.692]N,10338.7703,E,2,15,0.74,-11.22,M,9.58,M,,*5F
$GPGSA,A,3,10,12,18,[2024/10/02, 12:41:00.833]23,25,28,29,32,,,,,1.40,0.74,1.19*00
$GPGSV,5,1,17,10,19,343,17,1[2024/10/02, 12:41:00.974]2,22,088,30,18,69,177,28,23,40,022,18*71
$GPGSV,5,2,17,25,41,128,29[2024/10/02, 12:41:01.114],28,47,230,22,29,16,163,25,32,25,311,20*7A
$GPGSV,5,3,17,41,65,266[2024/10/02, 12:41:01.255],00,,31,110,28,,48,144,29,,73,336,20*73
$GPGSV,5,4,17,,04,151,16,,[2024/10/02, 12:41:01.395]66,358,21,,58,180,28,,26,287,16*75
$GPGSV,5,5,17,,48,234,20*44
$[2024/10/02, 12:41:01.536]GPGLL,0114.3045,N,10338.7703,E,044059,A,D*42
$GPBOD,,T,,M,,*47
$G[2024/10/02, 12:41:01.677]PBWC,044059,,,,,,T,,M,,N,,D*72
$GPVTG,162.11,T,161.95,M,0.87,N,1.[2024/10/02, 12:41:01.817]61,K,D*20
$PGRME,15.63,M,22.13,M,27.10,M*29
$PGRMZ,-37,f,3*02
$P[2024/10/02, 12:41:01.958]GRMM,WGS 84*06
$HCHDM,,M*07
$WIMWV,,R,,,A*6D
$GPAPB,V,V,,,N,V,V[2024/10/02, 12:41:02.083],,,,,,,,N*68
$GPZDA,044059,02,10,2024,-08,00*66
[2024/10/02, 12:41:02.286]$GPRMC,044101,A,0114.3045,N,10338.7701,E,0.79,221.32,021024[2024/10/02, 12:41:02.551],0.16,E,D*2C
$GPRMB,A,,,,,,,,,,,,V,D*19
$GPGGA,044101,0114.3045,[2024/10/02, 12:41:02.692]N,10338.7701,E,2,15,0.74,-11.90,M,9.58,M,,*58
$GPGSA,A,3,10,12,18,[2024/10/02, 12:41:02.832]23,25,28,29,32,,,,,1.40,0.74,1.19*00
$GPGSV,5,1,17,10,19,343,17,12[2024/10/02, 12:41:02.973],22,088,30,18,69,177,28,23,40,022,18*71
$GPGSV,5,2,17,25,41,128,29[2024/10/02, 12:41:03.120],28,47,230,20,29,16,163,26,32,25,311,17*7F
$GPGSV,5,3,17,41,65,266,00[2024/10/02, 12:41:03.261],,31,110,25,,48,144,29,,73,336,20*7E
$GPGSV,5,4,17,,04,151,15,,66,[2024/10/02, 12:41:03.401]358,22,,58,180,28,,26,287,16*75
$GPGSV,5,5,17,,48,234,21*45
$GPGL[2024/10/02, 12:41:03.542]L,0114.3045,N,10338.7701,E,044101,A,D*4C
$GPBOD,,T,,M,,*47
$GPBW[2024/10/02, 12:41:03.682]C,044101,,,,,,T,,M,,N,,D*7E
$GPVTG,221.32,T,221.16,M,0.79,N,1.46,K[2024/10/02, 12:41:03.823],D*2D
$PGRME,15.69,M,22.48,M,27.41,M*29
$PGRMZ,-39,f,3*0C
$PGRM[2024/10/02, 12:41:03.963]M,WGS 84*06
$HCHDM,,M*07
$WIMWV,,R,,,A*6D
$GPAPB,V,V,,,N,V,V,,,,[2024/10/02, 12:41:04.088],,,,N*68
$GPZDA,044101,02,10,2024,-08,00*6A
[2024/10/02, 12:41:04.276]$GPRMC,044103,A,0114.3044,N,10338.7708,E,1.45,121.87,0[2024/10/02, 12:41:04.542]21024,0.16,E,D*25
$GPRMB,A,,,,,,,,,,,,V,D*19
$GPGGA,044103,0114.3[2024/10/02, 12:41:04.682]044,N,10338.7708,E,2,15,0.74,-11.52,M,9.58,M,,*5C
$GPGSA,A,3,10,1[2024/10/02, 12:41:04.823]2,18,23,25,28,29,32,,,,,1.40,0.74,1.19*00
$GPGSV,5,1,17,10,19,343,[2024/10/02, 12:41:04.963]17,12,22,088,30,18,69,177,28,23,40,022,19*70
$GPGSV,5,2,17,25,41,1[2024/10/02, 12:41:05.104]28,28,28,47,230,21,29,16,163,22,32,25,311,17*7B
$GPGSV,5,3,17,41,6[2024/10/02, 12:41:05.245]5,266,00,,31,110,27,,48,144,28,,73,336,20*7D
$GPGSV,5,4,17,,04,151[2024/10/02, 12:41:05.385],16,,66,358,19,,58,180,28,,26,287,16*7E
$GPGSV,5,5,17,,48,234,24*4[2024/10/02, 12:41:05.526]0
$GPGLL,0114.3044,N,10338.7708,E,044103,A,D*46
$GPBOD,,T,,M,,*47[2024/10/02, 12:41:05.666]
$GPBWC,044103,,,,,,T,,M,,N,,D*7C
$GPVTG,121.87,T,121.71,M,1.45,N[2024/10/02, 12:41:05.807],2.68,K,D*23
$PGRME,15.75,M,22.80,M,27.71,M*23
$PGRMZ,-38,f,3*0D[2024/10/02, 12:41:05.947]
$PGRMM,WGS 84*06
$HCHDM,,M*07
$WIMWV,,R,,,A*6D
$GPAPB,V,V,,,N[2024/10/02, 12:41:06.088],V,V,,,,,,,,N*68
$GPZDA,044103,02,10,2024,-08,00*68
[2024/10/02, 12:41:06.275]$GPRMC,044105,A,0114.3042,N,103[2024/10/02, 12:41:06.494]38.7709,E,1.29,121.87,021024,0.16,E,D*2E
$GPRMB,A,,,,,,,,,,,,V,D*1[2024/10/02, 12:41:06.635]9
$GPGGA,044105,0114.3042,N,10338.7709,E,2,15,0.74,-11.52,M,9.58,M[2024/10/02, 12:41:06.775],,*5D
$GPGSA,A,3,10,12,18,23,25,28,29,32,,,,,1.40,0.74,1.19*00
$[2024/10/02, 12:41:06.916]GPGSV,4,1,16,10,19,343,19,12,22,088,31,18,69,177,28,23,40,022,19*7F[2024/10/02, 12:41:07.057]
$GPGSV,4,2,16,25,41,128,29,28,47,230,19,29,16,163,24,32,25,311,20[2024/10/02, 12:41:07.197]*73
$GPGSV,4,3,16,,31,110,28,,48,144,29,,73,336,20,,04,151,15*72
[2024/10/02, 12:41:07.338]$GPGSV,4,4,16,,66,358,22,,58,180,28,,26,287,17,,48,234,21*7B
$GPGL[2024/10/02, 12:41:07.478]L,0114.3042,N,10338.7709,E,044105,A,D*47
$GPBOD,,T,,M,,*47
$GPBWC[2024/10/02, 12:41:07.619],044105,,,,,,T,,M,,N,,D*7A
$GPVTG,121.87,T,121.71,M,1.29,N,2.38,K[2024/10/02, 12:41:07.760],D*2C
$PGRME,15.80,M,22.97,M,27.88,M*29
$PGRMZ,-38,f,3*0D
$PGRMM[2024/10/02, 12:41:07.900],WGS 84*06
$HCHDM,,M*07
$WIMWV,,R,,,A*6D
$GPAPB,V,V,,,N,V,V,,,,[2024/10/02, 12:41:08.025],,,,N*68
$GPZDA,044105,02,10,2024,-08,00*6E
[2024/10/02, 12:41:08.275]$GPRMC,044107,A,0114.3050,N,103[2024/10/02, 12:41:08.494]38.7702,E,1.63,332.13,021024,0.16,E,D*27
$GPRMB,A,,,,,,,,,,,,V,D*1[2024/10/02, 12:41:08.634]9
$GPGGA,044107,0114.3050,N,10338.7702,E,2,15,0.74,-12.27,M,9.58,M[2024/10/02, 12:41:08.775],,*56
$GPGSA,A,3,10,12,18,23,25,28,29,32,,,,,1.40,0.74,1.19*00
$[2024/10/02, 12:41:08.916]GPGSV,4,1,16,10,19,343,19,12,22,088,31,18,69,177,26,23,40,022,20*7B[2024/10/02, 12:41:09.056]
$GPGSV,4,2,16,25,41,128,29,28,47,230,23,29,16,163,24,32,25,311,19[2024/10/02, 12:41:09.197]*70
$GPGSV,4,3,16,,31,110,29,,48,144,28,,73,336,20,,03,151,19*79
[2024/10/02, 12:41:09.337]$GPGSV,4,4,16,,66,358,19,,58,180,28,,26,287,17,,48,234,22*70
$GPGL[2024/10/02, 12:41:09.478]L,0114.3050,N,10338.7702,E,044107,A,D*4D
$GPBOD,,T,,M,,*47
$GPBWC[2024/10/02, 12:41:09.618],044107,,,,,,T,,M,,N,,D*78
$GPVTG,332.13,T,331.97,M,1.63,N,3.02,K,[2024/10/02, 12:41:09.759]D*2C
$PGRME,15.86,M,23.22,M,28.12,M*2C
$PGRMZ,-40,f,3*02
$PGRMM[2024/10/02, 12:41:09.900],WGS 84*06
$HCHDM,,M*07
$WIMWV,,R,,,A*6D
$GPAPB,V,V,,,N,V,V,,,,,[2024/10/02, 12:41:10.025],,,N*68
$GPZDA,044107,02,10,2024,-08,00*6C
[2024/10/02, 12:41:10.275]$GPRMC,044109,A,0114.3056,N,103[2024/10/02, 12:41:10.493]38.7698,E,1.65,328.68,021024,0.16,E,D*2C
$GPRMB,A,,,,,,,,,,,,V,D*1[2024/10/02, 12:41:10.634]9
$GPGGA,044109,0114.3056,N,10338.7698,E,2,15,0.74,-13.10,M,9.58,M[2024/10/02, 12:41:10.774],,*59
$GPGSA,A,3,10,12,18,23,25,28,29,32,,,,,1.40,0.74,1.19*00
$[2024/10/02, 12:41:10.915]GPGSV,4,1,16,10,19,343,17,12,22,088,31,18,69,177,28,23,40,022,23*78[2024/10/02, 12:41:11.056]
$GPGSV,4,2,16,25,41,128,28,28,47,230,23,29,16,163,25,32,25,311,17[2024/10/02, 12:41:11.196]*7E
$GPGSV,4,3,16,,31,110,29,,48,144,29,,73,336,19,,03,151,20*78
[2024/10/02, 12:41:11.337]$GPGSV,4,4,16,,66,358,20,,58,180,28,,26,287,17,,48,234,21*79
$GPGL[2024/10/02, 12:41:11.477]L,0114.3056,N,10338.7698,E,044109,A,D*47
$GPBOD,,T,,M,,*47
$GPBWC[2024/10/02, 12:41:11.618],044109,,,,,,T,,M,,N,,D*76
$GPVTG,328.68,T,328.52,M,1.65,N,3.06,K,[2024/10/02, 12:41:11.759]D*28
$PGRME,15.91,M,23.75,M,28.59,M*27
$PGRMZ,-43,f,3*01
$PGRMM[2024/10/02, 12:41:11.899],WGS 84*06
$HCHDM,,M*07
$WIMWV,,R,,,A*6D
$GPAPB,V,V,,,N,V,V,,,,[2024/10/02, 12:41:12.024],,,,N*68
$GPZDA,044109,02,10,2024,-08,00*62
[2024/10/02, 12:41:12.274]$GPRMC,044111,A,0114.3055,N,103[2024/10/02, 12:41:12.493]38.7693,E,1.54,303.26,021024,0.16,E,D*2C
$GPRMB,A,,,,,,,,,,,,V,D*1[2024/10/02, 12:41:12.633]9
$GPGGA,044111,0114.3055,N,10338.7693,E,2,15,0.74,-13.14,M,9.58,[2024/10/02, 12:41:12.774]M,,*5C
$GPGSA,A,3,10,12,18,23,25,28,29,32,,,,,1.40,0.74,1.19*00
$[2024/10/02, 12:41:12.915]GPGSV,4,1,16,10,19,343,17,12,22,088,30,18,69,177,28,23,40,022,23*79[2024/10/02, 12:41:13.055]
$GPGSV,4,2,16,25,41,128,28,28,47,230,21,29,16,163,24,32,25,311,18[2024/10/02, 12:41:13.196]*72
$GPGSV,4,3,16,,31,110,28,,48,144,29,,73,336,21,,03,151,20*72
[2024/10/02, 12:41:13.336]$GPGSV,4,4,16,,66,358,22,,58,180,28,,26,287,17,,48,234,20*7A
$GPGL[2024/10/02, 12:41:13.477]L,0114.3055,N,10338.7693,E,044111,A,D*46
$GPBOD,,T,,M,,*47
$GPBWC[2024/10/02, 12:41:13.618],044111,,,,,,T,,M,,N,,D*7F
$GPVTG,303.26,T,303.10,M,1.54,N,2.86,K[2024/10/02, 12:41:13.758],D*2F
$PGRME,15.96,M,24.00,M,28.82,M*23
$PGRMZ,-43,f,3*01
$PGRMM[2024/10/02, 12:41:13.899],WGS 84*06
$HCHDM,,M*07
$WIMWV,,R,,,A*6D
$GPAPB,V,V,,,N,V,V,,,,[2024/10/02, 12:41:14.024],,,,N*68
$GPZDA,044111,02,10,2024,-08,00*6B
[2024/10/02, 12:41:14.274]$GPRMC,044113,A,0114.3054,N,103[2024/10/02, 12:41:14.492]38.7694,E,0.84,306.22,021024,0.16,E,D*25
$GPRMB,A,,,,,,,,,,,,V,D*[2024/10/02, 12:41:14.633]19
$GPGGA,044113,0114.3054,N,10338.7694,E,2,15,0.74,-13.16,M,9.58,[2024/10/02, 12:41:14.774]M,,*5A
$GPGSA,A,3,10,12,18,23,25,28,29,32,,,,,1.40,0.74,1.19*00
$[2024/10/02, 12:41:14.914]GPGSV,4,1,16,10,19,343,18,12,22,088,30,18,69,177,28,23,40,022,22*77[2024/10/02, 12:41:15.055]
$GPGSV,4,2,16,25,41,128,29,28,47,230,21,29,16,163,24,32,25,311,18[2024/10/02, 12:41:15.195]*73
$GPGSV,4,3,16,,31,110,29,,48,144,28,,73,336,19,,03,151,18*72
[2024/10/02, 12:41:15.336]$GPGSV,4,4,16,,66,358,20,,58,180,28,,26,287,17,,48,234,23*7B
$GPGL[2024/10/02, 12:41:15.476]L,0114.3054,N,10338.7694,E,044113,A,D*42
$GPBOD,,T,,M,,*47
$GPBW[2024/10/02, 12:41:15.617]C,044113,,,,,,T,,M,,N,,D*7D
$GPVTG,306.22,T,306.06,M,0.84,N,1.56,K[2024/10/02, 12:41:15.758],D*2E
$PGRME,16.02,M,24.19,M,29.01,M*2F
$PGRMZ,-43,f,3*01
$PGRM[2024/10/02, 12:41:15.898]M,WGS 84*06
$HCHDM,,M*07
$WIMWV,,R,,,A*6D
$GPAPB,V,V,,,N,V,V,,,,[2024/10/02, 12:41:16.023],,,,N*68
$GPZDA,044113,02,10,2024,-08,00*69
[2024/10/02, 12:41:16.289]$GPRMC,044115,A,0114.3054,N,10338.7693,E,0.71,301.33,021024,[2024/10/02, 12:41:16.554]0.16,E,D*29
$GPRMB,A,,,,,,,,,,,,V,D*19
$GPGGA,044115,0114.3054,N,[2024/10/02, 12:41:16.695]10338.7693,E,2,15,0.74,-13.17,M,9.58,M,,*5A
$GPGSA,A,3,10,12,18,2[2024/10/02, 12:41:16.836]3,25,28,29,32,,,,,1.40,0.74,1.19*00
$GPGSV,4,1,16,10,19,343,15,12,[2024/10/02, 12:41:16.976]22,088,30,18,69,177,28,23,40,022,21*79
$GPGSV,4,2,16,25,41,128,24,[2024/10/02, 12:41:17.117]28,47,230,20,29,16,163,24,32,25,311,17*70
$GPGSV,4,3,16,,31,110,30[2024/10/02, 12:41:17.257],,48,144,28,,73,336,20,,03,151,17*7F
$GPGSV,4,4,16,,66,358,21,,58,[2024/10/02, 12:41:17.398]180,28,,26,287,16,,48,234,24*7C
$GPGLL,0114.3054,N,10338.7693,E,04[2024/10/02, 12:41:17.538]4115,A,D*43
$GPBOD,,T,,M,,*47
$GPBWC,044115,,,,,,T,,M,,N,,D*7B
$[2024/10/02, 12:41:17.679]GPVTG,301.33,T,301.16,M,0.71,N,1.32,K,D*27
$PGRME,16.07,M,24.44,M[2024/10/02, 12:41:17.820],29.25,M*24
$PGRMZ,-43,f,3*01
$PGRMM,WGS 84*06
$HCHDM,,M*07
$WI[2024/10/02, 12:41:17.960]MWV,,R,,,A*6D
$GPAPB,V,V,,,N,V,V,,,,,,,,N*68
$GPZDA,044115,02,10[2024/10/02, 12:41:18.085],2024,-08,00*6F
[2024/10/02, 12:41:18.288]$GPRMC,044117,A,0114.3055,N,10338.7695,E,0.32,305.24,021024,[2024/10/02, 12:41:18.554]0.16,E,D*29
$GPRMB,A,,,,,,,,,,,,V,D*19
$GPGGA,044117,0114.3055,N,[2024/10/02, 12:41:18.694]10338.7695,E,2,15,0.74,-13.68,M,9.58,M,,*57
$GPGSA,A,3,10,12,18,2[2024/10/02, 12:41:18.835]3,25,28,29,32,,,,,1.40,0.74,1.19*00
$GPGSV,4,1,16,10,19,343,14,12,[2024/10/02, 12:41:18.976]22,088,30,18,69,177,28,23,40,022,23*7A
$GPGSV,4,2,16,25,41,128,26,[2024/10/02, 12:41:19.116]28,47,230,23,29,16,163,26,32,25,311,13*77
$GPGSV,4,3,16,,31,110,30[2024/10/02, 12:41:19.257],,48,144,29,,73,336,20,,03,151,17*7E
$GPGSV,4,4,16,,66,358,22,,58,[2024/10/02, 12:41:19.397]180,28,,26,287,15,,48,234,25*7D
$GPGLL,0114.3055,N,10338.7695,E,0[2024/10/02, 12:41:19.538]44117,A,D*46
$GPBOD,,T,,M,,*47
$GPBWC,044117,,,,,,T,,M,,N,,D*79
[2024/10/02, 12:41:19.679]$GPVTG,305.24,T,305.08,M,0.32,N,0.60,K,D*2F
$PGRME,16.12,M,24.64,[2024/10/02, 12:41:19.819]M,29.44,M*25
$PGRMZ,-45,f,3*07
$PGRMM,WGS 84*06
$HCHDM,,M*07
$[2024/10/02, 12:41:19.960]WIMWV,,R,,,A*6D
$GPAPB,V,V,,,N,V,V,,,,,,,,N*68
$GPZDA,044117,02,1[2024/10/02, 12:41:20.085]0,2024,-08,00*6D
[2024/10/02, 12:41:20.288]$GPRMC,044119,A,0114.3057,N,10338.7694,E,0.00,305.24,021024,[2024/10/02, 12:41:20.553]0.16,E,D*25
$GPRMB,A,,,,,,,,,,,,V,D*19
$GPGGA,044119,0114.3057,N[2024/10/02, 12:41:20.694],10338.7694,E,2,15,0.74,-14.41,M,9.58,M,,*56
$GPGSA,A,3,10,12,18,2[2024/10/02, 12:41:20.834]3,25,28,29,32,,,,,1.40,0.74,1.19*00
$GPGSV,5,1,17,10,19,343,14,12,[2024/10/02, 12:41:20.975]22,088,29,18,69,177,28,23,40,022,21*70
$GPGSV,5,2,17,25,41,128,26,[2024/10/02, 12:41:21.116]28,47,230,25,29,16,163,23,32,25,311,14*73
$GPGSV,5,3,17,45,00,000,[2024/10/02, 12:41:21.256]26,,31,110,30,,48,144,28,,73,336,20*7A
$GPGSV,5,4,17,,03,151,17,,6[2024/10/02, 12:41:21.397]6,358,21,,59,179,27,,26,287,15*78
$GPGSV,5,5,17,,48,234,25*41
$GP[2024/10/02, 12:41:21.537]GLL,0114.3057,N,10338.7694,E,044119,A,D*4B
$GPBOD,,T,,M,,*47
$GP[2024/10/02, 12:41:21.678]BWC,044119,,,,,,T,,M,,N,,D*77
$GPVTG,305.24,T,305.08,M,0.00,N,0.00[2024/10/02, 12:41:21.819],K,D*28
$PGRME,16.18,M,25.05,M,29.82,M*23
$PGRMZ,-47,f,3*05
$PG[2024/10/02, 12:41:21.959]RMM,WGS 84*06
$HCHDM,,M*07
$WIMWV,,R,,,A*6D
$GPAPB,V,V,,,N,V,V,[2024/10/02, 12:41:22.084],,,,,,,N*68
$GPZDA,044119,02,10,2024,-08,00*63
[2024/10/02, 12:41:22.287]$GPRMC,044121,A,0114.3059,N,10338.7694,E,0.00,298.87,021024[2024/10/02, 12:41:22.553],0.16,E,D*2C
$GPRMB,A,,,,,,,,,,,,V,D*19
$GPGGA,044121,0114.3059,[2024/10/02, 12:41:22.694]N,10338.7694,E,2,15,0.74,-14.65,M,9.58,M,,*55
$GPGSA,A,3,10,12,18,[2024/10/02, 12:41:22.834]23,25,28,29,32,,,,,1.40,0.74,1.19*00
$GPGSV,5,1,17,10,19,343,14,12[2024/10/02, 12:41:22.975],22,088,29,18,69,177,28,23,40,022,20*71
$GPGSV,5,2,17,25,41,128,26[2024/10/02, 12:41:23.115],28,47,230,22,29,16,163,24,32,25,311,13*74
$GPGSV,5,3,17,45,00,000[2024/10/02, 12:41:23.256],25,,31,110,29,,48,144,28,,73,336,19*7B
$GPGSV,5,4,17,,03,151,16,,[2024/10/02, 12:41:23.396]66,358,22,,59,179,27,,26,287,15*7A
$GPGSV,5,5,17,,48,234,25*41
$G[2024/10/02, 12:41:23.537]PGLL,0114.3059,N,10338.7694,E,044121,A,D*4E
$GPBOD,,T,,M,,*47
$G[2024/10/02, 12:41:23.678]PBWC,044121,,,,,,T,,M,,N,,D*7C
$GPVTG,298.87,T,298.71,M,0.00,N,0.0[2024/10/02, 12:41:23.818]0,K,D*2F
$PGRME,16.23,M,25.27,M,30.04,M*2D
$PGRMZ,-48,f,3*0A
$PG[2024/10/02, 12:41:23.959]RMM,WGS 84*06
$HCHDM,,M*07
$WIMWV,,R,,,A*6D
$GPAPB,V,V,,,N,V,V,[2024/10/02, 12:41:24.084],,,,,,,N*68
$GPZDA,044121,02,10,2024,-08,00*68
[2024/10/02, 12:41:24.287]$GPRMC,044123,A,0114.3059,N,10338.7694,E,0.00,314.05,021024[2024/10/02, 12:41:24.552],0.16,E,D*21
$GPRMB,A,,,,,,,,,,,,V,D*19
$GPGGA,044123,0114.3059,N[2024/10/02, 12:41:24.693],10338.7694,E,2,15,0.74,-14.71,M,9.58,M,,*52
$GPGSA,A,3,10,12,18,2[2024/10/02, 12:41:24.834]3,25,28,29,32,,,,,1.40,0.74,1.19*00
$GPGSV,5,1,17,10,19,343,16,12[2024/10/02, 12:41:24.974],22,088,29,18,69,177,28,23,40,022,19*79
$GPGSV,5,2,17,25,41,128,26[2024/10/02, 12:41:25.115],28,47,230,22,29,16,163,22,32,25,311,13*72
$GPGSV,5,3,17,45,00,000[2024/10/02, 12:41:25.255],26,,31,110,30,,48,144,26,,73,336,18*7F
$GPGSV,5,4,17,,03,151,15,,6[2024/10/02, 12:41:25.396]6,358,23,,59,179,27,,26,286,18*74
$GPGSV,5,5,17,,47,233,26*4A
$G[2024/10/02, 12:41:25.536]PGLL,0114.3059,N,10338.7694,E,044123,A,D*4C
$GPBOD,,T,,M,,*47
$GP[2024/10/02, 12:41:25.677]BWC,044123,,,,,,T,,M,,N,,D*7E
$GPVTG,314.05,T,313.89,M,0.00,N,0.00[2024/10/02, 12:41:25.818],K,D*25
$PGRME,16.29,M,25.63,M,30.37,M*27
$PGRMZ,-48,f,3*0A
$PG[2024/10/02, 12:41:25.958]RMM,WGS 84*06
$HCHDM,,M*07
$WIMWV,,R,,,A*6D
$GPAPB,V,V,,,N,V,V,,[2024/10/02, 12:41:26.083],,,,,,N*68
$GPZDA,044123,02,10,2024,-08,00*6A
[2024/10/02, 12:41:26.286]$GPRMC,044125,A,0114.3059,N,10338.7692,E,0.00,306.85,021024[2024/10/02, 12:41:26.552],0.16,E,D*2A
$GPRMB,A,,,,,,,,,,,,V,D*19
$GPGGA,044125,0114.3059,N[2024/10/02, 12:41:26.693],10338.7692,E,2,15,0.74,-14.91,M,9.58,M,,*5C
$GPGSA,A,3,10,12,18,[2024/10/02, 12:41:26.833]23,25,28,29,32,,,,,1.40,0.74,1.19*00
$GPGSV,5,1,17,10,19,343,15,12[2024/10/02, 12:41:26.974],22,088,29,18,69,177,28,23,40,022,19*7A
$GPGSV,5,2,17,25,41,128,25[2024/10/02, 12:41:27.114],28,47,230,22,29,16,163,24,32,25,311,13*77
$GPGSV,5,3,17,45,00,000[2024/10/02, 12:41:27.255],26,,31,110,30,,48,144,26,,73,336,21*75
$GPGSV,5,4,17,,03,151,15,,[2024/10/02, 12:41:27.395]66,358,21,,59,179,27,,26,286,17*79
$GPGSV,5,5,17,,47,233,27*4B
$G[2024/10/02, 12:41:27.536]PGLL,0114.3059,N,10338.7692,E,044125,A,D*4C
$GPBOD,,T,,M,,*47
$GP[2024/10/02, 12:41:27.677]BWC,044125,,,,,,T,,M,,N,,D*78
$GPVTG,306.85,T,306.69,M,0.00,N,0.00[2024/10/02, 12:41:27.817],K,D*24
$PGRME,16.35,M,25.65,M,30.41,M*2D
$PGRMZ,-49,f,3*0B
$PG[2024/10/02, 12:41:27.958]RMM,WGS 84*06
$HCHDM,,M*07
$WIMWV,,R,,,A*6D
$GPAPB,V,V,,,N,V,V,,[2024/10/02, 12:41:28.083],,,,,,N*68
$GPZDA,044125,02,10,2024,-08,00*6C
[2024/10/02, 12:41:28.286]$GPRMC,044127,A,0114.3057,N,10338.7694,E,0.26,306.85,021024[2024/10/02, 12:41:28.551],0.16,E,D*24
$GPRMB,A,,,,,,,,,,,,V,D*19
$GPGGA,044127,0114.3057,N[2024/10/02, 12:41:28.692],10338.7694,E,2,15,0.74,-14.93,M,9.58,M,,*54
$GPGSA,A,3,10,12,18,[2024/10/02, 12:41:28.833]23,25,28,29,32,,,,,1.40,0.74,1.19*00
$GPGSV,5,1,17,10,19,343,16,12[2024/10/02, 12:41:28.973],22,088,29,18,69,177,28,23,40,022,22*71
$GPGSV,5,2,17,25,41,128,24[2024/10/02, 12:41:29.114],28,47,230,24,29,16,163,23,32,25,311,14*70
$GPGSV,5,3,17,45,00,000[2024/10/02, 12:41:29.254],26,,31,110,31,,48,144,27,,73,336,20*74
$GPGSV,5,4,17,,03,151,17,,[2024/10/02, 12:41:29.395]66,358,21,,59,179,28,,26,286,17*74
$GPGSV,5,5,17,,47,233,24*48
$G[2024/10/02, 12:41:29.536]PGLL,0114.3057,N,10338.7694,E,044127,A,D*46
$GPBOD,,T,,M,,*47
$GP[2024/10/02, 12:41:29.676]BWC,044127,,,,,,T,,M,,N,,D*7A
$GPVTG,306.85,T,306.69,M,0.26,N,0.49[2024/10/02, 12:41:29.817],K,D*2D
$PGRME,16.40,M,25.85,M,30.61,M*23
$PGRMZ,-49,f,3*0B
$PG[2024/10/02, 12:41:29.957]RMM,WGS 84*06
$HCHDM,,M*07
$WIMWV,,R,,,A*6D
$GPAPB,V,V,,,N,V,V,[2024/10/02, 12:41:30.082],,,,,,,N*68
$GPZDA,044127,02,10,2024,-08,00*6E
[2024/10/02, 12:41:30.285]$GPRMC,044129,A,0114.3056,N,10338.7694,E,0.28,307.01,021024[2024/10/02, 12:41:30.551],0.16,E,D*28
$GPRMB,A,,,,,,,,,,,,V,D*19
$GPGGA,044129,0114.3056,[2024/10/02, 12:41:30.692]N,10338.7694,E,2,15,0.74,-14.68,M,9.58,M,,*5F
$GPGSA,A,3,10,12,18,[2024/10/02, 12:41:30.832]23,25,28,29,32,,,,,1.40,0.74,1.19*00
$GPGSV,5,1,17,10,19,343,14,12[2024/10/02, 12:41:30.973],22,088,29,18,69,177,28,23,40,022,20*71
$GPGSV,5,2,17,25,41,128,26[2024/10/02, 12:41:31.113],28,47,230,24,29,16,163,25,32,25,311,13*73
$GPGSV,5,3,17,45,00,000[2024/10/02, 12:41:31.254],26,,31,110,32,,48,144,25,,73,336,20*75
$GPGSV,5,4,17,,03,151,15,,[2024/10/02, 12:41:31.394]66,358,23,,59,179,27,,26,286,18*74
$GPGSV,5,5,17,,47,233,26*4A
$G[2024/10/02, 12:41:31.535]PGLL,0114.3056,N,10338.7694,E,044129,A,D*49
$GPBOD,,T,,M,,*47
$GP[2024/10/02, 12:41:31.676]BWC,044129,,,,,,T,,M,,N,,D*74
$GPVTG,307.01,T,306.84,M,0.28,N,0.5[2024/10/02, 12:41:31.816]3,K,D*26
$PGRME,16.46,M,26.06,M,30.83,M*21
$PGRMZ,-48,f,3*0A
$PG[2024/10/02, 12:41:31.957]RMM,WGS 84*06
$HCHDM,,M*07
$WIMWV,,R,,,A*6D
$GPAPB,V,V,,,N,V,V,[2024/10/02, 12:41:32.082],,,,,,,N*68
$GPZDA,044129,02,10,2024,-08,00*60
[2024/10/02, 12:41:32.285]$GPRMC,044131,A,0114.3056,N,10338.7696,E,0.29,308.02,02102[2024/10/02, 12:41:32.551]4,0.16,E,D*2E
$GPRMB,A,,,,,,,,,,,,V,D*19
$GPGGA,044131,0114.3056,[2024/10/02, 12:41:32.691]N,10338.7696,E,2,15,0.74,-14.49,M,9.58,M,,*57
$GPGSA,A,3,10,12,18,[2024/10/02, 12:41:32.832]23,25,28,29,32,,,,,1.40,0.74,1.19*00
$GPGSV,5,1,17,10,19,343,14,12[2024/10/02, 12:41:32.972],22,088,29,18,69,177,28,23,40,022,19*7B
$GPGSV,5,2,17,25,41,128,24[2024/10/02, 12:41:33.113],28,47,230,24,29,16,163,25,32,25,311,13*71
$GPGSV,5,3,17,45,00,000[2024/10/02, 12:41:33.253],26,,31,110,31,,48,144,27,,73,336,19*7E
$GPGSV,5,4,17,,03,151,16,,[2024/10/02, 12:41:33.394]66,358,22,,59,179,28,,26,286,18*79
$GPGSV,5,5,17,,47,233,27*4B
$G[2024/10/02, 12:41:33.535]PGLL,0114.3056,N,10338.7696,E,044131,A,D*42
$GPBOD,,T,,M,,*47
$G[2024/10/02, 12:41:33.675]PBWC,044131,,,,,,T,,M,,N,,D*7D
$GPVTG,308.02,T,307.86,M,0.29,N,0.5[2024/10/02, 12:41:33.816]5,K,D*2E
$PGRME,16.52,M,26.25,M,31.02,M*2D
$PGRMZ,-48,f,3*0A
$P[2024/10/02, 12:41:33.956]GRMM,WGS 84*06
$HCHDM,,M*07
$WIMWV,,R,,,A*6D
$GPAPB,V,V,,,N,V,V,[2024/10/02, 12:41:34.081],,,,,,,N*68
$GPZDA,044131,02,10,2024,-08,00*69
[2024/10/02, 12:41:34.284]$GPRMC,044133,A,0114.3057,N,10338.7699,E,0.33,308.02,02102[2024/10/02, 12:41:34.550]4,0.16,E,D*29
$GPRMB,A,,,,,,,,,,,,V,D*19
$GPGGA,044133,0114.3057,[2024/10/02, 12:41:34.691]N,10338.7699,E,2,15,0.74,-14.07,M,9.58,M,,*51
$GPGSA,A,3,10,12,18,[2024/10/02, 12:41:34.831]23,25,28,29,32,,,,,1.40,0.74,1.19*00
$GPGSV,5,1,17,10,19,343,16,1[2024/10/02, 12:41:34.972]2,22,088,29,18,69,177,28,23,40,022,20*73
$GPGSV,5,2,17,25,41,128,2[2024/10/02, 12:41:35.112]1,28,47,230,22,29,16,163,26,32,25,311,13*71
$GPGSV,5,3,17,45,00,000[2024/10/02, 12:41:35.253],26,,31,110,31,,48,144,26,,73,336,18*7E
$GPGSV,5,4,17,,03,151,15,,[2024/10/02, 12:41:35.394]66,358,21,,59,179,27,,26,286,16*78
$GPGSV,5,5,17,,47,233,28*44
$[2024/10/02, 12:41:35.534]GPGLL,0114.3057,N,10338.7699,E,044133,A,D*4E
$GPBOD,,T,,M,,*47
$G[2024/10/02, 12:41:35.675]PBWC,044133,,,,,,T,,M,,N,,D*7F
$GPVTG,308.02,T,307.86,M,0.33,N,0.6[2024/10/02, 12:41:35.815]1,K,D*22
$PGRME,16.59,M,26.24,M,31.05,M*20
$PGRMZ,-46,f,3*04
$P[2024/10/02, 12:41:35.956]GRMM,WGS 84*06
$HCHDM,,M*07
$WIMWV,,R,,,A*6D
$GPAPB,V,V,,,N,V,V,[2024/10/02, 12:41:36.081],,,,,,,N*68
$GPZDA,044133,02,10,2024,-08,00*6B
[2024/10/02, 12:41:36.284]$GPRMC,044135,A,0114.3051,N,10338.7700,E,0.38,307.62,02102[2024/10/02, 12:41:36.550]4,0.16,E,D*2A
$GPRMB,A,,,,,,,,,,,,V,D*19
$GPGGA,044135,0114.3051,[2024/10/02, 12:41:36.690]N,10338.7700,E,2,15,0.74,-11.77,M,9.58,M,,*52
$GPGSA,A,3,10,12,18[2024/10/02, 12:41:36.831],23,25,28,29,32,,,,,1.40,0.74,1.19*00
$GPGSV,5,1,17,10,19,343,19,1[2024/10/02, 12:41:36.971]2,22,088,26,18,69,177,29,23,40,022,19*78
$GPGSV,5,2,17,25,41,128,2[2024/10/02, 12:41:37.112]1,28,47,230,24,29,16,163,26,32,25,311,13*77
$GPGSV,5,3,17,45,00,00[2024/10/02, 12:41:37.252]0,25,,31,110,31,,48,144,26,,73,336,20*76
$GPGSV,5,4,17,,03,151,15,[2024/10/02, 12:41:37.393],66,358,21,,59,179,27,,26,286,16*78
$GPGSV,5,5,17,,47,233,28*44
$[2024/10/02, 12:41:37.534]GPGLL,0114.3051,N,10338.7700,E,044135,A,D*4F
$GPBOD,,T,,M,,*47
$G[2024/10/02, 12:41:37.674]PBWC,044135,,,,,,T,,M,,N,,D*79
$GPVTG,307.62,T,307.46,M,0.38,N,0.7[2024/10/02, 12:41:37.815]1,K,D*2D
$PGRME,16.64,M,24.50,M,29.61,M*24
$PGRMZ,-39,f,3*0C
$P[2024/10/02, 12:41:37.956]GRMM,WGS 84*06
$HCHDM,,M*07
$WIMWV,,R,,,A*6D
$GPAPB,V,V,,,N,V,V[2024/10/02, 12:41:38.081],,,,,,,,N*68
$GPZDA,044135,02,10,2024,-08,00*6D
[2024/10/02, 12:41:38.283]$GPRMC,044137,A,0114.3049,N,10338.7704,E,0.42,307.80,02102[2024/10/02, 12:41:38.549]4,0.16,E,D*24
$GPRMB,A,,,,,,,,,,,,V,D*19
$GPGGA,044137,0114.3049,[2024/10/02, 12:41:38.690]N,10338.7704,E,2,15,0.74,-11.25,M,9.58,M,,*5A
$GPGSA,A,3,10,12,18[2024/10/02, 12:41:38.830],23,25,28,29,32,,,,,1.40,0.74,1.19*00
$GPGSV,5,1,17,10,19,343,19,1[2024/10/02, 12:41:38.971]2,22,088,28,18,69,177,29,23,40,022,17*78
$GPGSV,5,2,17,25,41,128,2[2024/10/02, 12:41:39.112]4,28,47,230,23,29,16,163,25,32,25,311,13*76
$GPGSV,5,3,17,45,00,00[2024/10/02, 12:41:39.252]0,25,,31,110,31,,48,144,26,,73,336,20*76
$GPGSV,5,4,17,,03,151,15,[2024/10/02, 12:41:39.393],66,358,22,,59,179,26,,26,286,14*78
$GPGSV,5,5,17,,47,233,28*44
$[2024/10/02, 12:41:39.533]GPGLL,0114.3049,N,10338.7704,E,044137,A,D*40
$GPBOD,,T,,M,,*47
$G[2024/10/02, 12:41:39.674]PBWC,044137,,,,,,T,,M,,N,,D*7B
$GPVTG,307.80,T,307.64,M,0.42,N,0.[2024/10/02, 12:41:39.814]78,K,D*25
$PGRME,16.69,M,22.86,M,28.30,M*21
$PGRMZ,-37,f,3*02
$P[2024/10/02, 12:41:39.955]GRMM,WGS 84*06
$HCHDM,,M*07
$WIMWV,,R,,,A*6D
$GPAPB,V,V,,,N,V,V[2024/10/02, 12:41:40.080],,,,,,,,N*68
$GPZDA,044137,02,10,2024,-08,00*6F
[2024/10/02, 12:41:40.283]$GPRMC,044139,A,0114.3047,N,10338.7703,E,0.42,301.90,02102[2024/10/02, 12:41:40.549]4,0.16,E,D*24
$GPRMB,A,,,,,,,,,,,,V,D*19
$GPGGA,044139,0114.3047[2024/10/02, 12:41:40.689],N,10338.7703,E,2,15,0.74,-10.82,M,9.58,M,,*51
$GPGSA,A,3,10,12,18[2024/10/02, 12:41:40.830],23,25,28,29,32,,,,,1.40,0.74,1.19*00
$GPGSV,5,1,17,10,19,343,16,1[2024/10/02, 12:41:40.970]2,22,088,28,18,69,177,29,23,40,022,18*78
$GPGSV,5,2,17,25,41,128,2[2024/10/02, 12:41:41.111]3,28,47,230,24,29,16,163,26,32,25,311,13*75
$GPGSV,5,3,17,45,00,00[2024/10/02, 12:41:41.252]0,25,,31,110,31,,48,144,27,,73,336,18*7C
$GPGSV,5,4,17,,03,151,13,[2024/10/02, 12:41:41.392],66,358,20,,59,179,27,,26,286,14*7D
$GPGSV,5,5,17,,47,233,28*44
$[2024/10/02, 12:41:41.533]GPGLL,0114.3047,N,10338.7703,E,044139,A,D*47
$GPBOD,,T,,M,,*47
$[2024/10/02, 12:41:41.673]GPBWC,044139,,,,,,T,,M,,N,,D*75
$GPVTG,301.90,T,301.74,M,0.42,N,0.[2024/10/02, 12:41:41.814]77,K,D*2A
$PGRME,16.73,M,21.91,M,27.57,M*21
$PGRMZ,-35,f,3*00
$P[2024/10/02, 12:41:41.954]GRMM,WGS 84*06
$HCHDM,,M*07
$WIMWV,,R,,,A*6D
$GPAPB,V,V,,,N,V,V[2024/10/02, 12:41:42.079],,,,,,,,N*68
$GPZDA,044139,02,10,2024,-08,00*61
[2024/10/02, 12:41:42.283]$GPRMC,044141,A,0114.3045,N,10338.7702,E,0.36,298.68,0210[2024/10/02, 12:41:42.548]24,0.16,E,D*2D
$GPRMB,A,,,,,,,,,,,,V,D*19
$GPGGA,044141,0114.3045[2024/10/02, 12:41:42.689],N,10338.7702,E,2,15,0.74,-10.45,M,9.58,M,,*56
$GPGSA,A,3,10,12,18[2024/10/02, 12:41:42.829],23,25,28,29,32,,,,,1.40,0.74,1.19*00
$GPGSV,5,1,17,10,19,343,17,1[2024/10/02, 12:41:42.970]2,22,088,29,18,69,177,29,23,40,022,17*77
$GPGSV,5,2,17,25,41,128,2[2024/10/02, 12:41:43.110]5,28,47,230,24,29,16,163,25,32,25,311,13*70
$GPGSV,5,3,17,45,00,00[2024/10/02, 12:41:43.251]0,25,,31,110,32,,48,144,27,,73,336,18*7F
$GPGSV,5,4,17,,03,151,14,[2024/10/02, 12:41:43.392],66,358,21,,59,179,27,,26,286,14*7B
$GPGSV,5,5,17,,47,233,28*44
[2024/10/02, 12:41:43.532]$GPGLL,0114.3045,N,10338.7702,E,044141,A,D*4B
$GPBOD,,T,,M,,*47
$[2024/10/02, 12:41:43.673]GPBWC,044141,,,,,,T,,M,,N,,D*7A
$GPVTG,298.68,T,298.52,M,0.36,N,0.[2024/10/02, 12:41:43.813]67,K,D*2B
$PGRME,16.78,M,21.08,M,26.95,M*25
$PGRMZ,-34,f,3*01
$[2024/10/02, 12:41:43.954]PGRMM,WGS 84*06
$HCHDM,,M*07
$WIMWV,,R,,,A*6D
$GPAPB,V,V,,,N,V,V[2024/10/02, 12:41:44.079],,,,,,,,N*68
$GPZDA,044141,02,10,2024,-08,00*6E
[2024/10/02, 12:41:44.282]$GPRMC,044143,A,0114.3042,N,10338.7704,E,0.37,295.52,0210[2024/10/02, 12:41:44.548]24,0.16,E,D*2B
$GPRMB,A,,,,,,,,,,,,V,D*19
$GPGGA,044143,0114.3042[2024/10/02, 12:41:44.688],N,10338.7704,E,2,15,0.74,-10.47,M,9.58,M,,*57
$GPGSA,A,3,10,12,1[2024/10/02, 12:41:44.829]8,23,25,28,29,32,,,,,1.40,0.74,1.19*00
$GPGSV,5,1,17,10,19,343,17,[2024/10/02, 12:41:44.970]12,22,088,28,18,69,177,29,23,40,022,17*76
$GPGSV,5,2,17,25,41,128,[2024/10/02, 12:41:45.110]25,28,47,230,22,29,16,163,23,32,25,311,14*77
$GPGSV,5,3,17,45,00,0[2024/10/02, 12:41:45.251]00,25,,31,110,30,,48,144,28,,73,336,19*73
$GPGSV,5,4,17,,03,151,14[2024/10/02, 12:41:45.391],,66,358,22,,59,179,26,,26,286,17*7A
$GPGSV,5,5,17,,47,233,28*44
[2024/10/02, 12:41:45.532]$GPGLL,0114.3042,N,10338.7704,E,044143,A,D*48
$GPBOD,,T,,M,,*47
$[2024/10/02, 12:41:45.672]GPBWC,044143,,,,,,T,,M,,N,,D*78
$GPVTG,295.52,T,295.36,M,0.37,N,0.[2024/10/02, 12:41:45.813]68,K,D*2E
$PGRME,16.83,M,20.60,M,26.61,M*25
$PGRMZ,-34,f,3*01
$[2024/10/02, 12:41:45.954]PGRMM,WGS 84*06
$HCHDM,,M*07
$WIMWV,,R,,,A*6D
$GPAPB,V,V,,,N,V,V[2024/10/02, 12:41:46.079],,,,,,,,N*68
$GPZDA,044143,02,10,2024,-08,00*6C
[2024/10/02, 12:41:46.282]$GPRMC,044145,A,0114.3041,N,10338.7708,E,0.32,291.46,0210[2024/10/02, 12:41:46.547]24,0.16,E,D*26
$GPRMB,A,,,,,,,,,,,,V,D*19
$GPGGA,044145,0114.3041[2024/10/02, 12:41:46.688],N,10338.7708,E,2,15,0.74,-10.27,M,9.58,M,,*58
$GPGSA,A,3,10,12,1[2024/10/02, 12:41:46.828]8,23,25,28,29,32,,,,,1.40,0.74,1.19*00
$GPGSV,5,1,17,10,19,343,19,[2024/10/02, 12:41:46.969]12,22,088,26,18,69,177,29,23,40,022,19*78
$GPGSV,5,2,17,25,41,128,[2024/10/02, 12:41:47.110]25,28,47,230,23,29,16,163,25,32,25,311,13*77
$GPGSV,5,3,17,45,00,0[2024/10/02, 12:41:47.250]00,25,,31,110,30,,48,144,26,,73,336,19*7D
$GPGSV,5,4,17,,03,151,13[2024/10/02, 12:41:47.391],,66,358,22,,59,179,26,,26,286,17*7D
$GPGSV,5,5,17,,47,233,28*44
[2024/10/02, 12:41:47.531]$GPGLL,0114.3041,N,10338.7708,E,044145,A,D*41
$GPBOD,,T,,M,,*47
$[2024/10/02, 12:41:47.672]GPBWC,044145,,,,,,T,,M,,N,,D*7E
$GPVTG,291.46,T,291.30,M,0.32,N,0.[2024/10/02, 12:41:47.813]59,K,D*2A
$PGRME,16.88,M,20.66,M,26.68,M*21
$PGRMZ,-34,f,3*01
$[2024/10/02, 12:41:47.953]PGRMM,WGS 84*06
$HCHDM,,M*07
$WIMWV,,R,,,A*6D
$GPAPB,V,V,,,N,V,[2024/10/02, 12:41:48.078]V,,,,,,,,N*68
$GPZDA,044145,02,10,2024,-08,00*6A
[2024/10/02, 12:41:48.281]$GPRMC,044147,A,0114.3039,N,10338.7710,E,0.00,297.53,0210[2024/10/02, 12:41:48.547]24,0.16,E,D*21
$GPRMB,A,,,,,,,,,,,,V,D*19
$GPGGA,044147,0114.303[2024/10/02, 12:41:48.687]9,N,10338.7710,E,2,15,0.74,-9.78,M,9.58,M,,*6E
$GPGSA,A,3,10,12,18[2024/10/02, 12:41:48.828],23,25,28,29,32,,,,,1.40,0.74,1.19*00
$GPGSV,5,1,17,10,19,344,16,1[2024/10/02, 12:41:48.968]2,22,088,26,18,69,177,29,23,40,022,17*7E
$GPGSV,5,2,17,25,41,128,2[2024/10/02, 12:41:49.109]3,28,47,230,22,29,16,163,25,32,25,311,14*77
$GPGSV,5,3,17,45,00,00[2024/10/02, 12:41:49.250]0,25,,31,110,30,,48,144,26,,73,336,19*7D
$GPGSV,5,4,17,,03,151,14,[2024/10/02, 12:41:49.390],66,358,21,,59,179,27,,26,286,15*7A
$GPGSV,5,5,17,,47,233,25*49
$[2024/10/02, 12:41:49.531]GPGLL,0114.3039,N,10338.7710,E,044147,A,D*45
$GPBOD,,T,,M,,*47
$G[2024/10/02, 12:41:49.672]PBWC,044147,,,,,,T,,M,,N,,D*7C
$GPVTG,297.53,T,297.37,M,0.00,N,0.0[2024/10/02, 12:41:49.812]0,K,D*24
$PGRME,16.94,M,20.96,M,26.95,M*21
$PGRMZ,-32,f,3*07
$P[2024/10/02, 12:41:49.953]GRMM,WGS 84*06
$HCHDM,,M*07
$WIMWV,,R,,,A*6D
$GPAPB,V,V,,,N,V,V,[2024/10/02, 12:41:50.078],,,,,,,N*68
$GPZDA,044147,02,10,2024,-08,00*68
[2024/10/02, 12:41:50.281]$GPRMC,044149,A,0114.3037,N,10338.7709,E,0.27,296.14,0210[2024/10/02, 12:41:50.546]24,0.16,E,D*2E
$GPRMB,A,,,,,,,,,,,,V,D*19
$GPGGA,044149,0114.303[2024/10/02, 12:41:50.687]7,N,10338.7709,E,2,15,0.74,-10.15,M,9.58,M,,*55
$GPGSA,A,3,10,12,1[2024/10/02, 12:41:50.828]8,23,25,28,29,32,,,,,1.40,0.74,1.19*00
$GPGSV,5,1,17,10,19,344,17,[2024/10/02, 12:41:50.968]12,22,087,25,18,69,177,29,23,40,022,16*72
$GPGSV,5,2,17,25,41,128,[2024/10/02, 12:41:51.109]25,28,47,230,21,29,16,163,25,32,25,311,14*72
$GPGSV,5,3,17,45,00,0[2024/10/02, 12:41:51.249]00,25,,31,110,29,,48,144,28,,73,336,19*7B
$GPGSV,5,4,17,,03,151,15[2024/10/02, 12:41:51.390],,66,358,22,,59,179,26,,26,286,14*78
$GPGSV,5,5,17,,47,233,24*48
[2024/10/02, 12:41:51.530]$GPGLL,0114.3037,N,10338.7709,E,044149,A,D*4D
$GPBOD,,T,,M,,*47
[2024/10/02, 12:41:51.671]$GPBWC,044149,,,,,,T,,M,,N,,D*72
$GPVTG,296.14,T,295.98,M,0.27,N,0[2024/10/02, 12:41:51.812].49,K,D*29
$PGRME,16.99,M,21.37,M,27.30,M*28
$PGRMZ,-33,f,3*06
[2024/10/02, 12:41:51.952]$PGRMM,WGS 84*06
$HCHDM,,M*07
$WIMWV,,R,,,A*6D
$GPAPB,V,V,,,N,V,[2024/10/02, 12:41:52.077]V,,,,,,,,N*68
$GPZDA,044149,02,10,2024,-08,00*66
[2024/10/02, 12:41:52.280]$GPRMC,044151,A,0114.3034,N,10338.7713,E,0.97,134.36,021[2024/10/02, 12:41:52.546]024,0.16,E,D*2F
$GPRMB,A,,,,,,,,,,,,V,D*19
$GPGGA,044151,0114.303[2024/10/02, 12:41:52.686]4,N,10338.7713,E,2,15,0.74,-9.84,M,9.58,M,,*64
$GPGSA,A,3,10,12,18[2024/10/02, 12:41:52.827],23,25,28,29,32,,,,,1.40,0.74,1.19*00
$GPGSV,5,1,18,05,02,122,25,1[2024/10/02, 12:41:52.968]0,19,344,16,12,22,087,25,18,69,177,29*7F
$GPGSV,5,2,18,23,40,022,1[2024/10/02, 12:41:53.108]6,25,41,128,22,28,47,230,21,29,16,163,25*78
$GPGSV,5,3,18,32,25,31[2024/10/02, 12:41:53.249]1,15,45,00,000,25,,31,110,30,,48,144,28*77
$GPGSV,5,4,18,,73,336,2[2024/10/02, 12:41:53.389]0,,03,151,14,,66,358,19,,59,179,26*73
$GPGSV,5,5,18,,26,286,15,,47[2024/10/02, 12:41:53.530],233,25*7A
$GPGLL,0114.3034,N,10338.7713,E,044151,A,D*4C
$GPBOD,,[2024/10/02, 12:41:53.671]T,,M,,*47
$GPBWC,044151,,,,,,T,,M,,N,,D*7B
$GPVTG,134.36,T,134.2[2024/10/02, 12:41:53.811]0,M,0.97,N,1.79,K,D*20
$PGRME,17.05,M,20.55,M,26.70,M*2C
$PGRMZ,-[2024/10/02, 12:41:53.952]32,f,3*07
$PGRMM,WGS 84*06
$HCHDM,,M*07
$WIMWV,,R,,,A*6D
$GPAP[2024/10/02, 12:41:54.092]B,V,V,,,N,V,V,,,,,,,,N*68
$GPZDA,044151,02,10,2024,-08,00*6F
[2024/10/02, 12:41:54.280]$GPRMC,044153,A,0114.3036,N,10338.7709,E,0.82,226.97,021[2024/10/02, 12:41:54.545]024,0.16,E,D*2B
$GPRMB,A,,,,,,,,,,,,V,D*19
$GPGGA,044153,0114.303[2024/10/02, 12:41:54.686]6,N,10338.7709,E,2,15,0.74,-9.57,M,9.58,M,,*61
$GPGSA,A,3,10,12,1[2024/10/02, 12:41:54.826]8,23,25,28,29,32,,,,,1.40,0.74,1.19*00
$GPGSV,5,1,18,05,02,122,23,[2024/10/02, 12:41:54.967]10,19,344,17,12,22,087,24,18,69,177,29*79
$GPGSV,5,2,18,23,40,022,[2024/10/02, 12:41:55.108]16,25,41,128,25,28,47,230,21,29,16,163,25*7F
$GPGSV,5,3,18,32,25,3[2024/10/02, 12:41:55.248]11,14,45,00,000,25,,31,110,29,,48,144,28*7E
$GPGSV,5,4,18,,73,336,[2024/10/02, 12:41:55.389]19,,03,151,14,,66,358,20,,59,179,25*70
$GPGSV,5,5,18,,26,286,15,,4[2024/10/02, 12:41:55.529]7,233,25*7A
$GPGLL,0114.3036,N,10338.7709,E,044153,A,D*47
$GPBOD,[2024/10/02, 12:41:55.670],T,,M,,*47
$GPBWC,044153,,,,,,T,,M,,N,,D*79
$GPVTG,226.97,T,226.8[2024/10/02, 12:41:55.811]1,M,0.82,N,1.51,K,D*2E
$PGRME,17.11,M,20.60,M,26.78,M*27
$PGRMZ,[2024/10/02, 12:41:55.951]-31,f,3*04
$PGRMM,WGS 84*06
$HCHDM,,M*07
$WIMWV,,R,,,A*6D
$GPAP[2024/10/02, 12:41:56.092]B,V,V,,,N,V,V,,,,,,,,N*68
$GPZDA,044153,02,10,2024,-08,00*6D
[2024/10/02, 12:41:56.279]$GPRMC,044155,A,0114.3036,N,10338.7712,E,0.74,163.75,021[2024/10/02, 12:41:56.545]024,0.16,E,D*20
$GPRMB,A,,,,,,,,,,,,V,D*19
$GPGGA,044155,0114.303[2024/10/02, 12:41:56.685]6,N,10338.7712,E,2,15,0.74,-9.33,M,9.58,M,,*6F
$GPGSA,A,3,10,12,18[2024/10/02, 12:41:56.826],23,25,28,29,32,,,,,1.40,0.74,1.19*00
$GPGSV,5,1,18,05,02,122,24,[2024/10/02, 12:41:56.967]10,19,344,18,12,22,087,25,18,68,177,29*71
$GPGSV,5,2,18,23,40,022,[2024/10/02, 12:41:57.107]16,25,41,128,25,28,47,230,23,29,16,163,26*7E
$GPGSV,5,3,18,32,25,31[2024/10/02, 12:41:57.248]1,14,45,00,000,25,,31,110,28,,48,144,28*7F
$GPGSV,5,4,18,,73,336,2[2024/10/02, 12:41:57.388]0,,03,151,15,,66,358,21,,59,179,25*7A
$GPGSV,5,5,18,,26,286,15,,47[2024/10/02, 12:41:57.529],233,26*79
$GPGLL,0114.3036,N,10338.7712,E,044155,A,D*4B
$GPBOD,[2024/10/02, 12:41:57.670],T,,M,,*47
$GPBWC,044155,,,,,,T,,M,,N,,D*7F
$GPVTG,163.75,T,163.5[2024/10/02, 12:41:57.810]9,M,0.74,N,1.38,K,D*21
$PGRME,17.18,M,21.00,M,27.13,M*25
$PGRMZ,-[2024/10/02, 12:41:57.951]31,f,3*04
$PGRMM,WGS 84*06
$HCHDM,,M*07
$WIMWV,,R,,,A*6D
$GPAP[2024/10/02, 12:41:58.091]B,V,V,,,N,V,V,,,,,,,,N*68
$GPZDA,044155,02,10,2024,-08,00*6B
[2024/10/02, 12:41:58.279]$GPRMC,044157,A,0114.3038,N,10338.7714,E,0.73,125.21,021[2024/10/02, 12:41:58.544]024,0.16,E,D*2E
$GPRMB,A,,,,,,,,,,,,V,D*19
$GPGGA,044157,0114.30[2024/10/02, 12:41:58.685]38,N,10338.7714,E,2,15,0.74,-9.35,M,9.58,M,,*63
$GPGSA,A,3,10,12,1[2024/10/02, 12:41:58.826]8,23,25,28,29,32,,,,,1.40,0.74,1.19*00
$GPGSV,5,1,18,05,02,122,24,[2024/10/02, 12:41:58.966]10,19,344,17,12,22,087,25,18,68,177,29*7E
$GPGSV,5,2,18,23,40,022,[2024/10/02, 12:41:59.107]15,25,41,128,22,28,47,230,22,29,16,163,25*78
$GPGSV,5,3,18,32,25,3[2024/10/02, 12:41:59.247]11,14,45,00,000,25,,31,110,27,,48,144,27*7F
$GPGSV,5,4,18,,73,336,[2024/10/02, 12:41:59.388]19,,03,151,15,,66,358,20,,59,179,25*71
$GPGSV,5,5,18,,26,286,16,,4[2024/10/02, 12:41:59.528]7,233,25*79
$GPGLL,0114.3038,N,10338.7714,E,044157,A,D*41
$GPBOD,[2024/10/02, 12:41:59.669],T,,M,,*47
$GPBWC,044157,,,,,,T,,M,,N,,D*7D
$GPVTG,125.21,T,125.0[2024/10/02, 12:41:59.810]5,M,0.73,N,1.36,K,D*20
$PGRME,17.25,M,21.40,M,27.49,M*20
$PGRMZ,[2024/10/02, 12:41:59.951]-31,f,3*04
$PGRMM,WGS 84*06
$HCHDM,,M*07
$WIMWV,,R,,,A*6D
$GPA[2024/10/02, 12:42:00.091]PB,V,V,,,N,V,V,,,,,,,,N*68
$GPZDA,044157,02,10,2024,-08,00*69
[2024/10/02, 12:42:00.279]$GPRMC,044159,A,0114.3043,N,10338.7711,E,0.90,329.73,021[2024/10/02, 12:42:00.544]024,0.16,E,D*2D
$GPRMB,A,,,,,,,,,,,,V,D*19
$GPGGA,044159,0114.30[2024/10/02, 12:42:00.685]43,N,10338.7711,E,2,15,0.74,-9.67,M,9.58,M,,*63
$GPGSA,A,3,10,12,1[2024/10/02, 12:42:00.825]8,23,25,28,29,32,,,,,1.40,0.74,1.19*00
$GPGSV,5,1,18,05,02,122,22,[2024/10/02, 12:42:00.966]10,19,344,16,12,22,087,24,18,68,177,29*78
$GPGSV,5,2,18,23,40,022,[2024/10/02, 12:42:01.107]16,25,41,128,26,28,47,230,19,29,16,163,26*74
$GPGSV,5,3,18,32,25,3[2024/10/02, 12:42:01.247]11,14,45,00,000,24,,31,110,28,,48,144,28*7E
$GPGSV,5,4,18,,73,336,[2024/10/02, 12:42:01.388]19,,03,151,16,,66,358,22,,59,179,25*70
$GPGSV,5,5,18,,26,286,15,,47[2024/10/02, 12:42:01.528],233,24*7B
$GPGLL,0114.3043,N,10338.7711,E,044159,A,D*46
$GPBOD,[2024/10/02, 12:42:01.669],T,,M,,*47
$GPBWC,044159,,,,,,T,,M,,N,,D*73
$GPVTG,329.73,T,329.5[2024/10/02, 12:42:01.810]7,M,0.90,N,1.68,K,D*26
$PGRME,17.32,M,21.86,M,27.89,M*20
$PGRMZ,[2024/10/02, 12:42:01.950]-32,f,3*07
$PGRMM,WGS 84*06
$HCHDM,,M*07
$WIMWV,,R,,,A*6D
$GPAP[2024/10/02, 12:42:02.091]B,V,V,,,N,V,V,,,,,,,,N*68
$GPZDA,044159,02,10,2024,-08,00*67
[2024/10/02, 12:42:02.278]$GPRMC,044201,A,0114.3045,N,10338.7711,E,0.82,347.67,02[2024/10/02, 12:42:02.544]1024,0.16,E,D*2B
$GPRMB,A,,,,,,,,,,,,V,D*19
$GPGGA,044201,0114.30[2024/10/02, 12:42:02.684]45,N,10338.7711,E,2,15,0.74,-10.67,M,9.58,M,,*53
$GPGSA,A,3,10,12,[2024/10/02, 12:42:02.825]18,23,25,28,29,32,,,,,1.40,0.74,1.19*00
$GPGSV,5,1,18,05,02,122,21[2024/10/02, 12:42:02.966],10,19,344,16,12,22,087,25,18,68,177,29*7A
$GPGSV,5,2,18,23,40,023[2024/10/02, 12:42:03.106],16,25,41,128,25,28,47,230,21,29,16,163,25*7E
$GPGSV,5,3,18,32,25,[2024/10/02, 12:42:03.247]311,14,45,00,000,24,,31,110,29,,48,144,28*7F
$GPGSV,5,4,18,,73,336[2024/10/02, 12:42:03.388],19,,03,151,16,,66,358,20,,59,179,24*73
$GPGSV,5,5,18,,26,286,15,,[2024/10/02, 12:42:03.528]47,233,25*7A
$GPGLL,0114.3045,N,10338.7711,E,044201,A,D*4E
$GPBOD[2024/10/02, 12:42:03.669],,T,,M,,*47
$GPBWC,044201,,,,,,T,,M,,N,,D*7D
$GPVTG,347.67,T,347[2024/10/02, 12:42:03.809].51,M,0.82,N,1.52,K,D*2F
$PGRME,17.39,M,22.34,M,28.32,M*2E
$PGRMZ[2024/10/02, 12:42:03.950],-35,f,3*00
$PGRMM,WGS 84*06
$HCHDM,,M*07
$WIMWV,,R,,,A*6D
$GP[2024/10/02, 12:42:04.090]APB,V,V,,,N,V,V,,,,,,,,N*68
$GPZDA,044201,02,10,2024,-08,00*69
[2024/10/02, 12:42:04.278]$GPRMC,044203,A,0114.3047,N,10338.7710,E,0.71,330.45,02[2024/10/02, 12:42:04.543]1024,0.16,E,D*26
$GPRMB,A,,,,,,,,,,,,V,D*19
$GPGGA,044203,0114.[2024/10/02, 12:42:04.684]3047,N,10338.7710,E,2,15,0.74,-11.18,M,9.58,M,,*5B
$GPGSA,A,3,10,1[2024/10/02, 12:42:04.824]2,18,23,25,28,29,32,,,,,1.40,0.74,1.19*00
$GPGSV,5,1,18,05,02,122[2024/10/02, 12:42:04.965],22,10,19,344,15,12,22,087,25,18,68,177,29*7A
$GPGSV,5,2,18,23,40,0[2024/10/02, 12:42:05.106]23,14,25,41,127,26,28,47,230,21,29,16,163,26*73
$GPGSV,5,3,18,32,2[2024/10/02, 12:42:05.246]5,311,14,45,00,000,24,,31,110,29,,48,144,26*71
$GPGSV,5,4,18,,73,3[2024/10/02, 12:42:05.387]36,18,,03,151,16,,66,358,20,,59,179,25*73
$GPGSV,5,5,18,,26,286,15[2024/10/02, 12:42:05.528],,47,233,24*7B
$GPGLL,0114.3047,N,10338.7710,E,044203,A,D*4F
$GP[2024/10/02, 12:42:05.668]BOD,,T,,M,,*47
$GPBWC,044203,,,,,,T,,M,,N,,D*7F
$GPVTG,330.45,T,3[2024/10/02, 12:42:05.809]30.29,M,0.71,N,1.32,K,D*2A
$PGRME,17.47,M,22.72,M,28.66,M*24
$PGR[2024/10/02, 12:42:05.949]MZ,-37,f,3*02
$PGRMM,WGS 84*06
$HCHDM,,M*07
$WIMWV,,R,,,A*6D
$[2024/10/02, 12:42:06.090]GPAPB,V,V,,,N,V,V,,,,,,,,N*68
$GPZDA,044203,02,10,2024,-08,00*6B[2024/10/02, 12:42:06.184]
[2024/10/02, 12:42:06.262]$GPRMC,044205,A,0114.3046,N,10338.7710,E,0.27,31[2024/10/02, 12:42:06.527]2.99,021024,0.16,E,D*23
$GPRMB,A,,,,,,,,,,,,V,D*19
$GPGGA,044205[2024/10/02, 12:42:06.668],0114.3046,N,10338.7710,E,2,15,0.74,-11.87,M,9.58,M,,*5A
$GPGSA,A,[2024/10/02, 12:42:06.808]3,10,12,18,23,25,28,29,32,,,,,1.40,0.74,1.19*00
$GPGSV,5,1,18,05,0[2024/10/02, 12:42:06.949]2,122,24,10,19,344,14,12,22,087,25,18,68,177,29*7D
$GPGSV,5,2,18,2[2024/10/02, 12:42:07.090]3,40,023,15,25,41,127,23,28,48,231,20,29,16,163,26*78
$GPGSV,5,3,1[2024/10/02, 12:42:07.230]8,32,25,311,14,45,00,000,25,,31,110,30,,48,144,28*76
$GPGSV,5,4,18[2024/10/02, 12:42:07.371],,73,336,17,,03,151,17,,66,358,20,,59,179,26*7E
$GPGSV,5,5,18,,26,[2024/10/02, 12:42:07.511]286,14,,47,233,24*7A
$GPGLL,0114.3046,N,10338.7710,E,044205,A,D*48[2024/10/02, 12:42:07.652]
$GPBOD,,T,,M,,*47
$GPBWC,044205,,,,,,T,,M,,N,,D*79
$GPVTG,312.[2024/10/02, 12:42:07.793]99,T,312.83,M,0.27,N,0.51,K,D*2C
$PGRME,17.56,M,23.09,M,29.01,M*29[2024/10/02, 12:42:07.933]
$PGRMZ,-39,f,3*0C
$PGRMM,WGS 84*06
$HCHDM,,M*07
$WIMWV,,R,,,A[2024/10/02, 12:42:08.074]*6D
$GPAPB,V,V,,,N,V,V,,,,,,,,N*68
$GPZDA,044205,02,10,2024,-08,0[2024/10/02, 12:42:08.167]0*6D
[2024/10/02, 12:42:08.246]$GPRMC,044207,A,0114.3047,N,10338.7706,E[2024/10/02, 12:42:08.511],0.27,307.05,021024,0.16,E,D*26
$GPRMB,A,,,,,,,,,,,,V,D*19
$GPGGA[2024/10/02, 12:42:08.652],044207,0114.3047,N,10338.7706,E,2,15,0.74,-12.48,M,9.58,M,,*5E
$[2024/10/02, 12:42:08.792]GPGSA,A,3,10,12,18,23,25,28,29,32,,,,,1.40,0.74,1.19*00
$GPGSV,5,1[2024/10/02, 12:42:08.933],18,05,02,122,24,10,19,344,14,12,22,087,25,18,68,177,29*7D
$GPGSV,[2024/10/02, 12:42:09.073]5,2,18,23,40,023,15,25,41,127,23,28,48,231,19,29,16,163,26*72
$GPG[2024/10/02, 12:42:09.214]SV,5,3,18,32,25,311,14,45,00,000,25,,31,110,30,,48,144,28*76
$GPGS[2024/10/02, 12:42:09.355]V,5,4,18,,73,336,20,,03,151,16,,66,358,19,,59,179,26*71
$GPGSV,5,5,[2024/10/02, 12:42:09.495]18,,26,286,14,,47,233,23*7D
$GPGLL,0114.3047,N,10338.7706,E,04420[2024/10/02, 12:42:09.636]7,A,D*4C
$GPBOD,,T,,M,,*47
$GPBWC,044207,,,,,,T,,M,,N,,D*7B
$GP[2024/10/02, 12:42:09.777]VTG,307.05,T,306.89,M,0.27,N,0.49,K,D*2B
$PGRME,17.65,M,23.60,M,29[2024/10/02, 12:42:09.917].47,M*24
$PGRMZ,-41,f,3*03
$PGRMM,WGS 84*06
$HCHDM,,M*07
$WIMW[2024/10/02, 12:42:10.058]V,,R,,,A*6D
$GPAPB,V,V,,,N,V,V,,,,,,,,N*68
$GPZDA,044207,02,10,20[2024/10/02, 12:42:10.167]24,-08,00*6F
[2024/10/02, 12:42:10.245]$GPRMC,044209,A,0114.3045,N,10338.7705,E[2024/10/02, 12:42:10.511],0.27,296.75,021024,0.16,E,D*27
$GPRMB,A,,,,,,,,,,,,V,D*19
$GPGG[2024/10/02, 12:42:10.651]A,044209,0114.3045,N,10338.7705,E,2,15,0.74,-12.25,M,9.58,M,,*5A
$[2024/10/02, 12:42:10.792]GPGSA,A,3,10,12,18,23,25,28,29,32,,,,,1.40,0.74,1.19*00
$GPGSV,5,1[2024/10/02, 12:42:10.932],18,05,02,122,24,10,19,344,15,12,22,087,24,18,68,177,29*7D
$GPGSV,[2024/10/02, 12:42:11.073]5,2,18,23,40,023,15,25,41,127,24,28,48,231,20,29,16,163,26*7F
$GPG[2024/10/02, 12:42:11.214]SV,5,3,18,32,25,312,14,45,00,000,25,,31,110,30,,48,144,28*75
$GPGS[2024/10/02, 12:42:11.354]V,5,4,18,,73,336,19,,03,151,17,,66,358,20,,59,179,25*73
$GPGSV,5,5[2024/10/02, 12:42:11.495],18,,26,286,17,,47,233,24*79
$GPGLL,0114.3045,N,10338.7705,E,04420[2024/10/02, 12:42:11.635]9,A,D*43
$GPBOD,,T,,M,,*47
$GPBWC,044209,,,,,,T,,M,,N,,D*75
$GP[2024/10/02, 12:42:11.776]VTG,296.75,T,296.59,M,0.27,N,0.50,K,D*28
$PGRME,17.74,M,24.04,M,29[2024/10/02, 12:42:11.917].87,M*2D
$PGRMZ,-40,f,3*02
$PGRMM,WGS 84*06
$HCHDM,,M*07
$WIMW[2024/10/02, 12:42:12.057]V,,R,,,A*6D
$GPAPB,V,V,,,N,V,V,,,,,,,,N*68
$GPZDA,044209,02,10,20[2024/10/02, 12:42:12.167]24,-08,00*61
[2024/10/02, 12:42:12.245]$GPRMC,044211,A,0114.3045,N,10338.7706,[2024/10/02, 12:42:12.510]E,0.27,299.02,021024,0.16,E,D*22
$GPRMB,A,,,,,,,,,,,,V,D*19
$GPGG[2024/10/02, 12:42:12.651]A,044211,0114.3045,N,10338.7706,E,2,15,0.74,-12.47,M,9.58,M,,*54
[2024/10/02, 12:42:12.791]$GPGSA,A,3,10,12,18,23,25,28,29,32,,,,,1.40,0.74,1.19*00
$GPGSV,5,[2024/10/02, 12:42:12.932]1,18,05,02,122,22,10,19,344,15,12,22,087,23,18,68,177,29*7C
$GPGSV[2024/10/02, 12:42:13.073],5,2,18,23,40,023,15,25,41,127,23,28,48,231,21,29,16,163,27*78
$GP[2024/10/02, 12:42:13.213]GSV,5,3,18,32,25,312,14,45,00,000,25,,31,110,30,,48,144,28*75
$GPG[2024/10/02, 12:42:13.354]SV,5,4,18,,73,336,19,,03,151,17,,66,358,19,,59,179,26*7A
$GPGSV,5,[2024/10/02, 12:42:13.494]5,18,,26,286,14,,47,233,23*7D
$GPGLL,0114.3045,N,10338.7706,E,0442[2024/10/02, 12:42:13.635]11,A,D*49
$GPBOD,,T,,M,,*47
$GPBWC,044211,,,,,,T,,M,,N,,D*7C
$GP[2024/10/02, 12:42:13.776]VTG,299.02,T,298.86,M,0.27,N,0.51,K,D*2A
$PGRME,17.84,M,24.48,M,3[2024/10/02, 12:42:13.916]0.29,M*26
$PGRMZ,-41,f,3*03
$PGRMM,WGS 84*06
$HCHDM,,M*07
$WIMW[2024/10/02, 12:42:14.057]V,,R,,,A*6D
$GPAPB,V,V,,,N,V,V,,,,,,,,N*68
$GPZDA,044211,02,10,2[2024/10/02, 12:42:14.166]024,-08,00*68
[2024/10/02, 12:42:14.244]$GPRMC,044213,A,0114.3046,N,10338.7705,[2024/10/02, 12:42:14.510]E,0.27,304.16,021024,0.16,E,D*20
$GPRMB,A,,,,,,,,,,,,V,D*19
$GPGG[2024/10/02, 12:42:14.650]A,044213,0114.3046,N,10338.7705,E,2,15,0.74,-12.89,M,9.58,M,,*54
[2024/10/02, 12:42:14.791]$GPGSA,A,3,10,12,18,23,25,28,29,32,,,,,1.40,0.74,1.19*00
$GPGSV,5,[2024/10/02, 12:42:14.931]1,18,05,02,122,20,10,19,344,15,12,22,087,24,18,68,177,29*79
$GPGSV,[2024/10/02, 12:42:15.072]5,2,18,23,40,023,15,25,41,127,24,28,48,231,20,29,16,163,25*7C
$GPG[2024/10/02, 12:42:15.213]SV,5,3,18,32,25,312,14,45,00,000,25,,31,110,30,,48,144,29*74
$GPGS[2024/10/02, 12:42:15.353]V,5,4,18,,73,336,19,,03,151,17,,66,358,20,,59,179,24*72
$GPGSV,5,5[2024/10/02, 12:42:15.494],18,,26,286,15,,47,233,24*7B
$GPGLL,0114.3046,N,10338.7705,E,04421[2024/10/02, 12:42:15.634]3,A,D*4B
$GPBOD,,T,,M,,*47
$GPBWC,044213,,,,,,T,,M,,N,,D*7E
$G[2024/10/02, 12:42:15.775]PVTG,304.16,T,304.00,M,0.27,N,0.51,K,D*20
$PGRME,17.94,M,24.88,M,3[2024/10/02, 12:42:15.916]0.68,M*2E
$PGRMZ,-42,f,3*00
$PGRMM,WGS 84*06
$HCHDM,,M*07
$WIMW[2024/10/02, 12:42:16.056]V,,R,,,A*6D
$GPAPB,V,V,,,N,V,V,,,,,,,,N*68
$GPZDA,044213,02,10,2[2024/10/02, 12:42:16.166]024,-08,00*6A
[2024/10/02, 12:42:16.244]$GPRMC,044215,A,0114.3046,N,10338.7706,[2024/10/02, 12:42:16.509]E,0.00,301.13,021024,0.16,E,D*20
$GPRMB,A,,,,,,,,,,,,V,D*19
$GPGG[2024/10/02, 12:42:16.650]A,044215,0114.3046,N,10338.7706,E,2,15,0.74,-12.96,M,9.58,M,,*5F
[2024/10/02, 12:42:16.790]$GPGSA,A,3,10,12,18,23,25,28,29,32,,,,,1.40,0.74,1.19*00
$GPGSV,5,[2024/10/02, 12:42:16.931]1,18,05,02,122,19,10,19,344,14,12,22,087,24,18,68,177,30*7A
$GPGSV[2024/10/02, 12:42:17.072],5,2,18,23,40,023,16,25,41,127,26,28,48,231,22,29,16,163,26*7C
$GP[2024/10/02, 12:42:17.212]GSV,5,3,18,32,25,312,14,45,00,000,25,,31,110,30,,48,144,28*75
$GPG[2024/10/02, 12:42:17.353]SV,5,4,18,,73,336,20,,03,151,17,,66,358,21,,59,179,25*78
$GPGSV,5,[2024/10/02, 12:42:17.493]5,18,,26,286,16,,47,233,25*79
$GPGLL,0114.3046,N,10338.7706,E,0442[2024/10/02, 12:42:17.634]15,A,D*4E
$GPBOD,,T,,M,,*47
$GPBWC,044215,,,,,,T,,M,,N,,D*78
$G[2024/10/02, 12:42:17.775]PVTG,301.13,T,300.97,M,0.00,N,0.00,K,D*2B
$PGRME,18.04,M,25.26,M,3[2024/10/02, 12:42:17.915]1.04,M*26
$PGRMZ,-43,f,3*01
$PGRMM,WGS 84*06
$HCHDM,,M*07
$WIM[2024/10/02, 12:42:18.056]WV,,R,,,A*6D
$GPAPB,V,V,,,N,V,V,,,,,,,,N*68
$GPZDA,044215,02,10,2[2024/10/02, 12:42:18.165]024,-08,00*6C
