[2024/10/02, 13:20:22.155],-08,00*65
[2024/10/02, 13:20:22.233]$GPRMC,052021,A,0114.0180,N,10339.0137,E,3.02,126.6[2024/10/02, 13:20:22.499]7,021024,0.16,E,A*28
$GPRMB,A,,,,,,,,,,,,V,A*1C
$GPGGA,052021,011[2024/10/02, 13:20:22.639]4.0180,N,10339.0137,E,1,19,0.64,1.90,M,9.61,M,,*4A
$GPGSA,A,3,10,1[2024/10/02, 13:20:22.780]2,18,23,25,28,29,31,32,,,,1.29,0.64,1.12*07
$GPGSV,5,1,19,10,32,35[2024/10/02, 13:20:22.920]4,26,12,18,069,27,18,49,173,27,23,51,044,25*75
$GPGSV,5,2,19,25,45[2024/10/02, 13:20:23.061],102,29,28,58,258,22,29,11,149,23,31,26,229,13*7B
$GPGSV,5,3,19,32[2024/10/02, 13:20:23.202],23,329,19,,34,102,30,,43,148,22,,63,337,25*7F
$GPGSV,5,4,19,,57,0[2024/10/02, 13:20:23.342]36,25,,52,010,29,,57,353,29,,77,168,27*7B
$GPGSV,5,5,19,,42,044,29[2024/10/02, 13:20:23.483],,28,268,20,,39,213,16*45
$GPGLL,0114.0180,N,10339.0137,E,052021,A[2024/10/02, 13:20:23.623],A*43
$GPBOD,,T,,M,,*47
$GPBWC,052021,,,,,,T,,M,,N,,A*7F
$GPVTG[2024/10/02, 13:20:23.764],126.67,T,126.51,M,3.02,N,5.60,K,A*24
$PGRME,12.39,M,13.74,M,18.51[2024/10/02, 13:20:23.905],M*2B
$PGRMZ,6,f,3*1D
$PGRMM,WGS 84*06
$HCHDM,,M*07
$WIMWV,,R,[2024/10/02, 13:20:24.045],,A*6D
$GPAPB,V,V,,,N,V,V,,,,,,,,N*68
$GPZDA,052021,02,10,2024,-0[2024/10/02, 13:20:24.155]8,00*6E
[2024/10/02, 13:20:24.233]$GPRMC,052023,A,0114.0184,N,10339.0157,E,3.12,94.26[2024/10/02, 13:20:24.498],021024,0.16,E,A*14
$GPRMB,A,,,,,,,,,,,,V,A*1C
$GPGGA,052023,011[2024/10/02, 13:20:24.639]4.0184,N,10339.0157,E,1,19,0.64,6.13,M,9.61,M,,*46
$GPGSA,A,3,10,1[2024/10/02, 13:20:24.779]2,18,23,25,28,29,31,32,,,,1.29,0.64,1.12*07
$GPGSV,5,1,19,10,32,35[2024/10/02, 13:20:24.920]4,27,12,18,069,25,18,49,173,26,23,51,044,27*75
$GPGSV,5,2,19,25,45[2024/10/02, 13:20:25.061],102,29,28,58,258,18,29,11,149,19,31,26,229,13*7B
$GPGSV,5,3,19,32[2024/10/02, 13:20:25.201],23,329,20,,34,102,30,,43,148,19,,63,337,22*7A
$GPGSV,5,4,19,,57,03[2024/10/02, 13:20:25.342]6,24,,52,010,31,,57,353,29,,77,168,27*73
$GPGSV,5,5,19,,42,044,29,[2024/10/02, 13:20:25.482],28,268,25,,39,213,16*40
$GPGLL,0114.0184,N,10339.0157,E,052023,A[2024/10/02, 13:20:25.623],A*43
$GPBOD,,T,,M,,*47
$GPBWC,052023,,,,,,T,,M,,N,,A*7D
$GPVTG,[2024/10/02, 13:20:25.764]94.26,T,94.10,M,3.12,N,5.77,K,A*23
$PGRME,12.41,M,12.94,M,17.93,M[2024/10/02, 13:20:25.904]*2A
$PGRMZ,20,f,3*29
$PGRMM,WGS 84*06
$HCHDM,,M*07
$WIMWV,,R,,,[2024/10/02, 13:20:26.045]A*6D
$GPAPB,V,V,,,N,V,V,,,,,,,,N*68
$GPZDA,052023,02,10,2024,-08[2024/10/02, 13:20:26.138],00*6C
[2024/10/02, 13:20:26.217]$GPRMC,052025,A,0114.0183,N,10339.0179,E,3.[2024/10/02, 13:20:26.482]32,98.15,021024,0.16,E,A*17
$GPRMB,A,,,,,,,,,,,,V,A*1C
$GPGGA,052[2024/10/02, 13:20:26.623]025,0114.0183,N,10339.0179,E,1,19,0.64,9.38,M,9.61,M,,*4D
$GPGSA,A[2024/10/02, 13:20:26.763],3,10,12,18,23,25,28,29,31,32,,,,1.29,0.64,1.12*07
$GPGSV,5,1,19,1[2024/10/02, 13:20:26.904]0,32,354,28,12,18,069,27,18,49,173,27,23,51,044,28*76
$GPGSV,5,2,1[2024/10/02, 13:20:27.045]9,25,45,102,29,28,58,258,23,29,11,149,20,31,26,229,14*7E
$GPGSV,5,[2024/10/02, 13:20:27.185]3,19,32,23,329,22,,34,102,29,,43,148,20,,63,337,25*7D
$GPGSV,5,4,1[2024/10/02, 13:20:27.326]9,,57,036,24,,52,010,31,,57,353,29,,77,168,27*73
$GPGSV,5,5,19,,42[2024/10/02, 13:20:27.466],044,30,,28,268,24,,39,213,17*48
$GPGLL,0114.0183,N,10339.0179,E,0[2024/10/02, 13:20:27.607]52025,A,A*4E
$GPBOD,,T,,M,,*47
$GPBWC,052025,,,,,,T,,M,,N,,A*7B
[2024/10/02, 13:20:27.747]$GPVTG,98.15,T,97.99,M,3.32,N,6.15,K,A*28
$PGRME,12.43,M,12.47,M,[2024/10/02, 13:20:27.888]17.60,M*2A
$PGRMZ,31,f,3*29
$PGRMM,WGS 84*06
$HCHDM,,M*07
$WIM[2024/10/02, 13:20:28.029]WV,,R,,,A*6D
$GPAPB,V,V,,,N,V,V,,,,,,,,N*68
$GPZDA,052025,02,10,2[2024/10/02, 13:20:28.154]024,-08,00*6A
[2024/10/02, 13:20:28.232]$GPRMC,052027,A,0114.0180,N,10339.0198,E,3.50,98.0[2024/10/02, 13:20:28.497]7,021024,0.16,E,A*1E
$GPRMB,A,,,,,,,,,,,,V,A*1C
$GPGGA,052027,011[2024/10/02, 13:20:28.638]4.0180,N,10339.0198,E,1,19,0.64,12.04,M,9.61,M,,*76
$GPGSA,A,3,10,[2024/10/02, 13:20:28.778]12,18,23,25,28,29,31,32,,,,1.29,0.64,1.12*07
$GPGSV,5,1,19,10,32,3[2024/10/02, 13:20:28.919]54,24,12,18,069,26,18,49,173,25,23,51,044,28*79
$GPGSV,5,2,19,25,4[2024/10/02, 13:20:29.060]5,102,28,28,58,258,23,29,11,149,21,31,26,229,16*7C
$GPGSV,5,3,19,3[2024/10/02, 13:20:29.200]2,23,329,22,,34,102,28,,43,148,17,,63,337,27*7A
$GPGSV,5,4,19,,57,[2024/10/02, 13:20:29.341]036,22,,52,010,30,,57,353,30,,77,168,26*7D
$GPGSV,5,5,19,,42,044,3[2024/10/02, 13:20:29.481]1,,28,268,19,,39,213,16*46
$GPGLL,0114.0180,N,10339.0198,E,052027,[2024/10/02, 13:20:29.622]A,A*40
$GPBOD,,T,,M,,*47
$GPBWC,052027,,,,,,T,,M,,N,,A*79
$GPVTG[2024/10/02, 13:20:29.763],98.07,T,97.91,M,3.50,N,6.49,K,A*2E
$PGRME,12.44,M,12.23,M,17.45,[2024/10/02, 13:20:29.903]M*28
$PGRMZ,40,f,3*2F
$PGRMM,WGS 84*06
$HCHDM,,M*07
$WIMWV,,R,[2024/10/02, 13:20:30.044],,A*6D
$GPAPB,V,V,,,N,V,V,,,,,,,,N*68
$GPZDA,052027,02,10,2024,-0[2024/10/02, 13:20:30.153]8,00*68
[2024/10/02, 13:20:30.231]$GPRMC,052029,A,0114.0181,N,10339.0222,E,3.84,87.4[2024/10/02, 13:20:30.497]2,021024,0.16,E,A*15
$GPRMB,A,,,,,,,,,,,,V,A*1C
$GPGGA,052029,01[2024/10/02, 13:20:30.637]14.0181,N,10339.0222,E,1,19,0.64,15.57,M,9.61,M,,*7A
$GPGSA,A,3,10,[2024/10/02, 13:20:30.778]12,18,23,25,28,29,31,32,,,,1.29,0.64,1.12*07
$GPGSV,5,1,19,10,32,[2024/10/02, 13:20:30.919]354,27,12,18,069,26,18,49,173,24,23,51,044,26*75
$GPGSV,5,2,19,25,[2024/10/02, 13:20:31.059]45,102,26,28,58,258,22,29,11,149,21,31,26,229,19*7C
$GPGSV,5,3,19,[2024/10/02, 13:20:31.200]32,23,329,21,,34,102,26,,43,148,21,,63,337,27*72
$GPGSV,5,4,19,,57[2024/10/02, 13:20:31.340],036,25,,52,010,30,,57,353,30,,77,168,27*7B
$GPGSV,5,5,19,,42,044,3[2024/10/02, 13:20:31.481]2,,28,268,15,,39,213,14*4B
$GPGLL,0114.0181,N,10339.0222,E,052029[2024/10/02, 13:20:31.621],A,A*4D
$GPBOD,,T,,M,,*47
$GPBWC,052029,,,,,,T,,M,,N,,A*77
$GPVT[2024/10/02, 13:20:31.762]G,87.42,T,87.26,M,3.84,N,7.11,K,A*29
$PGRME,12.46,M,12.04,M,17.33,[2024/10/02, 13:20:31.903]M*2E
$PGRMZ,51,f,3*2F
$PGRMM,WGS 84*06
$HCHDM,,M*07
$WIMWV,,R,[2024/10/02, 13:20:32.043],,A*6D
$GPAPB,V,V,,,N,V,V,,,,,,,,N*68
$GPZDA,052029,02,10,2024,-[2024/10/02, 13:20:32.153]08,00*66
[2024/10/02, 13:20:32.231]$GPRMC,052031,A,0114.0181,N,10339.0245,E,3.97,90.9[2024/10/02, 13:20:32.496]8,021024,0.16,E,A*1E
$GPRMB,A,,,,,,,,,,,,V,A*1C
$GPGGA,052031,011[2024/10/02, 13:20:32.637]4.0181,N,10339.0245,E,1,19,0.64,17.78,M,9.61,M,,*7D
$GPGSA,A,3,10[2024/10/02, 13:20:32.778],12,18,23,25,28,29,31,32,,,,1.29,0.64,1.12*07
$GPGSV,5,1,19,10,32,[2024/10/02, 13:20:32.918]354,27,12,18,069,25,18,49,173,26,23,51,045,27*74
$GPGSV,5,2,19,25,[2024/10/02, 13:20:33.059]45,102,27,28,58,258,23,29,11,149,22,31,26,229,18*7E
$GPGSV,5,3,19,[2024/10/02, 13:20:33.199]32,23,329,18,,34,102,27,,43,148,20,,63,337,26*79
$GPGSV,5,4,19,,57[2024/10/02, 13:20:33.340],036,22,,52,010,30,,57,353,30,,77,168,26*7D
$GPGSV,5,5,19,,42,044,[2024/10/02, 13:20:33.480]31,,28,268,16,,39,213,13*4C
$GPGLL,0114.0181,N,10339.0245,E,052031[2024/10/02, 13:20:33.621],A,A*45
$GPBOD,,T,,M,,*47
$GPBWC,052031,,,,,,T,,M,,N,,A*7E
$GPVT[2024/10/02, 13:20:33.762]G,90.98,T,90.82,M,3.97,N,7.34,K,A*25
$PGRME,12.47,M,12.02,M,17.32[2024/10/02, 13:20:33.902],M*28
$PGRMZ,58,f,3*26
$PGRMM,WGS 84*06
$HCHDM,,M*07
$WIMWV,,R[2024/10/02, 13:20:34.043],,,A*6D
$GPAPB,V,V,,,N,V,V,,,,,,,,N*68
$GPZDA,052031,02,10,2024,-[2024/10/02, 13:20:34.152]08,00*6F
[2024/10/02, 13:20:34.230]$GPRMC,052033,A,0114.0177,N,10339.0264,E,3.89,107.[2024/10/02, 13:20:34.496]81,021024,0.16,E,A*2E
$GPRMB,A,,,,,,,,,,,,V,A*1C
$GPGGA,052033,0[2024/10/02, 13:20:34.636]114.0177,N,10339.0264,E,1,19,0.64,19.43,M,9.61,M,,*73
$GPGSA,A,3,1[2024/10/02, 13:20:34.777]0,12,18,23,25,28,29,31,32,,,,1.29,0.64,1.12*07
$GPGSV,5,1,19,10,32[2024/10/02, 13:20:34.918],354,26,12,18,069,26,18,49,173,25,23,51,045,28*7A
$GPGSV,5,2,19,25[2024/10/02, 13:20:35.058],45,102,28,28,58,258,24,29,11,149,19,31,26,229,15*73
$GPGSV,5,3,19[2024/10/02, 13:20:35.199],32,23,329,22,,34,102,28,,43,148,17,,63,337,26*7B
$GPGSV,5,4,19,,5[2024/10/02, 13:20:35.339]7,036,24,,52,010,30,,57,353,29,,77,168,26*73
$GPGSV,5,5,19,,42,044[2024/10/02, 13:20:35.480],31,,28,268,21,,39,213,19*42
$GPGLL,0114.0177,N,10339.0264,E,05203[2024/10/02, 13:20:35.620]3,A,A*4D
$GPBOD,,T,,M,,*47
$GPBWC,052033,,,,,,T,,M,,N,,A*7C
$GP[2024/10/02, 13:20:35.761]VTG,107.81,T,107.65,M,3.89,N,7.20,K,A*2E
$PGRME,12.49,M,11.97,M,17[2024/10/02, 13:20:35.902].30,M*2B
$PGRMZ,64,f,3*29
$PGRMM,WGS 84*06
$HCHDM,,M*07
$WIMWV[2024/10/02, 13:20:36.042],,R,,,A*6D
$GPAPB,V,V,,,N,V,V,,,,,,,,N*68
$GPZDA,052033,02,10,202[2024/10/02, 13:20:36.152]4,-08,00*6D
[2024/10/02, 13:20:36.230]$GPRMC,052035,A,0114.0173,N,10339.0285,E,3.92,110[2024/10/02, 13:20:36.495].03,021024,0.16,E,A*25
$GPRMB,A,,,,,,,,,,,,V,A*1C
$GPGGA,052035,0[2024/10/02, 13:20:36.636]114.0173,N,10339.0285,E,1,19,0.64,20.48,M,9.61,M,,*7F
$GPGSA,A,3,1[2024/10/02, 13:20:36.776]0,12,18,23,25,28,29,31,32,,,,1.29,0.64,1.12*07
$GPGSV,5,1,19,10,32[2024/10/02, 13:20:36.917],354,26,12,18,069,27,18,49,173,27,23,51,045,27*76
$GPGSV,5,2,19,25[2024/10/02, 13:20:37.058],45,102,28,28,58,260,21,29,11,149,21,31,26,229,15*76
$GPGSV,5,3,19[2024/10/02, 13:20:37.198],32,23,329,22,,34,102,29,,43,148,20,,63,337,22*7A
$GPGSV,5,4,19,,5[2024/10/02, 13:20:37.339]7,036,24,,52,010,30,,57,353,29,,77,168,27*72
$GPGSV,5,5,19,,42,044[2024/10/02, 13:20:37.480],31,,28,268,25,,39,213,17*48
$GPGLL,0114.0173,N,10339.0285,E,05203[2024/10/02, 13:20:37.620]5,A,A*40
$GPBOD,,T,,M,,*47
$GPBWC,052035,,,,,,T,,M,,N,,A*7A
$GPV[2024/10/02, 13:20:37.761]TG,110.03,T,109.87,M,3.92,N,7.26,K,A*2C
$PGRME,12.50,M,12.06,M,17[2024/10/02, 13:20:37.901].37,M*2F
$PGRMZ,67,f,3*2A
$PGRMM,WGS 84*06
$HCHDM,,M*07
$WIMWV,[2024/10/02, 13:20:38.042],R,,,A*6D
$GPAPB,V,V,,,N,V,V,,,,,,,,N*68
$GPZDA,052035,02,10,202[2024/10/02, 13:20:38.151]4,-08,00*6B
[2024/10/02, 13:20:38.229]$GPRMC,052037,A,0114.0167,N,10339.0305,E,4.02,108[2024/10/02, 13:20:38.495].71,021024,0.16,E,A*29
$GPRMB,A,,,,,,,,,,,,V,A*1C
$GPGGA,052037,0[2024/10/02, 13:20:38.635]114.0167,N,10339.0305,E,1,19,0.64,21.48,M,9.61,M,,*70
$GPGSA,A,3,1[2024/10/02, 13:20:38.776]0,12,18,23,25,28,29,31,32,,,,1.29,0.64,1.12*07
$GPGSV,5,1,19,10,32[2024/10/02, 13:20:38.917],354,24,12,18,069,27,18,49,173,27,23,51,045,25*76
$GPGSV,5,2,19,25[2024/10/02, 13:20:39.057],45,102,28,28,58,260,22,29,11,148,21,31,26,229,15*74
$GPGSV,5,3,19[2024/10/02, 13:20:39.198],32,23,329,18,,34,102,29,,43,148,24,,63,337,24*71
$GPGSV,5,4,19,,5[2024/10/02, 13:20:39.338]7,036,24,,52,010,30,,57,353,29,,77,168,26*73
$GPGSV,5,5,19,,42,044[2024/10/02, 13:20:39.479],31,,28,268,22,,39,213,19*41
$GPGLL,0114.0167,N,10339.0305,E,0520[2024/10/02, 13:20:39.620]37,A,A*4E
$GPBOD,,T,,M,,*47
$GPBWC,052037,,,,,,T,,M,,N,,A*78
$G[2024/10/02, 13:20:39.760]PVTG,108.71,T,108.55,M,4.02,N,7.45,K,A*25
$PGRME,12.51,M,12.20,M,1[2024/10/02, 13:20:39.901]7.47,M*2D
$PGRMZ,70,f,3*2C
$PGRMM,WGS 84*06
$HCHDM,,M*07
$WIM[2024/10/02, 13:20:40.041]WV,,R,,,A*6D
$GPAPB,V,V,,,N,V,V,,,,,,,,N*68
$GPZDA,052037,02,10,2[2024/10/02, 13:20:40.151]024,-08,00*69
[2024/10/02, 13:20:40.229]$GPRMC,052039,A,0114.0161,N,10339.0326,E,4.03,110[2024/10/02, 13:20:40.495].70,021024,0.16,E,A*29
$GPRMB,A,,,,,,,,,,,,V,A*1C
$GPGGA,052039,0[2024/10/02, 13:20:40.635]114.0161,N,10339.0326,E,1,19,0.64,21.54,M,9.61,M,,*74
$GPGSA,A,3,1[2024/10/02, 13:20:40.776]0,12,18,23,25,28,29,31,32,,,,1.29,0.64,1.12*07
$GPGSV,5,1,19,10,32[2024/10/02, 13:20:40.916],354,26,12,18,069,27,18,49,173,28,23,51,045,26*78
$GPGSV,5,2,19,25[2024/10/02, 13:20:41.057],45,102,29,28,58,260,22,29,11,148,19,31,26,229,15*7E
$GPGSV,5,3,19[2024/10/02, 13:20:41.197],32,23,330,16,,34,102,30,,43,148,20,,63,337,22*7D
$GPGSV,5,4,19,,5[2024/10/02, 13:20:41.338]7,036,25,,52,010,29,,57,353,28,,77,168,27*7A
$GPGSV,5,5,19,,42,044[2024/10/02, 13:20:41.479],30,,28,268,18,,39,213,19*49
$GPGLL,0114.0161,N,10339.0326,E,05203[2024/10/02, 13:20:41.619]9,A,A*47
$GPBOD,,T,,M,,*47
$GPBWC,052039,,,,,,T,,M,,N,,A*76
$GP[2024/10/02, 13:20:41.760]VTG,110.70,T,110.54,M,4.03,N,7.46,K,A*27
$PGRME,12.52,M,12.75,M,17[2024/10/02, 13:20:41.900].87,M*22
$PGRMZ,71,f,3*2D
$PGRMM,WGS 84*06
$HCHDM,,M*07
$WIMWV[2024/10/02, 13:20:42.041],,R,,,A*6D
$GPAPB,V,V,,,N,V,V,,,,,,,,N*68
$GPZDA,052039,02,10,202[2024/10/02, 13:20:42.150]4,-08,00*67
[2024/10/02, 13:20:42.228]$GPRMC,052041,A,0114.0153,N,10339.0350,E,4.14,114[2024/10/02, 13:20:42.494].19,021024,0.16,E,A*2B
$GPRMB,A,,,,,,,,,,,,V,A*1C
$GPGGA,052041,0[2024/10/02, 13:20:42.634]114.0153,N,10339.0350,E,1,19,0.64,21.66,M,9.61,M,,*7A
$GPGSA,A,3,1[2024/10/02, 13:20:42.775]0,12,18,23,25,28,29,31,32,,,,1.29,0.64,1.12*07
$GPGSV,5,1,19,10,32[2024/10/02, 13:20:42.916],354,23,12,18,069,26,18,49,173,28,23,51,045,24*7E
$GPGSV,5,2,19,25[2024/10/02, 13:20:43.056],45,102,29,28,58,260,23,29,11,148,20,31,26,229,13*73
$GPGSV,5,3,19[2024/10/02, 13:20:43.197],32,23,330,16,,35,102,30,,43,148,23,,63,337,22*7F
$GPGSV,5,4,19,,5[2024/10/02, 13:20:43.337]7,036,26,,52,010,29,,57,353,28,,77,168,26*78
$GPGSV,5,5,19,,42,044[2024/10/02, 13:20:43.478],27,,28,268,14,,39,213,16*4C
$GPGLL,0114.0153,N,10339.0350,E,05204[2024/10/02, 13:20:43.619]1,A,A*48
$GPBOD,,T,,M,,*47
$GPBWC,052041,,,,,,T,,M,,N,,A*79
$GP[2024/10/02, 13:20:43.759]VTG,114.19,T,114.03,M,4.14,N,7.67,K,A*2F
$PGRME,12.53,M,12.94,M,18[2024/10/02, 13:20:43.900].01,M*2D
$PGRMZ,71,f,3*2D
$PGRMM,WGS 84*06
$HCHDM,,M*07
$WIMWV[2024/10/02, 13:20:44.040],,R,,,A*6D
$GPAPB,V,V,,,N,V,V,,,,,,,,N*68
$GPZDA,052041,02,10,202[2024/10/02, 13:20:44.150]4,-08,00*68
[2024/10/02, 13:20:44.228]$GPRMC,052043,A,0114.0144,N,10339.0370,E,4.21,116[2024/10/02, 13:20:44.494].46,021024,0.16,E,A*23
$GPRMB,A,,,,,,,,,,,,V,A*1C
$GPGGA,052043,[2024/10/02, 13:20:44.634]0114.0144,N,10339.0370,E,1,19,0.64,21.79,M,9.61,M,,*72
$GPGSA,A,3,[2024/10/02, 13:20:44.775]10,12,18,23,25,28,29,31,32,,,,1.29,0.64,1.12*07
$GPGSV,5,1,19,10,3[2024/10/02, 13:20:44.915]2,354,25,12,18,069,26,18,49,173,28,23,51,045,22*7E
$GPGSV,5,2,19,2[2024/10/02, 13:20:45.056]5,45,102,30,28,58,260,23,29,11,148,21,31,26,229,14*7D
$GPGSV,5,3,1[2024/10/02, 13:20:45.196]9,32,23,330,17,,35,102,30,,42,148,21,,63,337,24*7B
$GPGSV,5,4,19,,[2024/10/02, 13:20:45.337]57,036,25,,52,010,29,,57,353,27,,77,168,25*77
$GPGSV,5,5,19,,42,044[2024/10/02, 13:20:45.478],27,,28,268,14,,39,213,15*4F
$GPGLL,0114.0144,N,10339.0370,E,0520[2024/10/02, 13:20:45.618]43,A,A*4E
$GPBOD,,T,,M,,*47
$GPBWC,052043,,,,,,T,,M,,N,,A*7B
$GP[2024/10/02, 13:20:45.759]VTG,116.46,T,116.30,M,4.21,N,7.81,K,A*2B
$PGRME,12.55,M,13.32,M,18[2024/10/02, 13:20:45.899].31,M*25
$PGRMZ,71,f,3*2D
$PGRMM,WGS 84*06
$HCHDM,,M*07
$WIMWV[2024/10/02, 13:20:46.040],,R,,,A*6D
$GPAPB,V,V,,,N,V,V,,,,,,,,N*68
$GPZDA,052043,02,10,20[2024/10/02, 13:20:46.149]24,-08,00*6A
[2024/10/02, 13:20:46.227]$GPRMC,052045,A,0114.0136,N,10339.0387,E,4.09,11[2024/10/02, 13:20:46.493]1.75,021024,0.16,E,A*25
$GPRMB,A,,,,,,,,,,,,V,A*1C
$GPGGA,052045,[2024/10/02, 13:20:46.634]0114.0136,N,10339.0387,E,1,19,0.64,21.88,M,9.61,M,,*77
$GPGSA,A,3,[2024/10/02, 13:20:46.774]10,12,18,23,25,28,29,31,32,,,,1.29,0.64,1.12*07
$GPGSV,5,1,19,10,3[2024/10/02, 13:20:46.915]2,354,23,12,18,069,25,18,49,173,28,23,51,045,22*7B
$GPGSV,5,2,19,2[2024/10/02, 13:20:47.055]5,45,102,30,28,58,260,19,29,11,148,19,31,26,229,15*7E
$GPGSV,5,3,1[2024/10/02, 13:20:47.196]9,32,23,330,16,,35,102,30,,42,148,20,,63,337,23*7C
$GPGSV,5,4,19,,[2024/10/02, 13:20:47.337]57,036,25,,52,010,29,,57,353,27,,77,168,25*77
$GPGSV,5,5,19,,42,04[2024/10/02, 13:20:47.477]4,28,,28,268,14,,39,213,14*41
$GPGLL,0114.0136,N,10339.0387,E,0520[2024/10/02, 13:20:47.618]45,A,A*45
$GPBOD,,T,,M,,*47
$GPBWC,052045,,,,,,T,,M,,N,,A*7D
$GP[2024/10/02, 13:20:47.758]VTG,111.75,T,111.59,M,4.09,N,7.58,K,A*2A
$PGRME,12.57,M,13.63,M,1[2024/10/02, 13:20:47.899]8.54,M*20
$PGRMZ,72,f,3*2E
$PGRMM,WGS 84*06
$HCHDM,,M*07
$WIMW[2024/10/02, 13:20:48.039]V,,R,,,A*6D
$GPAPB,V,V,,,N,V,V,,,,,,,,N*68
$GPZDA,052045,02,10,20[2024/10/02, 13:20:48.149]24,-08,00*6C
[2024/10/02, 13:20:48.227]$GPRMC,052047,A,0114.0124,N,10339.0405,E,3.89,12[2024/10/02, 13:20:48.493]1.74,021024,0.16,E,A*24
$GPRMB,A,,,,,,,,,,,,V,A*1C
$GPGGA,052047,[2024/10/02, 13:20:48.633]0114.0124,N,10339.0405,E,1,19,0.64,21.65,M,9.61,M,,*78
$GPGSA,A,3,[2024/10/02, 13:20:48.774]10,12,18,23,25,28,29,31,32,,,,1.29,0.64,1.12*07
$GPGSV,5,1,19,10,3[2024/10/02, 13:20:48.914]2,354,22,12,18,069,25,18,49,173,27,23,51,045,24*73
$GPGSV,5,2,19,2[2024/10/02, 13:20:49.055]5,45,102,30,28,58,260,23,29,11,148,20,31,26,229,15*7D
$GPGSV,5,3,1[2024/10/02, 13:20:49.195]9,32,23,330,18,,35,102,30,,42,148,22,,63,337,23*70
$GPGSV,5,4,19,,[2024/10/02, 13:20:49.336]57,036,26,,52,010,30,,57,353,27,,77,168,27*7E
$GPGSV,5,5,19,,42,04[2024/10/02, 13:20:49.477]4,27,,28,268,13,,39,213,14*49
$GPGLL,0114.0124,N,10339.0405,E,0520[2024/10/02, 13:20:49.617]47,A,A*49
$GPBOD,,T,,M,,*47
$GPBWC,052047,,,,,,T,,M,,N,,A*7F
$G[2024/10/02, 13:20:49.758]PVTG,121.74,T,121.58,M,3.89,N,7.21,K,A*2B
$PGRME,12.59,M,14.09,M,1[2024/10/02, 13:20:49.898]8.90,M*2D
$PGRMZ,71,f,3*2D
$PGRMM,WGS 84*06
$HCHDM,,M*07
$WIMW[2024/10/02, 13:20:50.039]V,,R,,,A*6D
$GPAPB,V,V,,,N,V,V,,,,,,,,N*68
$GPZDA,052047,02,10,20[2024/10/02, 13:20:50.148]24,-08,00*6E
[2024/10/02, 13:20:50.227]$GPRMC,052049,A,0114.0120,N,10339.0425,E,3.75,10[2024/10/02, 13:20:50.492]7.59,021024,0.16,E,A*24
$GPRMB,A,,,,,,,,,,,,V,A*1C
$GPGGA,052049,[2024/10/02, 13:20:50.633]0114.0120,N,10339.0425,E,1,19,0.64,22.73,M,9.61,M,,*74
$GPGSA,A,3[2024/10/02, 13:20:50.773],10,12,18,23,25,28,29,31,32,,,,1.29,0.64,1.12*07
$GPGSV,5,1,19,10,[2024/10/02, 13:20:50.914]32,354,24,12,18,069,25,18,49,173,27,23,51,045,24*75
$GPGSV,5,2,19,[2024/10/02, 13:20:51.054]25,45,102,30,28,58,260,23,29,11,148,18,31,26,229,14*77
$GPGSV,5,3,[2024/10/02, 13:20:51.195]19,32,23,330,14,,35,102,30,,42,148,21,,63,337,21*7D
$GPGSV,5,4,19,[2024/10/02, 13:20:51.336],57,036,24,,52,010,28,,57,353,28,,77,168,25*78
$GPGSV,5,5,19,,42,0[2024/10/02, 13:20:51.476]44,31,,28,268,14,,39,213,18*45
$GPGLL,0114.0120,N,10339.0425,E,052[2024/10/02, 13:20:51.617]049,A,A*41
$GPBOD,,T,,M,,*47
$GPBWC,052049,,,,,,T,,M,,N,,A*71
$G[2024/10/02, 13:20:51.757]PVTG,107.59,T,107.43,M,3.75,N,6.94,K,A*22
$PGRME,12.62,M,14.19,M,[2024/10/02, 13:20:51.898]18.99,M*2D
$PGRMZ,75,f,3*29
$PGRMM,WGS 84*06
$HCHDM,,M*07
$WIMW[2024/10/02, 13:20:52.038]V,,R,,,A*6D
$GPAPB,V,V,,,N,V,V,,,,,,,,N*68
$GPZDA,052049,02,10,2[2024/10/02, 13:20:52.148]024,-08,00*60
[2024/10/02, 13:20:52.226]$GPRMC,052051,A,0114.0112,N,10339.0441,E,3.66,10[2024/10/02, 13:20:52.492]5.91,021024,0.16,E,A*2A
$GPRMB,A,,,,,,,,,,,,V,A*1C
$GPGGA,052051,[2024/10/02, 13:20:52.632]0114.0112,N,10339.0441,E,1,19,0.64,24.07,M,9.61,M,,*7B
$GPGSA,A,3[2024/10/02, 13:20:52.773],10,12,18,23,25,28,29,31,32,,,,1.29,0.64,1.12*07
$GPGSV,5,1,19,10,3[2024/10/02, 13:20:52.913]2,354,26,12,18,069,27,18,49,173,28,23,51,045,26*78
$GPGSV,5,2,19,2[2024/10/02, 13:20:53.054]5,45,102,29,28,58,260,23,29,11,148,22,31,26,229,14*76
$GPGSV,5,3,1[2024/10/02, 13:20:53.194]9,32,23,330,17,,35,102,30,,42,148,24,,63,337,26*7C
$GPGSV,5,4,19,,[2024/10/02, 13:20:53.335]58,036,22,,52,010,29,,57,353,29,,77,168,26*72
$GPGSV,5,5,19,,42,04[2024/10/02, 13:20:53.476]4,30,,28,268,20,,39,213,17*4C
$GPGLL,0114.0112,N,10339.0441,E,0520[2024/10/02, 13:20:53.616]51,A,A*4B
$GPBOD,,T,,M,,*47
$GPBWC,052051,,,,,,T,,M,,N,,A*78
$G[2024/10/02, 13:20:53.757]PVTG,105.91,T,105.75,M,3.66,N,6.77,K,A*2C
$PGRME,12.64,M,13.55,M,1[2024/10/02, 13:20:53.898]8.53,M*22
$PGRMZ,79,f,3*25
$PGRMM,WGS 84*06
$HCHDM,,M*07
$WIMW[2024/10/02, 13:20:54.038]V,,R,,,A*6D
$GPAPB,V,V,,,N,V,V,,,,,,,,N*68
$GPZDA,052051,02,10,2[2024/10/02, 13:20:54.147]024,-08,00*69
[2024/10/02, 13:20:54.226]$GPRMC,052053,A,0114.0102,N,10339.0456,E,3.64,11[2024/10/02, 13:20:54.491]9.36,021024,0.16,E,A*2D
$GPRMB,A,,,,,,,,,,,,V,A*1C
$GPGGA,052053[2024/10/02, 13:20:54.632],0114.0102,N,10339.0456,E,1,19,0.64,24.74,M,9.61,M,,*7A
$GPGSA,A,3[2024/10/02, 13:20:54.772],10,12,18,23,25,28,29,31,32,,,,1.29,0.64,1.12*07
$GPGSV,5,1,19,10,[2024/10/02, 13:20:54.913]32,354,26,12,18,069,28,18,49,173,27,23,51,045,27*79
$GPGSV,5,2,19,[2024/10/02, 13:20:55.054]25,45,102,28,28,58,260,20,29,11,148,19,31,26,229,14*7C
$GPGSV,5,3,[2024/10/02, 13:20:55.194]19,32,23,330,17,,35,102,29,,42,148,19,,63,337,25*79
$GPGSV,5,4,19,[2024/10/02, 13:20:55.335],58,036,22,,52,010,29,,57,353,29,,77,168,25*71
$GPGSV,5,5,19,,42,0[2024/10/02, 13:20:55.475]44,30,,28,268,22,,39,213,23*49
$GPGLL,0114.0102,N,10339.0456,E,052[2024/10/02, 13:20:55.616]053,A,A*4E
$GPBOD,,T,,M,,*47
$GPBWC,052053,,,,,,T,,M,,N,,A*7A
$[2024/10/02, 13:20:55.756]GPVTG,119.36,T,119.20,M,3.64,N,6.75,K,A*21
$PGRME,12.66,M,13.34,M,[2024/10/02, 13:20:55.897]18.39,M*2B
$PGRMZ,81,f,3*22
$PGRMM,WGS 84*06
$HCHDM,,M*07
$WIM[2024/10/02, 13:20:56.038]WV,,R,,,A*6D
$GPAPB,V,V,,,N,V,V,,,,,,,,N*68
$GPZDA,052053,02,10,2[2024/10/02, 13:20:56.147]024,-08,00*6B
[2024/10/02, 13:20:56.225]$GPRMC,052055,A,0114.0094,N,10339.0473,E,3.69,1[2024/10/02, 13:20:56.491]17.57,021024,0.16,E,A*26
$GPRMB,A,,,,,,,,,,,,V,A*1C
$GPGGA,052055[2024/10/02, 13:20:56.631],0114.0094,N,10339.0473,E,1,19,0.64,26.08,M,9.61,M,,*7C
$GPGSA,A,3[2024/10/02, 13:20:56.772],10,12,18,23,25,28,29,31,32,,,,1.29,0.64,1.12*07
$GPGSV,5,1,19,10,[2024/10/02, 13:20:56.912]32,354,27,12,18,069,24,18,49,173,23,23,51,045,26*71
$GPGSV,5,2,19,[2024/10/02, 13:20:57.053]25,45,102,27,28,58,260,24,29,11,148,22,31,26,229,14*7F
$GPGSV,5,3,[2024/10/02, 13:20:57.194]19,32,23,330,22,,35,102,28,,42,148,18,,63,337,25*7F
$GPGSV,5,4,19,[2024/10/02, 13:20:57.334],58,036,24,,53,010,30,,57,353,29,,77,168,26*7D
$GPGSV,5,5,19,,42,0[2024/10/02, 13:20:57.475]44,31,,28,268,21,,39,213,17*4C
$GPGLL,0114.0094,N,10339.0473,E,052[2024/10/02, 13:20:57.615]055,A,A*41
$GPBOD,,T,,M,,*47
$GPBWC,052055,,,,,,T,,M,,N,,A*7C
$[2024/10/02, 13:20:57.756]GPVTG,117.57,T,117.41,M,3.69,N,6.83,K,A*25
$PGRME,12.68,M,12.98,M,[2024/10/02, 13:20:57.897]18.14,M*2D
$PGRMZ,86,f,3*25
$PGRMM,WGS 84*06
$HCHDM,,M*07
$WIM[2024/10/02, 13:20:58.037]WV,,R,,,A*6D
$GPAPB,V,V,,,N,V,V,,,,,,,,N*68
$GPZDA,052055,02,10,2[2024/10/02, 13:20:58.162]024,-08,00*6D
[2024/10/02, 13:20:58.240]$GPRMC,052057,A,0114.0093,N,10339.0495,E,3.85,97.22,021[2024/10/02, 13:20:58.506]024,0.16,E,A*12
$GPRMB,A,,,,,,,,,,,,V,A*1C
$GPGGA,052057,0114.00[2024/10/02, 13:20:58.646]93,N,10339.0495,E,1,19,0.64,26.96,M,9.62,M,,*75
$GPGSA,A,3,10,12,1[2024/10/02, 13:20:58.787]8,23,25,28,29,31,32,,,,1.29,0.64,1.12*07
$GPGSV,5,1,19,10,32,354,2[2024/10/02, 13:20:58.927]8,12,18,069,26,18,49,173,25,23,51,045,28*74
$GPGSV,5,2,19,25,45,10[2024/10/02, 13:20:59.068]2,28,28,58,260,23,29,11,148,21,31,26,229,14*74
$GPGSV,5,3,19,32,23[2024/10/02, 13:20:59.209],330,21,,35,102,28,,42,148,18,,63,337,26*7F
$GPGSV,5,4,19,,58,036,[2024/10/02, 13:20:59.349]23,,53,010,30,,57,353,29,,77,168,25*79
$GPGSV,5,5,19,,42,044,31,,28[2024/10/02, 13:20:59.490],268,20,,39,213,19*43
$GPGLL,0114.0093,N,10339.0495,E,052057,A,A*[2024/10/02, 13:20:59.631]4C
$GPBOD,,T,,M,,*47
$GPBWC,052057,,,,,,T,,M,,N,,A*7E
$GPVTG,97.[2024/10/02, 13:20:59.771]22,T,97.06,M,3.85,N,7.13,K,A*2E
$PGRME,12.69,M,12.71,M,17.96,M*2E[2024/10/02, 13:20:59.912]
$PGRMZ,88,f,3*2B
$PGRMM,WGS 84*06
$HCHDM,,M*07
$WIMWV,,R,,,A*6[2024/10/02, 13:21:00.052]D
$GPAPB,V,V,,,N,V,V,,,,,,,,N*68
$GPZDA,052057,02,10,2024,-08,00[2024/10/02, 13:21:00.146]*6F
[2024/10/02, 13:21:00.224]$GPRMC,052059,A,0114.0086,N,10339.0516,E,3.87,9[2024/10/02, 13:21:00.490]9.07,021024,0.16,E,A*19
$GPRMB,A,,,,,,,,,,,,V,A*1C
$GPGGA,052059,[2024/10/02, 13:21:00.630]0114.0086,N,10339.0516,E,1,19,0.64,27.58,M,9.62,M,,*76
$GPGSA,A,3[2024/10/02, 13:21:00.771],10,12,18,23,25,28,29,31,32,,,,1.29,0.64,1.12*07
$GPGSV,5,1,19,10,[2024/10/02, 13:21:00.911]32,354,27,12,18,069,27,18,49,173,25,23,51,045,28*7A
$GPGSV,5,2,19,[2024/10/02, 13:21:01.052]25,45,102,28,28,58,260,23,29,11,148,19,31,26,229,16*7D
$GPGSV,5,3,[2024/10/02, 13:21:01.193]19,32,23,330,24,,35,102,28,,42,148,16,,63,337,26*74
$GPGSV,5,4,19,[2024/10/02, 13:21:01.333],58,036,24,,53,010,30,,57,353,29,,77,168,25*7E
$GPGSV,5,5,19,,42,0[2024/10/02, 13:21:01.474]44,31,,28,268,20,,39,213,17*4D
$GPGLL,0114.0086,N,10339.0516,E,052[2024/10/02, 13:21:01.614]059,A,A*4C
$GPBOD,,T,,M,,*47
$GPBWC,052059,,,,,,T,,M,,N,,A*70
$[2024/10/02, 13:21:01.755]GPVTG,99.07,T,98.91,M,3.87,N,7.17,K,A*20
$PGRME,12.70,M,12.69,M,17[2024/10/02, 13:21:01.896].96,M*2F
$PGRMZ,91,f,3*23
$PGRMM,WGS 84*06
$HCHDM,,M*07
$WIMWV[2024/10/02, 13:21:02.036],,R,,,A*6D
$GPAPB,V,V,,,N,V,V,,,,,,,,N*68
$GPZDA,052059,02,10,202[2024/10/02, 13:21:02.146]4,-08,00*61
[2024/10/02, 13:21:02.224]$GPRMC,052101,A,0114.0078,N,10339.0536,E,3.91,1[2024/10/02, 13:21:02.489]00.31,021024,0.16,E,A*25
$GPRMB,A,,,,,,,,,,,,V,A*1C
$GPGGA,052101[2024/10/02, 13:21:02.630],0114.0078,N,10339.0536,E,1,19,0.64,27.46,M,9.62,M,,*76
$GPGSA,A,[2024/10/02, 13:21:02.770]3,10,12,18,23,25,28,29,31,32,,,,1.29,0.64,1.12*07
$GPGSV,5,1,19,10[2024/10/02, 13:21:02.911],32,354,27,12,18,069,25,18,49,173,24,23,51,045,28*79
$GPGSV,5,2,19[2024/10/02, 13:21:03.052],25,45,102,27,28,58,260,22,29,11,148,18,31,26,229,16*72
$GPGSV,5,3[2024/10/02, 13:21:03.192],19,32,23,330,22,,35,102,28,,42,148,18,,63,337,23*79
$GPGSV,5,4,19[2024/10/02, 13:21:03.333],,58,036,24,,53,010,29,,57,353,29,,77,168,26*75
$GPGSV,5,5,19,,42,[2024/10/02, 13:21:03.473]044,31,,28,268,20,,39,213,19*43
$GPGLL,0114.0078,N,10339.0536,E,05[2024/10/02, 13:21:03.614]2101,A,A*43
$GPBOD,,T,,M,,*47
$GPBWC,052101,,,,,,T,,M,,N,,A*7C
$[2024/10/02, 13:21:03.755]GPVTG,100.31,T,100.15,M,3.91,N,7.25,K,A*2E
$PGRME,12.72,M,12.97,M[2024/10/02, 13:21:03.895],18.17,M*2A
$PGRMZ,90,f,3*22
$PGRMM,WGS 84*06
$HCHDM,,M*07
$WI[2024/10/02, 13:21:04.036]MWV,,R,,,A*6D
$GPAPB,V,V,,,N,V,V,,,,,,,,N*68
$GPZDA,052101,02,10,[2024/10/02, 13:21:04.161]2024,-08,00*6D
[2024/10/02, 13:21:04.239]$GPRMC,052103,A,0114.0068,N,10339.0554,E,4.05,117.51,0[2024/10/02, 13:21:04.504]21024,0.16,E,A*28
$GPRMB,A,,,,,,,,,,,,V,A*1C
$GPGGA,052103,0114.0[2024/10/02, 13:21:04.645]068,N,10339.0554,E,1,19,0.64,27.29,M,9.62,M,,*78
$GPGSA,A,3,10,12[2024/10/02, 13:21:04.785],18,23,25,28,29,31,32,,,,1.29,0.64,1.12*07
$GPGSV,5,1,19,10,32,354[2024/10/02, 13:21:04.926],27,12,18,069,26,18,49,173,26,23,51,045,28*78
$GPGSV,5,2,19,25,45,[2024/10/02, 13:21:05.067]102,28,28,58,260,23,29,11,148,18,31,26,229,17*7D
$GPGSV,5,3,19,32,[2024/10/02, 13:21:05.207]23,330,23,,35,102,28,,42,148,18,,63,337,26*7D
$GPGSV,5,4,19,,58,03[2024/10/02, 13:21:05.348]6,24,,53,010,29,,57,353,29,,77,168,25*76
$GPGSV,5,5,19,,42,044,31,[2024/10/02, 13:21:05.488],28,268,21,,39,213,19*42
$GPGLL,0114.0068,N,10339.0554,E,052103,A,[2024/10/02, 13:21:05.629]A*44
$GPBOD,,T,,M,,*47
$GPBWC,052103,,,,,,T,,M,,N,,A*7E
$GPVTG[2024/10/02, 13:21:05.770],117.51,T,117.35,M,4.05,N,7.50,K,A*22
$PGRME,12.73,M,12.80,M,18.0[2024/10/02, 13:21:05.910]5,M*2E
$PGRMZ,90,f,3*22
$PGRMM,WGS 84*06
$HCHDM,,M*07
$WIMWV,,R[2024/10/02, 13:21:06.051],,,A*6D
$GPAPB,V,V,,,N,V,V,,,,,,,,N*68
$GPZDA,052103,02,10,2024,[2024/10/02, 13:21:06.160]-08,00*6F
[2024/10/02, 13:21:06.238]$GPRMC,052105,A,0114.0064,N,10339.0575,E,4.03,115.55,0[2024/10/02, 13:21:06.504]21024,0.16,E,A*21
$GPRMB,A,,,,,,,,,,,,V,A*1C
$GPGGA,052105,0114.[2024/10/02, 13:21:06.645]0064,N,10339.0575,E,1,19,0.64,27.43,M,9.62,M,,*7D
$GPGSA,A,3,10,12[2024/10/02, 13:21:06.785],18,23,25,28,29,31,32,,,,1.29,0.64,1.12*07
$GPGSV,5,1,19,10,32,354[2024/10/02, 13:21:06.926],28,12,18,069,25,18,49,173,25,23,51,045,28*77
$GPGSV,5,2,19,25,45,1[2024/10/02, 13:21:07.066]02,28,28,58,260,24,29,11,148,21,31,26,229,17*70
$GPGSV,5,3,19,32,2[2024/10/02, 13:21:07.207]3,330,25,,35,102,28,,42,148,19,,63,337,26*7A
$GPGSV,5,4,19,,58,036[2024/10/02, 13:21:07.347],25,,53,010,29,,57,353,29,,77,168,26*74
$GPGSV,5,5,19,,42,044,31,,[2024/10/02, 13:21:07.488]28,268,22,,39,213,16*4E
$GPGLL,0114.0064,N,10339.0575,E,052105,A,A[2024/10/02, 13:21:07.629]*4D
$GPBOD,,T,,M,,*47
$GPBWC,052105,,,,,,T,,M,,N,,A*78
$GPVTG,1[2024/10/02, 13:21:07.769]15.55,T,115.39,M,4.03,N,7.46,K,A*2B
$PGRME,12.73,M,11.93,M,17.45,M[2024/10/02, 13:21:07.910]*24
$PGRMZ,90,f,3*22
$PGRMM,WGS 84*06
$HCHDM,,M*07
$WIMWV,,R,,[2024/10/02, 13:21:08.050],A*6D
$GPAPB,V,V,,,N,V,V,,,,,,,,N*68
$GPZDA,052105,02,10,2024,-08[2024/10/02, 13:21:08.160],00*69
[2024/10/02, 13:21:08.238]$GPRMC,052107,A,0114.0065,N,10339.0600,E,4.10,96.26,02[2024/10/02, 13:21:08.503]1024,0.16,E,A*1F
$GPRMB,A,,,,,,,,,,,,V,A*1C
$GPGGA,052107,0114.0[2024/10/02, 13:21:08.644]065,N,10339.0600,E,1,19,0.64,28.39,M,9.62,M,,*7D
$GPGSA,A,3,10,12,[2024/10/02, 13:21:08.785]18,23,25,28,29,31,32,,,,1.29,0.64,1.12*07
$GPGSV,5,1,19,10,32,354,[2024/10/02, 13:21:08.925]28,12,18,069,24,18,49,173,25,23,51,045,28*76
$GPGSV,5,2,19,25,45,1[2024/10/02, 13:21:09.066]02,28,28,58,260,24,29,11,148,21,31,26,229,16*71
$GPGSV,5,3,19,32,2[2024/10/02, 13:21:09.207]3,330,18,,35,102,28,,42,148,18,,63,337,27*74
$GPGSV,5,4,19,,58,036[2024/10/02, 13:21:09.347],25,,53,010,30,,57,353,29,,77,168,26*7C
$GPGSV,5,5,19,,41,044,31,,[2024/10/02, 13:21:09.488]28,268,22,,39,213,16*4D
$GPGLL,0114.0065,N,10339.0600,E,052107,A,A[2024/10/02, 13:21:09.628]*4F
$GPBOD,,T,,M,,*47
$GPBWC,052107,,,,,,T,,M,,N,,A*7A
$GPVTG,96[2024/10/02, 13:21:09.769].26,T,96.10,M,4.10,N,7.59,K,A*28
$PGRME,12.74,M,11.44,M,17.12,M*2[2024/10/02, 13:21:09.909]B
$PGRMZ,93,f,3*21
$PGRMM,WGS 84*06
$HCHDM,,M*07
$WIMWV,,R,,,A*[2024/10/02, 13:21:10.050]6D
$GPAPB,V,V,,,N,V,V,,,,,,,,N*68
$GPZDA,052107,02,10,2024,-08,0[2024/10/02, 13:21:10.144]0*6B
[2024/10/02, 13:21:10.222]$GPRMC,052109,A,0114.0058,N,10339.0624,E,4.08,[2024/10/02, 13:21:10.487]112.77,021024,0.16,E,A*29
$GPRMB,A,,,,,,,,,,,,V,A*1C
$GPGGA,05210[2024/10/02, 13:21:10.628]9,0114.0058,N,10339.0624,E,1,19,0.64,27.59,M,9.62,M,,*72
$GPGSA,A,[2024/10/02, 13:21:10.768]3,10,12,18,23,25,28,29,31,32,,,,1.29,0.64,1.12*07
$GPGSV,5,1,19,1[2024/10/02, 13:21:10.909]0,32,354,28,12,18,069,27,18,49,173,25,23,51,045,27*7A
$GPGSV,5,2,1[2024/10/02, 13:21:11.050]9,25,45,102,28,28,58,260,23,29,11,148,22,31,26,229,20*70
$GPGSV,5,[2024/10/02, 13:21:11.190]3,19,32,23,330,20,,35,102,26,,42,148,21,,63,337,27*7B
$GPGSV,5,4,1[2024/10/02, 13:21:11.331]9,,58,036,25,,53,010,30,,57,353,30,,77,168,26*74
$GPGSV,5,5,19,,41[2024/10/02, 13:21:11.471],044,31,,28,267,15,,39,213,16*46
$GPGLL,0114.0058,N,10339.0624,E,0[2024/10/02, 13:21:11.612]52109,A,A*49
$GPBOD,,T,,M,,*47
$GPBWC,052109,,,,,,T,,M,,N,,A*74
[2024/10/02, 13:21:11.753]$GPVTG,112.77,T,112.61,M,4.08,N,7.56,K,A*2C
$PGRME,12.74,M,11.45,[2024/10/02, 13:21:11.893]M,17.13,M*2B
$PGRMZ,91,f,3*23
$PGRMM,WGS 84*06
$HCHDM,,M*07
$WI[2024/10/02, 13:21:12.034]MWV,,R,,,A*6D
$GPAPB,V,V,,,N,V,V,,,,,,,,N*68
$GPZDA,052109,02,10[2024/10/02, 13:21:12.159],2024,-08,00*65
[2024/10/02, 13:21:12.237]$GPRMC,052111,A,0114.0052,N,10339.0643,E,4.00,113.73,[2024/10/02, 13:21:12.503]021024,0.16,E,A*26
$GPRMB,A,,,,,,,,,,,,V,A*1C
$GPGGA,052111,0114.[2024/10/02, 13:21:12.643]0052,N,10339.0643,E,1,19,0.64,27.80,M,9.62,M,,*74
$GPGSA,A,3,10,1[2024/10/02, 13:21:12.784]2,18,23,25,28,29,31,32,,,,1.29,0.64,1.12*07
$GPGSV,5,1,19,10,32,35[2024/10/02, 13:21:12.924]4,29,12,18,069,24,18,49,173,25,23,51,045,27*78
$GPGSV,5,2,19,25,45[2024/10/02, 13:21:13.065],102,26,28,58,260,22,29,11,148,22,31,26,229,20*7F
$GPGSV,5,3,19,32[2024/10/02, 13:21:13.205],23,330,23,,35,102,25,,42,148,21,,63,337,27*7B
$GPGSV,5,4,19,,58,0[2024/10/02, 13:21:13.346]36,25,,53,010,30,,57,353,30,,77,168,26*74
$GPGSV,5,5,19,,41,044,32,[2024/10/02, 13:21:13.487],28,267,18,,39,212,14*4B
$GPGLL,0114.0052,N,10339.0643,E,052111,A[2024/10/02, 13:21:13.627],A*4B
$GPBOD,,T,,M,,*47
$GPBWC,052111,,,,,,T,,M,,N,,A*7D
$GPVTG,[2024/10/02, 13:21:13.768]113.73,T,113.57,M,4.00,N,7.40,K,A*22
$PGRME,12.75,M,11.94,M,17.47,[2024/10/02, 13:21:13.908]M*27
$PGRMZ,91,f,3*23
$PGRMM,WGS 84*06
$HCHDM,,M*07
$WIMWV,,R,[2024/10/02, 13:21:14.049],,A*6D
$GPAPB,V,V,,,N,V,V,,,,,,,,N*68
$GPZDA,052111,02,10,2024,-[2024/10/02, 13:21:14.158]08,00*6C
[2024/10/02, 13:21:14.236]$GPRMC,052113,A,0114.0053,N,10339.0667,E,4.04,87.21,0[2024/10/02, 13:21:14.502]21024,0.16,E,A*1C
$GPRMB,A,,,,,,,,,,,,V,A*1C
$GPGGA,052113,0114.0[2024/10/02, 13:21:14.643]053,N,10339.0667,E,1,19,0.64,28.19,M,9.62,M,,*7E
$GPGSA,A,3,10,12,[2024/10/02, 13:21:14.783]18,23,25,28,29,31,32,,,,1.29,0.64,1.12*07
$GPGSV,5,1,19,10,32,354,[2024/10/02, 13:21:14.924]30,12,18,069,27,18,49,173,25,23,51,045,28*7C
$GPGSV,5,2,19,25,45,1[2024/10/02, 13:21:15.064]02,27,28,58,260,25,29,11,148,24,31,26,229,17*7B
$GPGSV,5,3,19,32,2[2024/10/02, 13:21:15.205]3,330,22,,35,102,26,,42,148,22,,63,337,27*7A
$GPGSV,5,4,19,,58,036[2024/10/02, 13:21:15.345],25,,53,010,30,,57,353,30,,77,168,27*75
$GPGSV,5,5,19,,41,044,32,,[2024/10/02, 13:21:15.486]28,267,17,,39,212,14*44
$GPGLL,0114.0053,N,10339.0667,E,052113,A,A[2024/10/02, 13:21:15.627]*4E
$GPBOD,,T,,M,,*47
$GPBWC,052113,,,,,,T,,M,,N,,A*7F
$GPVTG,8[2024/10/02, 13:21:15.767]7.21,T,87.05,M,4.04,N,7.49,K,A*2F
$PGRME,12.76,M,11.55,M,17.21,M*2[2024/10/02, 13:21:15.908]9
$PGRMZ,92,f,3*20
$PGRMM,WGS 84*06
$HCHDM,,M*07
$WIMWV,,R,,,A[2024/10/02, 13:21:16.048]*6D
$GPAPB,V,V,,,N,V,V,,,,,,,,N*68
$GPZDA,052113,02,10,2024,-08,[2024/10/02, 13:21:16.142]00*6E
[2024/10/02, 13:21:16.220]$GPRMC,052115,A,0114.0039,N,10339.0687,E,4.00[2024/10/02, 13:21:16.486],118.93,021024,0.16,E,A*22
$GPRMB,A,,,,,,,,,,,,V,A*1C
$GPGGA,0521[2024/10/02, 13:21:16.627]15,0114.0039,N,10339.0687,E,1,19,0.64,27.14,M,9.62,M,,*78
$GPGSA,[2024/10/02, 13:21:16.767]A,3,10,12,18,23,25,28,29,31,32,,,,1.29,0.64,1.12*07
$GPGSV,5,1,19,[2024/10/02, 13:21:16.908]10,32,354,30,12,18,069,25,18,49,173,23,23,51,045,27*77
$GPGSV,5,2,[2024/10/02, 13:21:17.048]19,25,45,102,26,28,58,260,21,29,11,148,23,31,26,229,19*77
$GPGSV,5[2024/10/02, 13:21:17.189],3,19,32,23,330,21,,35,102,25,,42,148,21,,63,337,27*79
$GPGSV,5,4,[2024/10/02, 13:21:17.329]19,,58,036,24,,53,010,30,,57,353,29,,77,168,26*7D
$GPGSV,5,5,19,,4[2024/10/02, 13:21:17.470]1,044,32,,28,267,18,,39,212,15*4A
$GPGLL,0114.0039,N,10339.0687,E,[2024/10/02, 13:21:17.611]052115,A,A*4A
$GPBOD,,T,,M,,*47
$GPBWC,052115,,,,,,T,,M,,N,,A*79[2024/10/02, 13:21:17.751]
$GPVTG,118.93,T,118.77,M,4.00,N,7.41,K,A*2F
$PGRME,12.76,M,11.25[2024/10/02, 13:21:17.892],M,17.01,M*2C
$PGRMZ,89,f,3*2A
$PGRMM,WGS 84*06
$HCHDM,,M*07
$[2024/10/02, 13:21:18.032]WIMWV,,R,,,A*6D
$GPAPB,V,V,,,N,V,V,,,,,,,,N*68
$GPZDA,052115,02,[2024/10/02, 13:21:18.157]10,2024,-08,00*68
[2024/10/02, 13:21:18.235]$GPRMC,052117,A,0114.0034,N,10339.0708,E,3.77,117.28,[2024/10/02, 13:21:18.501]021024,0.16,E,A*23
$GPRMB,A,,,,,,,,,,,,V,A*1C
$GPGGA,052117,0114[2024/10/02, 13:21:18.642].0034,N,10339.0708,E,1,19,0.64,26.41,M,9.62,M,,*70
$GPGSA,A,3,10,1[2024/10/02, 13:21:18.782]2,18,23,25,28,29,31,32,,,,1.29,0.64,1.12*07
$GPGSV,5,1,19,10,32,3[2024/10/02, 13:21:18.923]54,30,12,18,069,26,18,49,173,24,23,51,045,28*7C
$GPGSV,5,2,19,25,4[2024/10/02, 13:21:19.063]5,102,27,28,58,260,24,29,11,148,22,31,26,229,17*7C
$GPGSV,5,3,19,3[2024/10/02, 13:21:19.204]2,23,330,21,,35,102,25,,42,148,25,,63,337,27*7D
$GPGSV,5,4,19,,58,[2024/10/02, 13:21:19.345]036,26,,53,010,29,,57,353,30,,77,168,27*7E
$GPGSV,5,5,19,,41,044,32[2024/10/02, 13:21:19.485],,28,267,18,,39,212,14*4B
$GPGLL,0114.0034,N,10339.0708,E,052117,[2024/10/02, 13:21:19.626]A,A*43
$GPBOD,,T,,M,,*47
$GPBWC,052117,,,,,,T,,M,,N,,A*7B
$GPVTG[2024/10/02, 13:21:19.766],117.28,T,117.12,M,3.77,N,6.99,K,A*2F
$PGRME,12.72,M,11.35,M,17.0[2024/10/02, 13:21:19.907]5,M*2D
$PGRMZ,87,f,3*24
$PGRMM,WGS 84*06
$HCHDM,,M*07
$WIMWV,,R[2024/10/02, 13:21:20.048],,,A*6D
$GPAPB,V,V,,,N,V,V,,,,,,,,N*68
$GPZDA,052117,02,10,2024,[2024/10/02, 13:21:20.157]-08,00*6A
[2024/10/02, 13:21:20.235]$GPRMC,052119,A,0114.0036,N,10339.0733,E,3.85,91.12,[2024/10/02, 13:21:20.501]021024,0.16,E,A*1C
$GPRMB,A,,,,,,,,,,,,V,A*1C
$GPGGA,052119,0114.[2024/10/02, 13:21:20.641]0036,N,10339.0733,E,1,19,0.64,26.93,M,9.62,M,,*7B
$GPGSA,A,3,10,1[2024/10/02, 13:21:20.782]2,18,23,25,28,29,31,32,,,,1.29,0.64,1.12*07
$GPGSV,5,1,19,10,32,35[2024/10/02, 13:21:20.922]4,30,12,18,069,27,18,49,173,24,23,51,045,28*7D
$GPGSV,5,2,19,25,45,[2024/10/02, 13:21:21.063]102,26,28,58,260,23,29,11,148,22,31,26,229,21*7F
$GPGSV,5,3,19,32,[2024/10/02, 13:21:21.203]23,330,21,,35,102,25,,42,148,22,,63,337,27*7A
$GPGSV,5,4,19,,58,03[2024/10/02, 13:21:21.344]6,25,,53,010,29,,57,353,29,,77,168,26*74
$GPGSV,5,5,19,,41,044,32,[2024/10/02, 13:21:21.485],28,267,18,,39,212,14*4B
$GPGLL,0114.0036,N,10339.0733,E,052119,A,[2024/10/02, 13:21:21.625]A*47
$GPBOD,,T,,M,,*47
$GPBWC,052119,,,,,,T,,M,,N,,A*75
$GPVTG,[2024/10/02, 13:21:21.766]91.12,T,90.96,M,3.85,N,7.14,K,A*22
$PGRME,12.71,M,11.63,M,17.23,M*[2024/10/02, 13:21:21.906]29
$PGRMZ,88,f,3*2B
$PGRMM,WGS 84*06
$HCHDM,,M*07
$WIMWV,,R,,,[2024/10/02, 13:21:22.047]A*6D
$GPAPB,V,V,,,N,V,V,,,,,,,,N*68
$GPZDA,052119,02,10,2024,-08[2024/10/02, 13:21:22.156],00*64
[2024/10/02, 13:21:22.234]$GPRMC,052121,A,0114.0034,N,10339.0759,E,3.98,90.13,[2024/10/02, 13:21:22.500]021024,0.16,E,A*15
$GPRMB,A,,,,,,,,,,,,V,A*1C
$GPGGA,052121,0114.[2024/10/02, 13:21:22.641]0034,N,10339.0759,E,1,19,0.64,26.58,M,9.62,M,,*79
$GPGSA,A,3,10,12[2024/10/02, 13:21:22.781],18,23,25,28,29,31,32,,,,1.29,0.64,1.12*07
$GPGSV,5,1,19,10,32,354[2024/10/02, 13:21:22.922],30,12,18,069,26,18,49,173,25,23,51,045,28*7D
$GPGSV,5,2,19,25,45,[2024/10/02, 13:21:23.062]102,27,28,58,260,23,29,11,148,23,31,26,229,21*7F
$GPGSV,5,3,19,32,[2024/10/02, 13:21:23.203]23,330,24,,35,102,27,,42,148,23,,63,337,27*7C
$GPGSV,5,4,19,,58,03[2024/10/02, 13:21:23.344]6,25,,53,010,30,,57,353,29,,77,168,27*7D
$GPGSV,5,5,19,,41,044,32,[2024/10/02, 13:21:23.484],28,267,17,,39,212,14*44
$GPGLL,0114.0034,N,10339.0759,E,052121,A,[2024/10/02, 13:21:23.625]A*42
$GPBOD,,T,,M,,*47
$GPBWC,052121,,,,,,T,,M,,N,,A*7E
$GPVTG,[2024/10/02, 13:21:23.765]90.13,T,89.97,M,3.98,N,7.37,K,A*26
$PGRME,12.66,M,11.95,M,17.41,M*[2024/10/02, 13:21:23.906]22
$PGRMZ,87,f,3*24
$PGRMM,WGS 84*06
$HCHDM,,M*07
$WIMWV,,R,,,[2024/10/02, 13:21:24.047]A*6D
$GPAPB,V,V,,,N,V,V,,,,,,,,N*68
$GPZDA,052121,02,10,2024,-08,[2024/10/02, 13:21:24.140]00*6F
[2024/10/02, 13:21:24.218]$GPRMC,052123,A,0114.0025,N,10339.0783,E,4.2[2024/10/02, 13:21:24.484]8,110.60,021024,0.16,E,A*21
$GPRMB,A,,,,,,,,,,,,V,A*1C
$GPGGA,052[2024/10/02, 13:21:24.625]123,0114.0025,N,10339.0783,E,1,19,0.64,26.83,M,9.62,M,,*7A
$GPGSA,[2024/10/02, 13:21:24.765]A,3,10,12,18,23,25,28,29,31,32,,,,1.29,0.64,1.12*07
$GPGSV,5,1,19,[2024/10/02, 13:21:24.906]10,32,354,29,12,18,069,26,18,49,173,26,23,51,045,28*76
$GPGSV,5,2,[2024/10/02, 13:21:25.046]19,25,45,102,27,28,58,260,23,29,11,148,21,31,26,229,18*77
$GPGSV,5[2024/10/02, 13:21:25.187],3,19,32,23,330,22,,35,102,27,,42,148,18,,63,337,26*73
$GPGSV,5,4,[2024/10/02, 13:21:25.328]19,,58,036,23,,53,010,30,,57,353,29,,77,168,27*7B
$GPGSV,5,5,19,,4[2024/10/02, 13:21:25.468]1,044,32,,28,267,24,,39,212,15*45
$GPGLL,0114.0025,N,10339.0783,E,[2024/10/02, 13:21:25.609]052123,A,A*47
$GPBOD,,T,,M,,*47
$GPBWC,052123,,,,,,T,,M,,N,,A*7C[2024/10/02, 13:21:25.749]
$GPVTG,110.60,T,110.44,M,4.28,N,7.93,K,A*26
$PGRME,12.41,M,11.12[2024/10/02, 13:21:25.890],M,16.66,M*2C
$PGRMZ,88,f,3*2B
$PGRMM,WGS 84*06
$HCHDM,,M*07
$[2024/10/02, 13:21:26.030]WIMWV,,R,,,A*6D
$GPAPB,V,V,,,N,V,V,,,,,,,,N*68
$GPZDA,052123,02,[2024/10/02, 13:21:26.155]10,2024,-08,00*6D
[2024/10/02, 13:21:26.234]$GPRMC,052125,A,0114.0021,N,10339.0807,E,4.59,108.83[2024/10/02, 13:21:26.499],021024,0.16,E,A*22
$GPRMB,A,,,,,,,,,,,,V,A*1C
$GPGGA,052125,011[2024/10/02, 13:21:26.640]4.0021,N,10339.0807,E,1,19,0.64,26.63,M,9.62,M,,*75
$GPGSA,A,3,10,[2024/10/02, 13:21:26.780]12,18,23,25,28,29,31,32,,,,1.29,0.64,1.12*07
$GPGSV,5,1,19,10,32,3[2024/10/02, 13:21:26.921]54,28,12,18,069,25,18,49,173,27,23,51,045,28*75
$GPGSV,5,2,19,25,4[2024/10/02, 13:21:27.061]5,102,28,28,58,260,22,29,11,148,19,31,26,229,15*7F
$GPGSV,5,3,19,32[2024/10/02, 13:21:27.202],23,330,24,,35,102,28,,42,148,18,,63,337,24*78
$GPGSV,5,4,19,,58,0[2024/10/02, 13:21:27.343]36,26,,53,010,30,,57,353,30,,77,168,27*76
$GPGSV,5,5,19,,41,044,32[2024/10/02, 13:21:27.483],,28,267,21,,39,212,17*42
$GPGLL,0114.0021,N,10339.0807,E,052125,[2024/10/02, 13:21:27.624]A,A*46
$GPBOD,,T,,M,,*47
$GPBWC,052125,,,,,,T,,M,,N,,A*7A
$GPVTG[2024/10/02, 13:21:27.764],108.83,T,108.66,M,4.59,N,8.50,K,A*2D
$PGRME,12.34,M,10.76,M,16.37[2024/10/02, 13:21:27.905],M*29
$PGRMZ,87,f,3*24
$PGRMM,WGS 84*06
$HCHDM,,M*07
$WIMWV,,R[2024/10/02, 13:21:28.046],,,A*6D
$GPAPB,V,V,,,N,V,V,,,,,,,,N*68
$GPZDA,052125,02,10,2024,[2024/10/02, 13:21:28.155]-08,00*6B
[2024/10/02, 13:21:28.233]$GPRMC,052127,A,0114.0015,N,10339.0830,E,4.71,108.19[2024/10/02, 13:21:28.499],021024,0.16,E,A*2A
$GPRMB,A,,,,,,,,,,,,V,A*1C
$GPGGA,052127,011[2024/10/02, 13:21:28.639]4.0015,N,10339.0830,E,1,19,0.64,26.30,M,9.62,M,,*72
$GPGSA,A,3,10,[2024/10/02, 13:21:28.780]12,18,23,25,28,29,31,32,,,,1.29,0.64,1.12*07
$GPGSV,5,1,19,10,32,3[2024/10/02, 13:21:28.920]54,26,12,18,069,27,18,49,173,28,23,51,045,28*76
$GPGSV,5,2,19,25,4[2024/10/02, 13:21:29.061]5,102,28,28,58,260,18,29,11,148,19,31,26,229,15*76
$GPGSV,5,3,19,3[2024/10/02, 13:21:29.202]2,23,330,17,,35,102,29,,42,148,21,,63,337,25*72
$GPGSV,5,4,19,,58,[2024/10/02, 13:21:29.342]036,24,,53,010,30,,57,353,30,,77,168,27*74
$GPGSV,5,5,19,,41,044,3[2024/10/02, 13:21:29.483]1,,28,267,22,,39,212,19*4C
$GPGLL,0114.0015,N,10339.0830,E,052127,[2024/10/02, 13:21:29.623]A,A*47
$GPBOD,,T,,M,,*47
$GPBWC,052127,,,,,,T,,M,,N,,A*78
$GPVTG[2024/10/02, 13:21:29.764],108.19,T,108.03,M,4.71,N,8.72,K,A*27
$PGRME,12.30,M,10.67,M,16.2[2024/10/02, 13:21:29.905]8,M*23
$PGRMZ,86,f,3*25
$PGRMM,WGS 84*06
$HCHDM,,M*07
$WIMWV,,[2024/10/02, 13:21:30.045]R,,,A*6D
$GPAPB,V,V,,,N,V,V,,,,,,,,N*68
$GPZDA,052127,02,10,2024,[2024/10/02, 13:21:30.155]-08,00*69
[2024/10/02, 13:21:30.233]$GPRMC,052129,A,0114.0007,N,10339.0855,E,4.81,114.9[2024/10/02, 13:21:30.498]7,021024,0.16,E,A*20
$GPRMB,A,,,,,,,,,,,,V,A*1C
$GPGGA,052129,011[2024/10/02, 13:21:30.639]4.0007,N,10339.0855,E,1,19,0.64,25.56,M,9.62,M,,*7F
$GPGSA,A,3,10[2024/10/02, 13:21:30.779],12,18,23,25,28,29,31,32,,,,1.29,0.64,1.12*07
$GPGSV,5,1,19,10,32,[2024/10/02, 13:21:30.920]354,27,12,18,069,27,18,49,173,28,23,51,045,27*78
$GPGSV,5,2,19,25,4[2024/10/02, 13:21:31.060]5,102,28,28,58,260,21,29,11,148,19,31,26,229,14*7D
$GPGSV,5,3,19,3[2024/10/02, 13:21:31.201]2,23,330,17,,35,102,29,,42,148,20,,63,337,22*74
$GPGSV,5,4,19,,58,[2024/10/02, 13:21:31.342]036,25,,53,010,29,,57,353,29,,77,168,27*75
$GPGSV,5,5,19,,41,044,3[2024/10/02, 13:21:31.482]1,,28,267,19,,39,212,19*44
$GPGLL,0114.0007,N,10339.0855,E,052129[2024/10/02, 13:21:31.623],A,A*49
$GPBOD,,T,,M,,*47
$GPBWC,052129,,,,,,T,,M,,N,,A*76
$GPVT[2024/10/02, 13:21:31.763]G,114.97,T,114.81,M,4.81,N,8.91,K,A*29
$PGRME,12.30,M,10.87,M,16.[2024/10/02, 13:21:31.904]41,M*22
$PGRMZ,84,f,3*27
$PGRMM,WGS 84*06
$HCHDM,,M*07
$WIMWV,[2024/10/02, 13:21:32.045],R,,,A*6D
$GPAPB,V,V,,,N,V,V,,,,,,,,N*68
$GPZDA,052129,02,10,2024[2024/10/02, 13:21:32.154],-08,00*67
[2024/10/02, 13:21:32.232]$GPRMC,052131,A,0114.0002,N,10339.0876,E,4.82,113.2[2024/10/02, 13:21:32.498]9,021024,0.16,E,A*2C
$GPRMB,A,,,,,,,,,,,,V,A*1C
$GPGGA,052131,011[2024/10/02, 13:21:32.638]4.0002,N,10339.0876,E,1,19,0.64,25.61,M,9.62,M,,*76
$GPGSA,A,3,10,[2024/10/02, 13:21:32.779]12,18,23,25,28,29,31,32,,,,1.29,0.64,1.12*07
$GPGSV,5,1,19,10,32,3[2024/10/02, 13:21:32.920]54,25,12,18,069,27,18,49,173,28,23,51,045,26*7B
$GPGSV,5,2,19,25,4[2024/10/02, 13:21:33.060]5,102,28,28,58,260,19,29,11,148,21,31,26,229,15*7C
$GPGSV,5,3,19,3[2024/10/02, 13:21:33.201]2,23,330,16,,35,102,29,,42,148,22,,63,337,23*76
$GPGSV,5,4,19,,58,[2024/10/02, 13:21:33.341]036,25,,53,010,29,,57,353,29,,77,168,27*75
$GPGSV,5,5,19,,41,044,3[2024/10/02, 13:21:33.482]0,,28,267,20,,39,212,16*40
$GPGLL,0114.0002,N,10339.0876,E,052131,[2024/10/02, 13:21:33.622]A,A*44
$GPBOD,,T,,M,,*47
$GPBWC,052131,,,,,,T,,M,,N,,A*7F
$GPVT[2024/10/02, 13:21:33.763]G,113.29,T,113.13,M,4.82,N,8.93,K,A*26
$PGRME,12.30,M,11.17,M,16.6[2024/10/02, 13:21:33.904]1,M*28
$PGRMZ,84,f,3*27
$PGRMM,WGS 84*06
$HCHDM,,M*07
$WIMWV,,[2024/10/02, 13:21:34.044]R,,,A*6D
$GPAPB,V,V,,,N,V,V,,,,,,,,N*68
$GPZDA,052131,02,10,2024[2024/10/02, 13:21:34.154],-08,00*6E
[2024/10/02, 13:21:34.232]$GPRMC,052133,A,0113.9995,N,10339.0900,E,4.82,112.6[2024/10/02, 13:21:34.497]4,021024,0.16,E,A*2F
$GPRMB,A,,,,,,,,,,,,V,A*1C
$GPGGA,052133,011[2024/10/02, 13:21:34.638]3.9995,N,10339.0900,E,1,19,0.64,25.31,M,9.62,M,,*78
$GPGSA,A,3,10[2024/10/02, 13:21:34.778],12,18,23,25,28,29,31,32,,,,1.29,0.64,1.12*07
$GPGSV,5,1,19,10,32,[2024/10/02, 13:21:34.919]355,27,12,18,069,27,18,49,173,27,23,51,045,27*76
$GPGSV,5,2,19,25,[2024/10/02, 13:21:35.060]45,102,27,28,58,260,22,29,11,148,21,31,26,229,14*7A
$GPGSV,5,3,19,[2024/10/02, 13:21:35.200]32,23,330,18,,35,102,30,,42,148,22,,63,337,25*76
$GPGSV,5,4,19,,58[2024/10/02, 13:21:35.341],036,23,,53,010,29,,57,353,28,,77,168,26*73
$GPGSV,5,5,19,,41,044,[2024/10/02, 13:21:35.481]30,,28,267,23,,39,212,17*42
$GPGLL,0113.9995,N,10339.0900,E,052133[2024/10/02, 13:21:35.622],A,A*4F
$GPBOD,,T,,M,,*47
$GPBWC,052133,,,,,,T,,M,,N,,A*7D
$GPVT[2024/10/02, 13:21:35.763]G,112.64,T,112.48,M,4.82,N,8.93,K,A*21
$PGRME,12.31,M,11.35,M,16.[2024/10/02, 13:21:35.903]74,M*2D
$PGRMZ,83,f,3*20
$PGRMM,WGS 84*06
$HCHDM,,M*07
$WIMWV,[2024/10/02, 13:21:36.044],R,,,A*6D
$GPAPB,V,V,,,N,V,V,,,,,,,,N*68
$GPZDA,052133,02,10,2024[2024/10/02, 13:21:36.153],-08,00*6C
[2024/10/02, 13:21:36.231]$GPRMC,052135,A,0113.9988,N,10339.0925,E,4.84,114.6[2024/10/02, 13:21:36.497]1,021024,0.16,E,A*27
$GPRMB,A,,,,,,,,,,,,V,A*1C
$GPGGA,052135,01[2024/10/02, 13:21:36.637]13.9988,N,10339.0925,E,1,19,0.64,24.77,M,9.62,M,,*76
$GPGSA,A,3,10[2024/10/02, 13:21:36.778],12,18,23,25,28,29,31,32,,,,1.29,0.64,1.12*07
$GPGSV,5,1,19,10,32,[2024/10/02, 13:21:36.918]355,27,12,18,069,26,18,49,173,27,23,51,045,27*77
$GPGSV,5,2,19,25,[2024/10/02, 13:21:37.059]45,102,28,28,58,260,19,29,11,148,20,31,26,229,15*7D
$GPGSV,5,3,19,[2024/10/02, 13:21:37.200]32,23,330,18,,35,102,29,,42,148,19,,63,337,26*75
$GPGSV,5,4,19,,58[2024/10/02, 13:21:37.340],036,25,,53,010,29,,57,353,29,,77,168,27*75
$GPGSV,5,5,19,,41,044,[2024/10/02, 13:21:37.481]30,,28,267,23,,39,212,20*46
$GPGLL,0113.9988,N,10339.0925,E,052135[2024/10/02, 13:21:37.622],A,A*42
$GPBOD,,T,,M,,*47
$GPBWC,052135,,,,,,T,,M,,N,,A*7B
$GPVT[2024/10/02, 13:21:37.762]G,114.61,T,114.45,M,4.84,N,8.97,K,A*2B
$PGRME,12.32,M,11.40,M,16.7[2024/10/02, 13:21:37.903]8,M*20
$PGRMZ,81,f,3*22
$PGRMM,WGS 84*06
$HCHDM,,M*07
$WIMWV,,[2024/10/02, 13:21:38.043]R,,,A*6D
$GPAPB,V,V,,,N,V,V,,,,,,,,N*68
$GPZDA,052135,02,10,2024[2024/10/02, 13:21:38.153],-08,00*6A
[2024/10/02, 13:21:38.231]$GPRMC,052137,A,0113.9981,N,10339.0952,E,4.86,113.[2024/10/02, 13:21:38.496]08,021024,0.16,E,A*26
$GPRMB,A,,,,,,,,,,,,V,A*1C
$GPGGA,052137,01[2024/10/02, 13:21:38.637]13.9981,N,10339.0952,E,1,19,0.64,24.12,M,9.62,M,,*7E
$GPGSA,A,3,10[2024/10/02, 13:21:38.777],12,18,23,25,28,29,31,32,,,,1.29,0.64,1.12*07
$GPGSV,5,1,19,10,32,[2024/10/02, 13:21:38.918]355,27,12,18,068,27,18,49,173,26,23,51,045,27*76
$GPGSV,5,2,19,25,[2024/10/02, 13:21:39.059]45,102,28,28,58,260,22,29,11,148,20,31,26,229,15*75
$GPGSV,5,3,19,[2024/10/02, 13:21:39.199]32,23,330,17,,35,102,30,,42,148,19,,63,337,26*72
$GPGSV,5,4,19,,58[2024/10/02, 13:21:39.340],036,24,,53,010,29,,57,353,29,,77,168,27*74
$GPGSV,5,5,19,,41,044,[2024/10/02, 13:21:39.480]30,,28,267,23,,39,212,19*4C
$GPGLL,0113.9981,N,10339.0952,E,052137[2024/10/02, 13:21:39.621],A,A*49
$GPBOD,,T,,M,,*47
$GPBWC,052137,,,,,,T,,M,,N,,A*79
$GPV[2024/10/02, 13:21:39.762]TG,113.08,T,112.92,M,4.86,N,9.00,K,A*22
$PGRME,12.32,M,11.71,M,17.[2024/10/02, 13:21:39.902]00,M*2C
$PGRMZ,79,f,3*25
$PGRMM,WGS 84*06
$HCHDM,,M*07
$WIMWV,[2024/10/02, 13:21:40.043],R,,,A*6D
$GPAPB,V,V,,,N,V,V,,,,,,,,N*68
$GPZDA,052137,02,10,2024[2024/10/02, 13:21:40.152],-08,00*68
[2024/10/02, 13:21:40.230]$GPRMC,052139,A,0113.9976,N,10339.0978,E,4.79,100.[2024/10/02, 13:21:40.496]70,021024,0.16,E,A*25
$GPRMB,A,,,,,,,,,,,,V,A*1C
$GPGGA,052139,01[2024/10/02, 13:21:40.636]13.9976,N,10339.0978,E,1,19,0.64,22.87,M,9.62,M,,*7A
$GPGSA,A,3,10[2024/10/02, 13:21:40.777],12,18,23,25,28,29,31,32,,,,1.29,0.64,1.12*07
$GPGSV,5,1,19,10,32[2024/10/02, 13:21:40.918],355,28,12,18,068,26,18,49,173,26,23,51,045,28*77
$GPGSV,5,2,19,25[2024/10/02, 13:21:41.058],45,102,28,28,58,260,21,29,11,148,19,31,26,229,17*7E
$GPGSV,5,3,19[2024/10/02, 13:21:41.199],32,23,330,15,,35,102,29,,42,148,16,,63,337,26*77
$GPGSV,5,4,19,,58[2024/10/02, 13:21:41.339],036,23,,53,010,29,,57,353,29,,77,168,27*73
$GPGSV,5,5,19,,41,044,[2024/10/02, 13:21:41.480]30,,28,267,23,,39,212,18*4D
$GPGLL,0113.9976,N,10339.0978,E,05213[2024/10/02, 13:21:41.620]9,A,A*47
$GPBOD,,T,,M,,*47
$GPBWC,052139,,,,,,T,,M,,N,,A*77
$GPV[2024/10/02, 13:21:41.761]TG,100.70,T,100.54,M,4.79,N,8.87,K,A*28
$PGRME,12.33,M,12.04,M,17.[2024/10/02, 13:21:41.902]24,M*2A
$PGRMZ,75,f,3*29
$PGRMM,WGS 84*06
$HCHDM,,M*07
$WIMWV,[2024/10/02, 13:21:42.042],R,,,A*6D
$GPAPB,V,V,,,N,V,V,,,,,,,,N*68
$GPZDA,052139,02,10,202[2024/10/02, 13:21:42.152]4,-08,00*66
[2024/10/02, 13:21:42.230]$GPRMC,052141,A,0113.9971,N,10339.1003,E,4.78,101.[2024/10/02, 13:21:42.495]81,021024,0.16,E,A*27
$GPRMB,A,,,,,,,,,,,,V,A*1C
$GPGGA,052141,01[2024/10/02, 13:21:42.636]13.9971,N,10339.1003,E,1,19,0.64,21.91,M,9.62,M,,*72
$GPGSA,A,3,10[2024/10/02, 13:21:42.777],12,18,23,25,28,29,31,32,,,,1.29,0.64,1.12*07
$GPGSV,5,1,19,10,32[2024/10/02, 13:21:42.917],355,28,12,18,068,26,18,49,173,25,23,51,045,27*7B
$GPGSV,5,2,19,25[2024/10/02, 13:21:43.058],45,102,28,28,58,260,22,29,11,148,16,31,26,229,17*72
$GPGSV,5,3,19[2024/10/02, 13:21:43.198],32,23,330,17,,35,102,29,,42,148,16,,63,337,26*75
$GPGSV,5,4,19,,5[2024/10/02, 13:21:43.339]8,036,24,,53,010,30,,57,353,29,,77,168,27*7C
$GPGSV,5,5,19,,41,044[2024/10/02, 13:21:43.480],30,,28,267,22,,39,212,18*4C
$GPGLL,0113.9971,N,10339.1003,E,05214[2024/10/02, 13:21:43.620]1,A,A*4B
$GPBOD,,T,,M,,*47
$GPBWC,052141,,,,,,T,,M,,N,,A*78
$GPV[2024/10/02, 13:21:43.761]TG,101.81,T,101.65,M,4.78,N,8.85,K,A*27
$PGRME,12.34,M,12.71,M,17[2024/10/02, 13:21:43.901].71,M*2F
$PGRMZ,72,f,3*2E
$PGRMM,WGS 84*06
$HCHDM,,M*07
$WIMWV,[2024/10/02, 13:21:44.042],R,,,A*6D
$GPAPB,V,V,,,N,V,V,,,,,,,,N*68
$GPZDA,052141,02,10,202[2024/10/02, 13:21:44.151]4,-08,00*69
[2024/10/02, 13:21:44.229]$GPRMC,052143,A,0113.9964,N,10339.1027,E,4.65,101.[2024/10/02, 13:21:44.495]92,021024,0.16,E,A*29
$GPRMB,A,,,,,,,,,,,,V,A*1C
$GPGGA,052143,0[2024/10/02, 13:21:44.636]113.9964,N,10339.1027,E,1,19,0.64,20.91,M,9.62,M,,*73
$GPGSA,A,3,1[2024/10/02, 13:21:44.776]0,12,18,23,25,28,29,31,32,,,,1.29,0.64,1.12*07
$GPGSV,5,1,19,10,32[2024/10/02, 13:21:44.917],355,27,12,18,068,28,18,48,173,26,23,51,045,28*77
$GPGSV,5,2,19,25[2024/10/02, 13:21:45.057],45,102,28,28,58,260,24,29,11,148,19,31,26,229,14*78
$GPGSV,5,3,19[2024/10/02, 13:21:45.198],32,23,330,20,,35,102,28,,42,148,16,,63,337,26*70
$GPGSV,5,4,19,,5[2024/10/02, 13:21:45.338]8,036,24,,53,010,30,,57,353,29,,77,168,27*7C
$GPGSV,5,5,19,,41,044[2024/10/02, 13:21:45.479],31,,28,267,23,,39,212,18*4C
$GPGLL,0113.9964,N,10339.1027,E,05214[2024/10/02, 13:21:45.620]3,A,A*4B
$GPBOD,,T,,M,,*47
$GPBWC,052143,,,,,,T,,M,,N,,A*7A
$GP[2024/10/02, 13:21:45.760]VTG,101.92,T,101.76,M,4.65,N,8.60,K,A*20
$PGRME,12.35,M,13.52,M,18[2024/10/02, 13:21:45.901].31,M*25
$PGRMZ,69,f,3*24
$PGRMM,WGS 84*06
$HCHDM,,M*07
$WIMWV[2024/10/02, 13:21:46.041],,R,,,A*6D
$GPAPB,V,V,,,N,V,V,,,,,,,,N*68
$GPZDA,052143,02,10,202[2024/10/02, 13:21:46.151]4,-08,00*6B
[2024/10/02, 13:21:46.229]$GPRMC,052145,A,0113.9957,N,10339.1046,E,4.42,102.[2024/10/02, 13:21:46.494]61,021024,0.16,E,A*22
$GPRMB,A,,,,,,,,,,,,V,A*1C
$GPGGA,052145,0[2024/10/02, 13:21:46.635]113.9957,N,10339.1046,E,1,19,0.64,20.47,M,9.62,M,,*79
$GPGSA,A,3,1[2024/10/02, 13:21:46.776]0,12,18,23,25,28,29,31,32,,,,1.29,0.64,1.12*07
$GPGSV,5,1,19,10,32[2024/10/02, 13:21:46.916],355,28,12,18,068,26,18,48,173,25,23,51,045,27*7A
$GPGSV,5,2,19,25[2024/10/02, 13:21:47.057],45,102,28,28,58,260,23,29,11,148,19,31,26,229,16*7D
$GPGSV,5,3,19[2024/10/02, 13:21:47.197],32,23,330,22,,35,102,27,,42,148,16,,63,337,26*7D
$GPGSV,5,4,19,,5[2024/10/02, 13:21:47.338]8,036,25,,53,010,30,,57,353,29,,77,168,25*7F
$GPGSV,5,5,19,,41,044,[2024/10/02, 13:21:47.478]31,,28,267,23,,39,212,18*4C
$GPGLL,0113.9957,N,10339.1046,E,05214[2024/10/02, 13:21:47.619]5,A,A*4A
$GPBOD,,T,,M,,*47
$GPBWC,052145,,,,,,T,,M,,N,,A*7C
$GPV[2024/10/02, 13:21:47.760]TG,102.61,T,102.45,M,4.42,N,8.18,K,A*26
$PGRME,12.35,M,12.89,M,17.[2024/10/02, 13:21:47.900]86,M*21
$PGRMZ,67,f,3*2A
$PGRMM,WGS 84*06
$HCHDM,,M*07
$WIMWV,[2024/10/02, 13:21:48.041],R,,,A*6D
$GPAPB,V,V,,,N,V,V,,,,,,,,N*68
$GPZDA,052145,02,10,202[2024/10/02, 13:21:48.150]4,-08,00*6D
[2024/10/02, 13:21:48.228]$GPRMC,052147,A,0113.9952,N,10339.1067,E,4.37,102[2024/10/02, 13:21:48.494].91,021024,0.16,E,A*2B
$GPRMB,A,,,,,,,,,,,,V,A*1C
$GPGGA,052147,0[2024/10/02, 13:21:48.635]113.9952,N,10339.1067,E,1,19,0.64,19.79,M,9.62,M,,*7A
$GPGSA,A,3,1[2024/10/02, 13:21:48.775]0,12,18,23,25,28,29,31,32,,,,1.29,0.64,1.12*07
$GPGSV,5,1,19,10,32[2024/10/02, 13:21:48.916],355,28,12,18,068,26,18,48,173,26,23,52,046,28*76
$GPGSV,5,2,19,25[2024/10/02, 13:21:49.056],45,102,29,28,58,260,23,29,11,148,19,31,26,229,18*72
$GPGSV,5,3,19[2024/10/02, 13:21:49.197],32,23,330,21,,35,102,28,,42,148,16,,63,337,26*71
$GPGSV,5,4,19,,5[2024/10/02, 13:21:49.337]8,036,22,,53,010,30,,57,353,30,,77,168,26*73
$GPGSV,5,5,19,,41,044[2024/10/02, 13:21:49.478],31,,28,267,23,,39,212,17*43
$GPGLL,0113.9952,N,10339.1067,E,05214[2024/10/02, 13:21:49.619]7,A,A*4E
$GPBOD,,T,,M,,*47
$GPBWC,052147,,,,,,T,,M,,N,,A*7E
$GPV[2024/10/02, 13:21:49.759]TG,102.91,T,102.75,M,4.37,N,8.10,K,A*20
$PGRME,12.36,M,12.39,M,17[2024/10/02, 13:21:49.900].50,M*22
$PGRMZ,65,f,3*28
$PGRMM,WGS 84*06
$HCHDM,,M*07
$WIMWV[2024/10/02, 13:21:50.040],,R,,,A*6D
$GPAPB,V,V,,,N,V,V,,,,,,,,N*68
$GPZDA,052147,02,10,202[2024/10/02, 13:21:50.150]4,-08,00*6F
[2024/10/02, 13:21:50.228]$GPRMC,052149,A,0113.9944,N,10339.1085,E,4.25,102[2024/10/02, 13:21:50.494].76,021024,0.16,E,A*24
$GPRMB,A,,,,,,,,,,,,V,A*1C
$GPGGA,052149,0[2024/10/02, 13:21:50.634]113.9944,N,10339.1085,E,1,19,0.64,20.25,M,9.62,M,,*7C
$GPGSA,A,3,1[2024/10/02, 13:21:50.775]0,12,18,23,25,28,29,31,32,,,,1.29,0.64,1.12*07
$GPGSV,5,1,19,10,32[2024/10/02, 13:21:50.915],355,29,12,18,068,26,18,48,173,26,23,52,046,28*77
$GPGSV,5,2,19,25[2024/10/02, 13:21:51.056],45,101,28,28,58,260,22,29,11,148,19,31,26,229,19*70
$GPGSV,5,3,19[2024/10/02, 13:21:51.196],32,23,330,21,,35,102,28,,42,148,19,,63,337,26*7E
$GPGSV,5,4,19,,5[2024/10/02, 13:21:51.337]8,036,24,,53,010,30,,57,353,30,,77,168,26*75
$GPGSV,5,5,19,,41,044[2024/10/02, 13:21:51.478],31,,28,267,21,,39,212,19*4F
$GPGLL,0113.9944,N,10339.1085,E,05214[2024/10/02, 13:21:51.618]9,A,A*4B
$GPBOD,,T,,M,,*47
$GPBWC,052149,,,,,,T,,M,,N,,A*70
$GP[2024/10/02, 13:21:51.759]VTG,102.76,T,102.60,M,4.25,N,7.87,K,A*2F
$PGRME,12.36,M,11.67,M,17[2024/10/02, 13:21:51.899].00,M*2F
$PGRMZ,66,f,3*2B
$PGRMM,WGS 84*06
$HCHDM,,M*07
$WIMWV[2024/10/02, 13:21:52.040],,R,,,A*6D
$GPAPB,V,V,,,N,V,V,,,,,,,,N*68
$GPZDA,052149,02,10,202[2024/10/02, 13:21:52.149]4,-08,00*61
[2024/10/02, 13:21:52.227]$GPRMC,052151,A,0113.9934,N,10339.1104,E,4.15,110[2024/10/02, 13:21:52.493].26,021024,0.16,E,A*27
$GPRMB,A,,,,,,,,,,,,V,A*1C
$GPGGA,052151,0[2024/10/02, 13:21:52.634]113.9934,N,10339.1104,E,1,19,0.64,20.42,M,9.62,M,,*7B
$GPGSA,A,3,[2024/10/02, 13:21:52.774]10,12,18,23,25,28,29,31,32,,,,1.29,0.64,1.12*07
$GPGSV,5,1,19,10,3[2024/10/02, 13:21:52.915]2,355,28,12,18,068,26,18,48,173,26,23,52,046,28*76
$GPGSV,5,2,19,2[2024/10/02, 13:21:53.055]5,45,101,29,28,58,260,24,29,11,148,19,31,26,229,16*78
$GPGSV,5,3,1[2024/10/02, 13:21:53.196]9,32,23,330,20,,35,102,28,,42,148,17,,63,337,27*70
$GPGSV,5,4,19,,[2024/10/02, 13:21:53.337]58,036,24,,53,010,30,,57,353,29,,77,168,27*7C
$GPGSV,5,5,19,,41,04[2024/10/02, 13:21:53.477]4,31,,28,267,20,,39,212,19*4E
$GPGLL,0113.9934,N,10339.1104,E,0521[2024/10/02, 13:21:53.618]51,A,A*4D
$GPBOD,,T,,M,,*47
$GPBWC,052151,,,,,,T,,M,,N,,A*79
$GP[2024/10/02, 13:21:53.758]VTG,110.26,T,110.10,M,4.15,N,7.69,K,A*2E
$PGRME,12.36,M,11.14,M,1[2024/10/02, 13:21:53.899]6.64,M*28
$PGRMZ,67,f,3*2A
$PGRMM,WGS 84*06
$HCHDM,,M*07
$WIMWV[2024/10/02, 13:21:54.039],,R,,,A*6D
$GPAPB,V,V,,,N,V,V,,,,,,,,N*68
$GPZDA,052151,02,10,20[2024/10/02, 13:21:54.149]24,-08,00*68
[2024/10/02, 13:21:54.227]$GPRMC,052153,A,0113.9929,N,10339.1124,E,4.12,109[2024/10/02, 13:21:54.492].14,021024,0.16,E,A*25
$GPRMB,A,,,,,,,,,,,,V,A*1C
$GPGGA,052153,[2024/10/02, 13:21:54.633]0113.9929,N,10339.1124,E,1,19,0.64,21.20,M,9.62,M,,*72
$GPGSA,A,3,[2024/10/02, 13:21:54.774]10,12,18,23,25,28,29,31,32,,,,1.29,0.64,1.12*07
$GPGSV,5,1,19,10,3[2024/10/02, 13:21:54.914]2,355,29,12,18,068,28,18,48,173,25,23,52,046,28*7A
$GPGSV,5,2,19,2[2024/10/02, 13:21:55.055]5,45,101,29,28,58,261,22,29,10,148,17,31,26,229,16*70
$GPGSV,5,3,1[2024/10/02, 13:21:55.196]9,32,23,330,21,,35,102,28,,42,148,18,,63,337,26*7F
$GPGSV,5,4,19,,[2024/10/02, 13:21:55.336]58,036,24,,53,010,30,,57,353,29,,77,168,26*7D
$GPGSV,5,5,19,,41,04[2024/10/02, 13:21:55.477]4,31,,28,267,19,,39,212,17*4A
$GPGLL,0113.9929,N,10339.1124,E,0521[2024/10/02, 13:21:55.617]53,A,A*41
$GPBOD,,T,,M,,*47
$GPBWC,052153,,,,,,T,,M,,N,,A*7B
$G[2024/10/02, 13:21:55.758]PVTG,109.14,T,108.98,M,4.12,N,7.63,K,A*23
$PGRME,12.36,M,10.76,M,1[2024/10/02, 13:21:55.898]6.39,M*25
$PGRMZ,70,f,3*2C
$PGRMM,WGS 84*06
$HCHDM,,M*07
$WIMW[2024/10/02, 13:21:56.039]V,,R,,,A*6D
$GPAPB,V,V,,,N,V,V,,,,,,,,N*68
$GPZDA,052153,02,10,20[2024/10/02, 13:21:56.148]24,-08,00*6A
[2024/10/02, 13:21:56.227]$GPRMC,052155,A,0113.9925,N,10339.1147,E,4.13,10[2024/10/02, 13:21:56.492]8.32,021024,0.16,E,A*2E
$GPRMB,A,,,,,,,,,,,,V,A*1C
$GPGGA,052155,[2024/10/02, 13:21:56.633]0113.9925,N,10339.1147,E,1,19,0.64,20.70,M,9.62,M,,*79
$GPGSA,A,3,[2024/10/02, 13:21:56.773]10,12,18,23,25,28,29,31,32,,,,1.29,0.64,1.12*07
$GPGSV,5,1,19,10,3[2024/10/02, 13:21:56.914]2,355,29,12,18,068,26,18,48,173,25,23,52,046,28*74
$GPGSV,5,2,19,2[2024/10/02, 13:21:57.054]5,45,101,29,28,58,261,23,29,10,148,21,31,27,230,19*72
$GPGSV,5,3,1[2024/10/02, 13:21:57.195]9,32,23,330,23,,35,102,28,,42,148,16,,63,337,27*72
$GPGSV,5,4,19,,[2024/10/02, 13:21:57.336]58,036,24,,53,010,30,,57,353,29,,77,168,26*7D
$GPGSV,5,5,19,,41,04[2024/10/02, 13:21:57.476]4,31,,28,267,17,,39,212,16*45
$GPGLL,0113.9925,N,10339.1147,E,0521[2024/10/02, 13:21:57.617]55,A,A*4E
$GPBOD,,T,,M,,*47
$GPBWC,052155,,,,,,T,,M,,N,,A*7D
$GP[2024/10/02, 13:21:57.757]VTG,108.32,T,108.16,M,4.13,N,7.66,K,A*24
$PGRME,12.36,M,10.47,M,1[2024/10/02, 13:21:57.898]6.20,M*2F
$PGRMZ,68,f,3*25
$PGRMM,WGS 84*06
$HCHDM,,M*07
$WIMWV[2024/10/02, 13:21:58.038],,R,,,A*6D
$GPAPB,V,V,,,N,V,V,,,,,,,,N*68
$GPZDA,052155,02,10,20[2024/10/02, 13:21:58.148]24,-08,00*6C
[2024/10/02, 13:21:58.226]$GPRMC,052157,A,0113.9918,N,10339.1169,E,4.11,11[2024/10/02, 13:21:58.491]1.81,021024,0.16,E,A*2C
$GPRMB,A,,,,,,,,,,,,V,A*1C
$GPGGA,052157,[2024/10/02, 13:21:58.632]0113.9918,N,10339.1169,E,1,19,0.64,20.67,M,9.62,M,,*7F
$GPGSA,A,3,[2024/10/02, 13:21:58.773]10,12,18,23,25,28,29,31,32,,,,1.29,0.64,1.12*07
$GPGSV,5,1,19,10,3[2024/10/02, 13:21:58.913]2,355,28,12,18,068,26,18,48,173,26,23,52,046,27*79
$GPGSV,5,2,19,2[2024/10/02, 13:21:59.054]5,45,101,28,28,58,261,22,29,10,148,22,31,27,230,19*71
$GPGSV,5,3,1[2024/10/02, 13:21:59.194]9,32,23,330,19,,35,102,26,,42,148,21,,63,337,27*71
$GPGSV,5,4,19,,[2024/10/02, 13:21:59.335]58,036,24,,53,010,30,,57,353,30,,77,168,27*74
$GPGSV,5,5,19,,41,04[2024/10/02, 13:21:59.476]4,31,,28,267,16,,39,212,20*41
$GPGLL,0113.9918,N,10339.1169,E,0521[2024/10/02, 13:21:59.616]57,A,A*4E
$GPBOD,,T,,M,,*47
$GPBWC,052157,,,,,,T,,M,,N,,A*7F
$G[2024/10/02, 13:21:59.757]PVTG,111.81,T,111.65,M,4.11,N,7.62,K,A*2E
$PGRME,12.36,M,10.40,M,1[2024/10/02, 13:21:59.897]6.16,M*2D
$PGRMZ,68,f,3*25
$PGRMM,WGS 84*06
$HCHDM,,M*07
$WIMWV[2024/10/02, 13:22:00.038],,R,,,A*6D
$GPAPB,V,V,,,N,V,V,,,,,,,,N*68
$GPZDA,052157,02,10,20[2024/10/02, 13:22:00.147]24,-08,00*6E
[2024/10/02, 13:22:00.226]$GPRMC,052159,A,0113.9916,N,10339.1193,E,4.11,11[2024/10/02, 13:22:00.491]0.49,021024,0.16,E,A*2C
$GPRMB,A,,,,,,,,,,,,V,A*1C
$GPGGA,052159,[2024/10/02, 13:22:00.632]0113.9916,N,10339.1193,E,1,19,0.64,20.43,M,9.62,M,,*7C
$GPGSA,A,3,[2024/10/02, 13:22:00.772]10,12,18,23,25,28,29,31,32,,,,1.29,0.64,1.12*07
$GPGSV,5,1,19,10,3[2024/10/02, 13:22:00.913]2,355,28,12,18,068,23,18,48,173,24,23,52,046,27*7E
$GPGSV,5,2,19,2[2024/10/02, 13:22:01.053]5,45,101,28,28,58,261,21,29,10,148,21,31,27,230,18*70
$GPGSV,5,3,1[2024/10/02, 13:22:01.194]9,32,23,330,20,,35,102,26,,42,148,24,,63,337,26*7F
$GPGSV,5,4,19,,[2024/10/02, 13:22:01.335]58,036,25,,53,010,30,,57,353,30,,77,168,26*74
$GPGSV,5,5,19,,41,04[2024/10/02, 13:22:01.475]4,32,,28,267,16,,39,212,15*44
