[2024/10/02, 12:49:28.486]38.9170,E,3.42,170.24,021024,0.16,E,D*21
$GPRMB,A,,,,,,,,,,,,V,D*1[2024/10/02, 12:49:28.627]9
$GPGGA,044927,0114.5030,N,10338.9170,E,2,15,0.74,29.19,M,9.58,M,[2024/10/02, 12:49:28.767],*79
$GPGSA,A,3,10,12,18,23,25,28,29,32,,,,,1.41,0.74,1.20*0B
$G[2024/10/02, 12:49:28.908]PGSV,5,1,18,05,01,125,20,10,21,346,15,12,22,084,28,18,65,176,25*7B[2024/10/02, 12:49:29.048]
$GPGSV,5,2,18,23,42,026,25,25,42,123,28,28,50,234,25,29,15,161,23*[2024/10/02, 12:49:29.189]7D
$GPGSV,5,3,18,32,25,315,18,50,42,091,27,,32,109,27,,47,145,29*74[2024/10/02, 12:49:29.330]
$GPGSV,5,4,18,,71,336,19,,01,149,16,,64,356,18,,63,178,23*72
$GP[2024/10/02, 12:49:29.470]GSV,5,5,18,,27,283,13,,46,229,26*71
$GPGLL,0114.5030,N,10338.9170,[2024/10/02, 12:49:29.611]E,044927,A,D*4A
$GPBOD,,T,,M,,*47
$GPBWC,044927,,,,,,T,,M,,N,,D*[2024/10/02, 12:49:29.751]72
$GPVTG,170.24,T,170.08,M,3.42,N,6.34,K,D*2C
$PGRME,17.37,M,24.[2024/10/02, 12:49:29.892]41,M,29.96,M*2B
$PGRMZ,96,f,3*24
$PGRMM,WGS 84*06
$HCHDM,,M*07[2024/10/02, 12:49:30.033]
$WIMWV,,R,,,A*6D
$GPAPB,V,V,,,N,V,V,,,,,,,,N*68
$GPZDA,044927,0[2024/10/02, 12:49:30.158]2,10,2024,-08,00*66
[2024/10/02, 12:49:30.236]$GPRMC,044929,A,0114.5007,N,10338.9173,[2024/10/02, 12:49:30.501]E,3.42,174.88,021024,0.16,E,D*2A
$GPRMB,A,,,,,,,,,,,,V,D*19
$GPG[2024/10/02, 12:49:30.642]GA,044929,0114.5007,N,10338.9173,E,2,15,0.74,26.45,M,9.58,M,,*76
$[2024/10/02, 12:49:30.782]GPGSA,A,3,10,12,18,23,25,28,29,32,,,,,1.41,0.74,1.20*0B
$GPGSV,5,1[2024/10/02, 12:49:30.923],18,05,01,125,17,10,22,346,15,12,22,084,29,18,65,176,24*7C
$GPGSV,[2024/10/02, 12:49:31.064]5,2,18,23,42,026,25,25,42,123,29,28,50,234,25,29,15,161,25*7A
$GPG[2024/10/02, 12:49:31.204]SV,5,3,18,32,25,315,18,50,42,091,27,,32,109,24,,47,145,28*76
$GPGS[2024/10/02, 12:49:31.345]V,5,4,18,,71,336,19,,01,149,17,,64,356,18,,63,178,25*75
$GPGSV,5,5[2024/10/02, 12:49:31.485],18,,27,283,13,,46,229,26*71
$GPGLL,0114.5007,N,10338.9173,E,04492[2024/10/02, 12:49:31.626]9,A,D*43
$GPBOD,,T,,M,,*47
$GPBWC,044929,,,,,,T,,M,,N,,D*7C
$GPV[2024/10/02, 12:49:31.767]TG,174.88,T,174.72,M,3.42,N,6.33,K,D*20
$PGRME,17.03,M,24.57,M,29[2024/10/02, 12:49:31.907].89,M*25
$PGRMZ,87,f,3*24
$PGRMM,WGS 84*06
$HCHDM,,M*07
$WIMWV,[2024/10/02, 12:49:32.048],R,,,A*6D
$GPAPB,V,V,,,N,V,V,,,,,,,,N*68
$GPZDA,044929,02,10,202[2024/10/02, 12:49:32.157]4,-08,00*68
[2024/10/02, 12:49:32.235]$GPRMC,044931,A,0114.4982,N,10338.9179[2024/10/02, 12:49:32.501],E,3.92,164.96,021024,0.16,E,D*2F
$GPRMB,A,,,,,,,,,,,,V,D*19
$GPG[2024/10/02, 12:49:32.641]GA,044931,0114.4982,N,10338.9179,E,2,15,0.74,23.48,M,9.58,M,,*78
$[2024/10/02, 12:49:32.782]GPGSA,A,3,10,12,18,23,25,28,29,32,,,,,1.41,0.74,1.20*0B
$GPGSV,5,1[2024/10/02, 12:49:32.923],18,05,01,125,18,10,22,346,18,12,22,084,29,18,65,176,24*7E
$GPGSV,[2024/10/02, 12:49:33.063]5,2,18,23,42,026,23,25,42,123,30,28,50,234,24,29,15,161,23*73
$GPG[2024/10/02, 12:49:33.204]SV,5,3,18,32,25,315,15,50,42,091,27,,32,109,24,,47,145,28*7B
$GPGS[2024/10/02, 12:49:33.344]V,5,4,18,,71,336,17,,01,149,19,,64,356,20,,63,178,23*78
$GPGSV,5,5[2024/10/02, 12:49:33.485],18,,27,283,17,,46,229,25*76
$GPGLL,0114.4982,N,10338.9179,E,04493[2024/10/02, 12:49:33.626]1,A,D*45
$GPBOD,,T,,M,,*47
$GPBWC,044931,,,,,,T,,M,,N,,D*75
$GP[2024/10/02, 12:49:33.766]VTG,164.96,T,164.80,M,3.92,N,7.26,K,D*2A
$PGRME,16.92,M,24.89,M,30[2024/10/02, 12:49:33.907].10,M*27
$PGRMZ,77,f,3*2B
$PGRMM,WGS 84*06
$HCHDM,,M*07
$WIMWV[2024/10/02, 12:49:34.047],,R,,,A*6D
$GPAPB,V,V,,,N,V,V,,,,,,,,N*68
$GPZDA,044931,02,10,202[2024/10/02, 12:49:34.157]4,-08,00*61
[2024/10/02, 12:49:34.235]$GPRMC,044933,A,0114.4959,N,10338.9176[2024/10/02, 12:49:34.500],E,3.92,178.83,021024,0.16,E,D*2D
$GPRMB,A,,,,,,,,,,,,V,D*19
$GPG[2024/10/02, 12:49:34.641]GA,044933,0114.4959,N,10338.9176,E,2,15,0.74,20.26,M,9.58,M,,*78
[2024/10/02, 12:49:34.782]$GPGSA,A,3,10,12,18,23,25,28,29,32,,,,,1.41,0.74,1.20*0B
$GPGSV,5,[2024/10/02, 12:49:34.922]1,18,05,01,125,18,10,22,346,21,12,22,084,29,18,65,176,25*75
$GPGSV[2024/10/02, 12:49:35.063],5,2,18,23,42,026,22,25,42,123,30,28,50,234,26,29,15,161,22*71
$GP[2024/10/02, 12:49:35.203]GSV,5,3,18,32,25,315,19,50,42,091,27,,32,109,26,,47,145,27*7A
$GPG[2024/10/02, 12:49:35.344]SV,5,4,18,,71,336,17,,01,149,20,,64,356,20,,63,178,24*75
$GPGSV,5,[2024/10/02, 12:49:35.484]5,18,,27,283,19,,46,229,24*79
$GPGLL,0114.4959,N,10338.9176,E,0449[2024/10/02, 12:49:35.625]33,A,D*4E
$GPBOD,,T,,M,,*47
$GPBWC,044933,,,,,,T,,M,,N,,D*77
$GP[2024/10/02, 12:49:35.766]VTG,178.83,T,178.67,M,3.92,N,7.27,K,D*26
$PGRME,16.85,M,25.21,M,30[2024/10/02, 12:49:35.906].32,M*22
$PGRMZ,66,f,3*2B
$PGRMM,WGS 84*06
$HCHDM,,M*07
$WIMWV[2024/10/02, 12:49:36.047],,R,,,A*6D
$GPAPB,V,V,,,N,V,V,,,,,,,,N*68
$GPZDA,044933,02,10,20[2024/10/02, 12:49:36.156]24,-08,00*63
[2024/10/02, 12:49:36.234]$GPRMC,044935,A,0114.4936,N,10338.9171[2024/10/02, 12:49:36.500],E,3.80,184.43,021024,0.16,E,D*29
$GPRMB,A,,,,,,,,,,,,V,D*19
$GP[2024/10/02, 12:49:36.640]GGA,044935,0114.4936,N,10338.9171,E,2,15,0.74,15.96,M,9.58,M,,*7D
[2024/10/02, 12:49:36.781]$GPGSA,A,3,10,12,18,23,25,28,29,32,,,,,1.41,0.74,1.20*0B
$GPGSV,5,[2024/10/02, 12:49:36.922]1,18,05,01,125,17,10,22,346,20,12,22,084,29,18,65,176,25*7B
$GPGSV[2024/10/02, 12:49:37.062],5,2,18,23,42,026,23,25,42,123,30,28,50,234,26,29,15,161,25*77
$GP[2024/10/02, 12:49:37.203]GSV,5,3,18,32,25,315,17,50,42,091,27,,32,109,25,,47,145,28*78
$GPG[2024/10/02, 12:49:37.343]SV,5,4,18,,71,336,19,,01,149,18,,64,356,20,,63,178,24*70
$GPGSV,5,[2024/10/02, 12:49:37.484]5,18,,27,283,20,,46,229,25*72
$GPGLL,0114.4936,N,10338.9171,E,0449[2024/10/02, 12:49:37.625]35,A,D*46
$GPBOD,,T,,M,,*47
$GPBWC,044935,,,,,,T,,M,,N,,D*71
$G[2024/10/02, 12:49:37.765]PVTG,184.43,T,184.27,M,3.80,N,7.04,K,D*2C
$PGRME,16.61,M,24.16,M,2[2024/10/02, 12:49:37.906]9.32,M*25
$PGRMZ,52,f,3*2C
$PGRMM,WGS 84*06
$HCHDM,,M*07
$WIMW[2024/10/02, 12:49:38.046]V,,R,,,A*6D
$GPAPB,V,V,,,N,V,V,,,,,,,,N*68
$GPZDA,044935,02,10,20[2024/10/02, 12:49:38.156]24,-08,00*65
[2024/10/02, 12:49:38.234]$GPRMC,044937,A,0114.4911,N,10338.9176[2024/10/02, 12:49:38.499],E,4.10,167.81,021024,0.16,E,D*24
$GPRMB,A,,,,,,,,,,,,V,D*19
$GP[2024/10/02, 12:49:38.640]GGA,044937,0114.4911,N,10338.9176,E,2,15,0.74,13.06,M,9.58,M,,*72
[2024/10/02, 12:49:38.781]$GPGSA,A,3,10,12,18,23,25,28,29,32,,,,,1.41,0.74,1.20*0B
$GPGSV,5,[2024/10/02, 12:49:38.921]1,18,05,01,125,17,10,22,346,19,12,22,084,29,18,64,176,24*71
$GPGSV[2024/10/02, 12:49:39.062],5,2,18,23,42,026,22,25,42,123,30,28,50,234,25,29,15,161,24*74
$GP[2024/10/02, 12:49:39.202]GSV,5,3,18,32,25,315,17,50,42,091,27,,32,109,26,,47,145,28*7B
$GPG[2024/10/02, 12:49:39.343]SV,5,4,18,,71,336,19,,01,149,18,,64,356,21,,63,178,24*71
$GPGSV,5,5[2024/10/02, 12:49:39.484],18,,27,283,20,,46,229,24*73
$GPGLL,0114.4911,N,10338.9176,E,0449[2024/10/02, 12:49:39.624]37,A,D*46
$GPBOD,,T,,M,,*47
$GPBWC,044937,,,,,,T,,M,,N,,D*73
$GP[2024/10/02, 12:49:39.765]VTG,167.81,T,167.65,M,4.10,N,7.59,K,D*22
$PGRME,16.52,M,23.49,M,28[2024/10/02, 12:49:39.905].72,M*2D
$PGRMZ,43,f,3*2C
$PGRMM,WGS 84*06
$HCHDM,,M*07
$WIMWV[2024/10/02, 12:49:40.046],,R,,,A*6D
$GPAPB,V,V,,,N,V,V,,,,,,,,N*68
$GPZDA,044937,02,10,20[2024/10/02, 12:49:40.155]24,-08,00*67
[2024/10/02, 12:49:40.233]$GPRMC,044939,A,0114.4884,N,10338.917[2024/10/02, 12:49:40.499]8,E,4.18,168.72,021024,0.16,E,D*22
$GPRMB,A,,,,,,,,,,,,V,D*19
$GP[2024/10/02, 12:49:40.639]GGA,044939,0114.4884,N,10338.9178,E,2,15,0.74,10.38,M,9.58,M,,*71
[2024/10/02, 12:49:40.780]$GPGSA,A,3,10,12,18,23,25,28,29,32,,,,,1.41,0.74,1.20*0B
$GPGSV,5,[2024/10/02, 12:49:40.921]1,18,05,01,125,17,10,22,346,17,12,22,084,30,18,64,176,22*71
$GPGSV[2024/10/02, 12:49:41.061],5,2,18,23,42,026,26,25,42,123,29,28,50,234,24,29,15,161,24*79
$GP[2024/10/02, 12:49:41.202]GSV,5,3,18,32,25,315,15,50,42,091,27,,32,109,26,,47,145,27*76
$GPG[2024/10/02, 12:49:41.342]SV,5,4,18,,71,336,19,,01,149,16,,64,356,17,,63,178,23*7D
$GPGSV,5,[2024/10/02, 12:49:41.483]5,18,,27,283,16,,46,229,25*77
$GPGLL,0114.4884,N,10338.9178,E,0449[2024/10/02, 12:49:41.624]39,A,D*4B
$GPBOD,,T,,M,,*47
$GPBWC,044939,,,,,,T,,M,,N,,D*7D
$GP[2024/10/02, 12:49:41.764]VTG,168.72,T,168.56,M,4.18,N,7.74,K,D*29
$PGRME,16.35,M,23.23,M,2[2024/10/02, 12:49:41.905]8.41,M*20
$PGRMZ,34,f,3*2C
$PGRMM,WGS 84*06
$HCHDM,,M*07
$WIMWV[2024/10/02, 12:49:42.045],,R,,,A*6D
$GPAPB,V,V,,,N,V,V,,,,,,,,N*68
$GPZDA,044939,02,10,20[2024/10/02, 12:49:42.155]24,-08,00*69
[2024/10/02, 12:49:42.233]$GPRMC,044941,A,0114.4854,N,10338.918[2024/10/02, 12:49:42.498]1,E,4.50,165.27,021024,0.16,E,D*27
$GPRMB,A,,,,,,,,,,,,V,D*19
$GP[2024/10/02, 12:49:42.639]GGA,044941,0114.4854,N,10338.9181,E,2,15,0.74,8.29,M,9.58,M,,*4C
$[2024/10/02, 12:49:42.780]GPGSA,A,3,10,12,18,23,25,28,29,32,,,,,1.41,0.74,1.20*0B
$GPGSV,5,1[2024/10/02, 12:49:42.920],18,05,01,125,17,10,22,346,17,12,22,084,30,18,64,176,23*70
$GPGSV,[2024/10/02, 12:49:43.061]5,2,18,23,42,026,23,25,42,123,29,28,50,234,25,29,15,161,22*7B
$GPG[2024/10/02, 12:49:43.201]SV,5,3,18,32,25,315,19,50,42,091,27,,32,109,23,,47,145,28*70
$GPGS[2024/10/02, 12:49:43.342]V,5,4,18,,71,336,19,,01,149,16,,64,356,18,,63,178,24*75
$GPGSV,5,5[2024/10/02, 12:49:43.483],18,,27,283,15,,46,229,26*77
$GPGLL,0114.4854,N,10338.9181,E,04494[2024/10/02, 12:49:43.623]1,A,D*4F
$GPBOD,,T,,M,,*47
$GPBWC,044941,,,,,,T,,M,,N,,D*72
$GP[2024/10/02, 12:49:43.764]VTG,165.27,T,165.11,M,4.50,N,8.34,K,D*2D
$PGRME,16.24,M,22.56,M,27[2024/10/02, 12:49:43.904].80,M*21
$PGRMZ,27,f,3*2E
$PGRMM,WGS 84*06
$HCHDM,,M*07
$WIMWV[2024/10/02, 12:49:44.045],,R,,,A*6D
$GPAPB,V,V,,,N,V,V,,,,,,,,N*68
$GPZDA,044941,02,10,202[2024/10/02, 12:49:44.154]4,-08,00*66
[2024/10/02, 12:49:44.232]$GPRMC,044943,A,0114.4824,N,10338.918[2024/10/02, 12:49:44.498]2,E,4.88,171.97,021024,0.16,E,D*2A
$GPRMB,A,,,,,,,,,,,,V,D*19
$GP[2024/10/02, 12:49:44.639]GGA,044943,0114.4824,N,10338.9182,E,2,15,0.74,5.97,M,9.59,M,,*43
$[2024/10/02, 12:49:44.779]GPGSA,A,3,10,12,18,23,25,28,29,32,,,,,1.41,0.74,1.20*0B
$GPGSV,5,1[2024/10/02, 12:49:44.920],18,05,01,125,16,10,22,346,16,12,22,084,30,18,64,176,25*76
$GPGSV,[2024/10/02, 12:49:45.060]5,2,18,23,43,027,23,25,42,123,30,28,50,234,25,29,15,161,24*75
$GPG[2024/10/02, 12:49:45.201]SV,5,3,18,32,25,315,15,50,42,091,27,,32,109,25,,47,145,28*7A
$GPGS[2024/10/02, 12:49:45.341]V,5,4,18,,71,336,18,,01,149,18,,64,356,19,,63,178,24*7B
$GPGSV,5,5[2024/10/02, 12:49:45.482],18,,27,283,14,,46,229,27*77
$GPGLL,0114.4824,N,10338.9182,E,04494[2024/10/02, 12:49:45.623]3,A,D*49
$GPBOD,,T,,M,,*47
$GPBWC,044943,,,,,,T,,M,,N,,D*70
$GP[2024/10/02, 12:49:45.763]VTG,171.97,T,171.81,M,4.88,N,9.04,K,D*28
$PGRME,16.24,M,22.05,M,27[2024/10/02, 12:49:45.904].39,M*25
$PGRMZ,20,f,3*29
$PGRMM,WGS 84*06
$HCHDM,,M*07
$WIMWV[2024/10/02, 12:49:46.044],,R,,,A*6D
$GPAPB,V,V,,,N,V,V,,,,,,,,N*68
$GPZDA,044943,02,10,202[2024/10/02, 12:49:46.154]4,-08,00*64
[2024/10/02, 12:49:46.232]$GPRMC,044945,A,0114.4799,N,10338.918[2024/10/02, 12:49:46.497]2,E,4.76,172.68,021024,0.16,E,D*27
$GPRMB,A,,,,,,,,,,,,V,D*19
$GP[2024/10/02, 12:49:46.638]GGA,044945,0114.4799,N,10338.9182,E,2,15,0.74,3.66,M,9.59,M,,*44
[2024/10/02, 12:49:46.779]$GPGSA,A,3,10,12,18,23,25,28,29,32,,,,,1.41,0.74,1.20*0B
$GPGSV,5,[2024/10/02, 12:49:46.919]1,18,05,01,125,16,10,22,346,17,12,22,084,29,18,64,176,24*7E
$GPGSV[2024/10/02, 12:49:47.060],5,2,18,23,43,027,25,25,42,122,30,28,50,234,25,29,15,161,23*75
$GP[2024/10/02, 12:49:47.200]GSV,5,3,18,32,25,315,20,50,42,091,27,,32,109,25,,47,145,27*73
$GPGS[2024/10/02, 12:49:47.341]V,5,4,18,,71,336,18,,01,149,21,,64,356,18,,63,178,23*77
$GPGSV,5,5[2024/10/02, 12:49:47.482],18,,27,283,15,,46,229,25*74
$GPGLL,0114.4799,N,10338.9182,E,0449[2024/10/02, 12:49:47.622]45,A,D*46
$GPBOD,,T,,M,,*47
$GPBWC,044945,,,,,,T,,M,,N,,D*76
$GP[2024/10/02, 12:49:47.763]VTG,172.68,T,172.52,M,4.76,N,8.82,K,D*28
$PGRME,16.25,M,22.13,M,27[2024/10/02, 12:49:47.903].45,M*28
$PGRMZ,12,f,3*28
$PGRMM,WGS 84*06
$HCHDM,,M*07
$WIMW[2024/10/02, 12:49:48.044]V,,R,,,A*6D
$GPAPB,V,V,,,N,V,V,,,,,,,,N*68
$GPZDA,044945,02,10,2[2024/10/02, 12:49:48.153]024,-08,00*62
[2024/10/02, 12:49:48.231]$GPRMC,044947,A,0114.4775,N,10338.918[2024/10/02, 12:49:48.497]3,E,4.70,172.56,021024,0.16,E,D*2D
$GPRMB,A,,,,,,,,,,,,V,D*19
$G[2024/10/02, 12:49:48.638]PGGA,044947,0114.4775,N,10338.9183,E,2,15,0.74,1.93,M,9.59,M,,*4D
[2024/10/02, 12:49:48.778]$GPGSA,A,3,10,12,18,23,25,28,29,32,,,,,1.41,0.74,1.20*0B
$GPGSV,5,[2024/10/02, 12:49:48.919]1,18,05,01,125,18,10,22,346,16,12,22,084,29,18,64,176,24*71
$GPGSV[2024/10/02, 12:49:49.059],5,2,18,23,43,027,25,25,42,122,30,28,50,235,24,29,15,161,23*75
$GP[2024/10/02, 12:49:49.200]GSV,5,3,18,32,25,315,17,50,42,091,27,,32,109,23,,47,145,28*7E
$GPG[2024/10/02, 12:49:49.340]SV,5,4,18,,71,336,19,,01,149,21,,64,356,20,,63,178,23*7D
$GPGSV,5,[2024/10/02, 12:49:49.481]5,18,,27,283,15,,46,229,26*77
$GPGLL,0114.4775,N,10338.9183,E,0449[2024/10/02, 12:49:49.622]47,A,D*47
$GPBOD,,T,,M,,*47
$GPBWC,044947,,,,,,T,,M,,N,,D*74
$GP[2024/10/02, 12:49:49.762]VTG,172.56,T,172.40,M,4.70,N,8.71,K,D*2C
$PGRME,16.25,M,22.40,M,2[2024/10/02, 12:49:49.903]7.67,M*2E
$PGRMZ,6,f,3*1D
$PGRMM,WGS 84*06
$HCHDM,,M*07
$WIMWV,[2024/10/02, 12:49:50.043],R,,,A*6D
$GPAPB,V,V,,,N,V,V,,,,,,,,N*68
$GPZDA,044947,02,10,202[2024/10/02, 12:49:50.153]4,-08,00*60
[2024/10/02, 12:49:50.231]$GPRMC,044949,A,0114.4750,N,10338.91[2024/10/02, 12:49:50.497]86,E,4.49,172.09,021024,0.16,E,D*21
$GPRMB,A,,,,,,,,,,,,V,D*19
$G[2024/10/02, 12:49:50.637]PGGA,044949,0114.4750,N,10338.9186,E,2,15,0.74,0.66,M,9.59,M,,*4A
[2024/10/02, 12:49:50.778]$GPGSA,A,3,10,12,18,23,25,28,29,32,,,,,1.41,0.74,1.20*0B
$GPGSV,5,[2024/10/02, 12:49:50.918]1,18,05,01,125,17,10,22,346,16,12,22,084,30,18,64,176,24*76
$GPGSV[2024/10/02, 12:49:51.059],5,2,18,23,43,027,24,25,42,122,30,28,50,235,24,29,15,160,23*75
$GP[2024/10/02, 12:49:51.200]GSV,5,3,18,32,25,315,17,50,42,091,27,,32,109,25,,47,145,28*78
$GPG[2024/10/02, 12:49:51.340]SV,5,4,18,,71,336,18,,01,149,22,,64,356,19,,63,178,24*72
$GPGSV,5,[2024/10/02, 12:49:51.481]5,18,,27,283,13,,46,229,25*72
$GPGLL,0114.4750,N,10338.9186,E,0449[2024/10/02, 12:49:51.621]49,A,D*4B
$GPBOD,,T,,M,,*47
$GPBWC,044949,,,,,,T,,M,,N,,D*7A
$GP[2024/10/02, 12:49:51.762]VTG,172.09,T,171.93,M,4.49,N,8.31,K,D*25
$PGRME,16.25,M,22.73,M,2[2024/10/02, 12:49:51.902]7.94,M*22
$PGRMZ,2,f,3*19
$PGRMM,WGS 84*06
$HCHDM,,M*07
$WIMWV[2024/10/02, 12:49:52.043],,R,,,A*6D
$GPAPB,V,V,,,N,V,V,,,,,,,,N*68
$GPZDA,044949,02,10,202[2024/10/02, 12:49:52.152]4,-08,00*6E
[2024/10/02, 12:49:52.231]$GPRMC,044951,A,0114.4723,N,10338.91[2024/10/02, 12:49:52.496]94,E,4.53,165.05,021024,0.16,E,D*2E
$GPRMB,A,,,,,,,,,,,,V,D*19
$G[2024/10/02, 12:49:52.637]PGGA,044951,0114.4723,N,10338.9194,E,2,15,0.74,-0.50,M,9.59,M,,*6C[2024/10/02, 12:49:52.777]
$GPGSA,A,3,10,12,18,23,25,28,29,32,,,,,1.41,0.74,1.20*0B
$GPGSV,5[2024/10/02, 12:49:52.918],1,18,05,01,125,19,10,22,346,15,12,22,084,30,18,64,176,24*7B
$GPGS[2024/10/02, 12:49:53.058]V,5,2,18,23,43,027,22,25,42,122,29,28,50,235,25,29,15,160,24*7D
$G[2024/10/02, 12:49:53.199]PGSV,5,3,18,32,25,316,19,50,42,091,27,,32,109,24,,47,145,27*7B
$GP[2024/10/02, 12:49:53.340]GSV,5,4,18,,71,336,18,,01,149,20,,64,356,19,,63,178,24*70
$GPGSV,5[2024/10/02, 12:49:53.480],5,18,,27,283,14,,46,229,26*76
$GPGLL,0114.4723,N,10338.9194,E,044[2024/10/02, 12:49:53.621]951,A,D*45
$GPBOD,,T,,M,,*47
$GPBWC,044951,,,,,,T,,M,,N,,D*73
$[2024/10/02, 12:49:53.761]GPVTG,165.05,T,164.89,M,4.53,N,8.40,K,D*2D
$PGRME,16.23,M,22.97,M,[2024/10/02, 12:49:53.902]28.12,M*2F
$PGRMZ,-2,f,3*34
$PGRMM,WGS 84*06
$HCHDM,,M*07
$WIM[2024/10/02, 12:49:54.042]WV,,R,,,A*6D
$GPAPB,V,V,,,N,V,V,,,,,,,,N*68
$GPZDA,044951,02,10,[2024/10/02, 12:49:54.168]2024,-08,00*67
[2024/10/02, 12:49:54.246]$GPRMC,044953,A,0114.4694,N,10338.9198,E,4.[2024/10/02, 12:49:54.511]83,166.13,021024,0.16,E,D*24
$GPRMB,A,,,,,,,,,,,,V,D*19
$GPGGA,04[2024/10/02, 12:49:54.652]4953,0114.4694,N,10338.9198,E,2,15,0.74,-1.58,M,9.59,M,,*66
$GPGSA[2024/10/02, 12:49:54.792],A,3,10,12,18,23,25,28,29,32,,,,,1.41,0.74,1.20*0B
$GPGSV,5,1,18,[2024/10/02, 12:49:54.933]05,01,125,19,10,22,346,17,12,22,084,30,18,64,176,26*7B
$GPGSV,5,2,1[2024/10/02, 12:49:55.074]8,23,43,027,26,25,42,122,30,28,50,235,24,29,15,160,24*70
$GPGSV,5,[2024/10/02, 12:49:55.214]3,18,32,25,316,16,50,42,091,27,,32,108,26,,47,145,27*77
$GPGSV,5,4[2024/10/02, 12:49:55.355],18,,71,336,18,,01,149,20,,64,356,19,,63,178,25*71
$GPGSV,5,5,18,,[2024/10/02, 12:49:55.495]27,283,18,,46,229,26*7A
$GPGLL,0114.4694,N,10338.9198,E,044953,A,D[2024/10/02, 12:49:55.636]*46
$GPBOD,,T,,M,,*47
$GPBWC,044953,,,,,,T,,M,,N,,D*71
$GPVTG,1[2024/10/02, 12:49:55.777]66.13,T,165.97,M,4.83,N,8.95,K,D*22
$PGRME,16.07,M,22.27,M,27.46,[2024/10/02, 12:49:55.917]M*2C
$PGRMZ,-5,f,3*33
$PGRMM,WGS 84*06
$HCHDM,,M*07
$WIMWV,,R,,[2024/10/02, 12:49:56.058],A*6D
$GPAPB,V,V,,,N,V,V,,,,,,,,N*68
$GPZDA,044953,02,10,2024,-0[2024/10/02, 12:49:56.167]8,00*65
[2024/10/02, 12:49:56.245]$GPRMC,044955,A,0114.4669,N,10338.9202,E,4.[2024/10/02, 12:49:56.511]91,169.22,021024,0.16,E,D*2E
$GPRMB,A,,,,,,,,,,,,V,D*19
$GPGGA,04[2024/10/02, 12:49:56.651]4955,0114.4669,N,10338.9202,E,2,15,0.74,-2.72,M,9.59,M,,*69
$GPGS[2024/10/02, 12:49:56.792]A,A,3,10,12,18,23,25,28,29,32,,,,,1.41,0.74,1.20*0B
$GPGSV,5,1,18,[2024/10/02, 12:49:56.933]05,01,125,16,10,22,346,16,12,22,084,30,18,64,176,24*77
$GPGSV,5,2,[2024/10/02, 12:49:57.073]18,23,43,027,24,25,42,122,30,28,50,235,25,29,15,160,23*74
$GPGSV,5[2024/10/02, 12:49:57.214],3,18,32,25,316,22,50,42,091,27,,32,108,23,,47,145,30*73
$GPGSV,5,4[2024/10/02, 12:49:57.354],18,,71,336,20,,01,149,20,,64,356,18,,63,178,24*7A
$GPGSV,5,5,18,,[2024/10/02, 12:49:57.495]27,283,16,,46,229,26*74
$GPGLL,0114.4669,N,10338.9202,E,044955,A,D[2024/10/02, 12:49:57.635]*42
$GPBOD,,T,,M,,*47
$GPBWC,044955,,,,,,T,,M,,N,,D*77
$GPVTG,1[2024/10/02, 12:49:57.776]69.22,T,169.06,M,4.91,N,9.10,K,D*24
$PGRME,15.87,M,21.39,M,26.63,M[2024/10/02, 12:49:57.917]*2D
$PGRMZ,-9,f,3*3F
$PGRMM,WGS 84*06
$HCHDM,,M*07
$WIMWV,,R,,[2024/10/02, 12:49:58.057],A*6D
$GPAPB,V,V,,,N,V,V,,,,,,,,N*68
$GPZDA,044955,02,10,2024,-0[2024/10/02, 12:49:58.167]8,00*63
[2024/10/02, 12:49:58.245]$GPRMC,044957,A,0114.4644,N,10338.9210,E,4.[2024/10/02, 12:49:58.510]92,168.54,021024,0.16,E,D*23
$GPRMB,A,,,,,,,,,,,,V,D*19
$GPGGA,0[2024/10/02, 12:49:58.651]44957,0114.4644,N,10338.9210,E,2,15,0.74,-3.19,M,9.59,M,,*6B
$GPGS[2024/10/02, 12:49:58.791]A,A,3,10,12,18,23,25,28,29,32,,,,,1.41,0.74,1.20*0B
$GPGSV,5,1,18,[2024/10/02, 12:49:58.932]05,01,125,16,10,22,346,14,12,22,084,30,18,64,176,24*75
$GPGSV,5,2,[2024/10/02, 12:49:59.073]18,23,43,027,26,25,42,122,29,28,50,235,25,29,15,160,24*79
$GPGSV,5[2024/10/02, 12:49:59.213],3,18,32,25,316,22,50,42,091,27,,32,108,25,,47,145,27*73
$GPGSV,5,[2024/10/02, 12:49:59.350]4,18,,71,336,20,,01,149,18,,64,356,19,,63,178,23*77
$GPGSV,5,5,18[2024/10/02, 12:49:59.490],,27,283,14,,46,229,25*75
$GPGLL,0114.4644,N,10338.9210,E,044957,[2024/10/02, 12:49:59.631]A,D*4C
$GPBOD,,T,,M,,*47
$GPBWC,044957,,,,,,T,,M,,N,,D*75
$GPVT[2024/10/02, 12:49:59.772]G,168.54,T,168.38,M,4.92,N,9.12,K,D*29
$PGRME,15.66,M,20.53,M,25.8[2024/10/02, 12:49:59.912]2,M*23
$PGRMZ,-10,f,3*07
$PGRMM,WGS 84*06
$HCHDM,,M*07
$WIMWV,[2024/10/02, 12:50:00.053],R,,,A*6D
$GPAPB,V,V,,,N,V,V,,,,,,,,N*68
$GPZDA,044957,02,10,2024[2024/10/02, 12:50:00.162],-08,00*61
[2024/10/02, 12:50:00.240]$GPRMC,044959,A,0114.4618,N,10338.9215,E,[2024/10/02, 12:50:00.506]4.82,168.69,021024,0.16,E,D*2E
$GPRMB,A,,,,,,,,,,,,V,D*19
$GPGGA,[2024/10/02, 12:50:00.646]044959,0114.4618,N,10338.9215,E,2,15,0.74,-3.77,M,9.59,M,,*61
$GPG[2024/10/02, 12:50:00.787]SA,A,3,10,12,18,23,25,28,29,32,,,,,1.41,0.74,1.20*0B
$GPGSV,5,1,18[2024/10/02, 12:50:00.928],05,01,125,16,10,22,346,14,12,22,084,30,18,64,176,23*72
$GPGSV,5,2[2024/10/02, 12:50:01.068],18,23,43,027,24,25,42,122,29,28,50,235,24,29,15,160,24*7A
$GPGSV,[2024/10/02, 12:50:01.209]5,3,18,32,25,316,19,50,42,091,26,,32,108,24,,47,145,28*74
$GPGSV,5[2024/10/02, 12:50:01.349],4,18,,71,336,17,,01,149,17,,64,356,19,,63,178,23*7C
$GPGSV,5,5,18[2024/10/02, 12:50:01.490],,27,283,15,,46,229,26*77
$GPGLL,0114.4618,N,10338.9215,E,044959,A[2024/10/02, 12:50:01.631],D*4E
$GPBOD,,T,,M,,*47
$GPBWC,044959,,,,,,T,,M,,N,,D*7B
$GPVTG[2024/10/02, 12:50:01.771],168.69,T,168.53,M,4.82,N,8.93,K,D*23
$PGRME,15.62,M,20.15,M,25.49[2024/10/02, 12:50:01.912],M*22
$PGRMZ,-12,f,3*05
$PGRMM,WGS 84*06
$HCHDM,,M*07
$WIMWV,,[2024/10/02, 12:50:02.052]R,,,A*6D
$GPAPB,V,V,,,N,V,V,,,,,,,,N*68
$GPZDA,044959,02,10,2024,[2024/10/02, 12:50:02.162]-08,00*6F
[2024/10/02, 12:50:02.240]$GPRMC,045001,A,0114.4593,N,10338.9224,E,[2024/10/02, 12:50:02.505]4.71,168.21,021024,0.16,E,D*29
$GPRMB,A,,,,,,,,,,,,V,D*19
$GPGGA[2024/10/02, 12:50:02.646],045001,0114.4593,N,10338.9224,E,2,15,0.74,-4.33,M,9.59,M,,*61
$GP[2024/10/02, 12:50:02.787]GSA,A,3,10,12,18,23,25,28,29,32,,,,,1.41,0.74,1.20*0B
$GPGSV,5,1,1[2024/10/02, 12:50:02.927]8,05,01,125,16,10,22,346,16,12,22,084,30,18,64,176,25*76
$GPGSV,5,[2024/10/02, 12:50:03.068]2,18,23,43,027,23,25,42,122,30,28,50,235,25,29,15,160,23*73
$GPGSV[2024/10/02, 12:50:03.208],5,3,18,32,25,316,19,50,42,091,26,,32,108,25,,47,145,27*7A
$GPGSV,[2024/10/02, 12:50:03.349]5,4,18,,71,336,18,,01,149,16,,64,356,17,,63,178,24*7B
$GPGSV,5,5,1[2024/10/02, 12:50:03.489]8,,27,283,15,,46,229,26*77
$GPGLL,0114.4593,N,10338.9224,E,045001,[2024/10/02, 12:50:03.630]A,D*49
$GPBOD,,T,,M,,*47
$GPBWC,045001,,,,,,T,,M,,N,,D*7E
$GPVT[2024/10/02, 12:50:03.771]G,168.21,T,168.05,M,4.71,N,8.72,K,D*2F
$PGRME,15.60,M,19.62,M,25.0[2024/10/02, 12:50:03.911]6,M*21
$PGRMZ,-14,f,3*03
$PGRMM,WGS 84*06
$HCHDM,,M*07
$WIMWV,[2024/10/02, 12:50:04.052],R,,,A*6D
$GPAPB,V,V,,,N,V,V,,,,,,,,N*68
$GPZDA,045001,02,10,2024[2024/10/02, 12:50:04.161],-08,00*6A
[2024/10/02, 12:50:04.239]$GPRMC,045003,A,0114.4567,N,10338.9231,E,[2024/10/02, 12:50:04.505]4.69,166.94,021024,0.16,E,D*2D
$GPRMB,A,,,,,,,,,,,,V,D*19
$GPGGA[2024/10/02, 12:50:04.645],045003,0114.4567,N,10338.9231,E,2,15,0.74,-5.00,M,9.59,M,,*6D
$GP[2024/10/02, 12:50:04.786]GSA,A,3,10,12,18,23,25,28,29,32,,,,,1.41,0.74,1.20*0B
$GPGSV,5,1,1[2024/10/02, 12:50:04.927]8,05,01,125,15,10,22,346,17,12,22,084,30,18,64,176,23*72
$GPGSV,5,[2024/10/02, 12:50:05.067]2,18,23,43,027,22,25,42,122,29,28,50,235,25,29,15,160,22*7B
$GPGSV[2024/10/02, 12:50:05.208],5,3,18,32,25,316,16,50,42,091,26,,32,108,24,,47,145,27*74
$GPGSV,[2024/10/02, 12:50:05.348]5,4,18,,71,336,19,,01,149,16,,64,356,19,,63,178,23*73
$GPGSV,5,5,1[2024/10/02, 12:50:05.489]8,,27,283,16,,46,229,26*74
$GPGLL,0114.4567,N,10338.9231,E,045003,[2024/10/02, 12:50:05.630]A,D*44
$GPBOD,,T,,M,,*47
$GPBWC,045003,,,,,,T,,M,,N,,D*7C
$GPVTG[2024/10/02, 12:50:05.770],166.94,T,166.78,M,4.69,N,8.68,K,D*29
$PGRME,15.58,M,19.33,M,24.8[2024/10/02, 12:50:05.911]3,M*22
$PGRMZ,-16,f,3*01
$PGRMM,WGS 84*06
$HCHDM,,M*07
$WIMWV,,[2024/10/02, 12:50:06.051]R,,,A*6D
$GPAPB,V,V,,,N,V,V,,,,,,,,N*68
$GPZDA,045003,02,10,2024[2024/10/02, 12:50:06.161],-08,00*68
[2024/10/02, 12:50:06.239]$GPRMC,045005,A,0114.4545,N,10338.9236,E[2024/10/02, 12:50:06.504],4.63,167.33,021024,0.16,E,D*2A
$GPRMB,A,,,,,,,,,,,,V,D*19
$GPGGA[2024/10/02, 12:50:06.648],045005,0114.4545,N,10338.9236,E,2,15,0.74,-5.31,M,9.59,M,,*6E
$GPGS[2024/10/02, 12:50:06.789]A,A,3,10,12,18,23,25,28,29,32,,,,,1.41,0.74,1.20*0B
$GPGSV,5,1,18,[2024/10/02, 12:50:06.930]05,01,125,15,10,22,346,17,12,22,084,30,18,64,176,25*74
$GPGSV,5,2,[2024/10/02, 12:50:07.070]18,23,43,027,22,25,42,122,30,28,50,235,24,29,15,160,22*72
$GPGSV,5[2024/10/02, 12:50:07.211],3,18,32,25,316,17,50,42,091,26,,32,108,26,,47,145,27*77
$GPGSV,5,[2024/10/02, 12:50:07.351]4,18,,71,336,19,,01,149,16,,64,356,20,,63,178,24*7E
$GPGSV,5,5,18,[2024/10/02, 12:50:07.492],27,283,15,,46,229,27*76
$GPGLL,0114.4545,N,10338.9236,E,045005,A,[2024/10/02, 12:50:07.633]D*45
$GPBOD,,T,,M,,*47
$GPBWC,045005,,,,,,T,,M,,N,,D*7A
$GPVTG,[2024/10/02, 12:50:07.773]167.33,T,167.17,M,4.63,N,8.57,K,D*2B
$PGRME,15.59,M,19.21,M,24.74,[2024/10/02, 12:50:07.914]M*28
$PGRMZ,-17,f,3*00
$PGRMM,WGS 84*06
$HCHDM,,M*07
$WIMWV,,R[2024/10/02, 12:50:08.054],,,A*6D
$GPAPB,V,V,,,N,V,V,,,,,,,,N*68
$GPZDA,045005,02,10,2024,-[2024/10/02, 12:50:08.164]08,00*6E
[2024/10/02, 12:50:08.242]$GPRMC,045007,A,0114.4523,N,10338.9239,E,4[2024/10/02, 12:50:08.507].48,168.05,021024,0.16,E,D*24
$GPRMB,A,,,,,,,,,,,,V,D*19
$GPGGA,[2024/10/02, 12:50:08.648]045007,0114.4523,N,10338.9239,E,2,15,0.74,-5.47,M,9.59,M,,*62
$GPG[2024/10/02, 12:50:08.789]SA,A,3,10,12,18,23,25,28,29,32,,,,,1.41,0.74,1.20*0B
$GPGSV,5,1,18[2024/10/02, 12:50:08.929],05,01,125,16,10,22,346,16,12,22,084,30,18,64,176,24*77
$GPGSV,5,2[2024/10/02, 12:50:09.070],18,23,43,027,24,25,42,122,29,28,50,235,24,29,15,160,22*7C
$GPGSV,[2024/10/02, 12:50:09.210]5,3,18,32,25,316,15,50,42,091,26,,32,108,23,,47,145,27*70
$GPGSV,5[2024/10/02, 12:50:09.351],4,18,,71,336,19,,01,149,17,,64,356,20,,63,178,22*79
$GPGSV,5,5,18[2024/10/02, 12:50:09.491],,27,283,15,,46,229,26*77
$GPGLL,0114.4523,N,10338.9239,E,045007,A[2024/10/02, 12:50:09.632],D*48
$GPBOD,,T,,M,,*47
$GPBWC,045007,,,,,,T,,M,,N,,D*78
$GPVTG[2024/10/02, 12:50:09.773],168.05,T,167.89,M,4.48,N,8.29,K,D*26
$PGRME,15.59,M,19.22,M,24.74[2024/10/02, 12:50:09.913],M*2B
$PGRMZ,-18,f,3*0F
$PGRMM,WGS 84*06
$HCHDM,,M*07
$WIMWV,,[2024/10/02, 12:50:10.054]R,,,A*6D
$GPAPB,V,V,,,N,V,V,,,,,,,,N*68
$GPZDA,045007,02,10,2024,[2024/10/02, 12:50:10.163]-08,00*6C
[2024/10/02, 12:50:10.241]$GPRMC,045009,A,0114.4502,N,10338.9244,E,[2024/10/02, 12:50:10.507]4.31,168.30,021024,0.16,E,D*2B
$GPRMB,A,,,,,,,,,,,,V,D*19
$GPGGA,[2024/10/02, 12:50:10.647]045009,0114.4502,N,10338.9244,E,2,15,0.74,-6.12,M,9.59,M,,*66
$GPG[2024/10/02, 12:50:10.788]SA,A,3,10,12,18,23,25,28,29,32,,,,,1.41,0.74,1.20*0B
$GPGSV,5,1,1[2024/10/02, 12:50:10.929]8,05,01,125,18,10,22,346,16,12,22,084,28,18,64,176,22*76
$GPGSV,5,[2024/10/02, 12:50:11.069]2,18,23,43,027,24,25,42,122,30,28,50,235,24,29,15,160,23*75
$GPGSV,[2024/10/02, 12:50:11.210]5,3,18,32,25,316,19,50,42,091,26,,32,108,26,,47,145,28*76
$GPGSV,5[2024/10/02, 12:50:11.350],4,18,,71,336,17,,01,149,17,,64,356,17,,63,178,21*70
$GPGSV,5,5,18[2024/10/02, 12:50:11.491],,27,283,15,,46,229,27*76
$GPGLL,0114.4502,N,10338.9244,E,045009,[2024/10/02, 12:50:11.632]A,D*4F
$GPBOD,,T,,M,,*47
$GPBWC,045009,,,,,,T,,M,,N,,D*76
$GPVTG[2024/10/02, 12:50:11.772],168.30,T,168.14,M,4.31,N,7.98,K,D*20
$PGRME,15.59,M,19.33,M,24.84[2024/10/02, 12:50:11.913],M*24
$PGRMZ,-20,f,3*04
$PGRMM,WGS 84*06
$HCHDM,,M*07
$WIMWV,,[2024/10/02, 12:50:12.053]R,,,A*6D
$GPAPB,V,V,,,N,V,V,,,,,,,,N*68
$GPZDA,045009,02,10,2024[2024/10/02, 12:50:12.163],-08,00*62
[2024/10/02, 12:50:12.241]$GPRMC,045011,A,0114.4480,N,10338.9251,E,[2024/10/02, 12:50:12.506]4.18,167.87,021024,0.16,E,D*25
$GPRMB,A,,,,,,,,,,,,V,D*19
$GPGGA,[2024/10/02, 12:50:12.647]045011,0114.4480,N,10338.9251,E,2,15,0.74,-6.24,M,9.59,M,,*65
$GPG[2024/10/02, 12:50:12.788]SA,A,3,10,12,18,23,25,28,29,32,,,,,1.41,0.74,1.20*0B
$GPGSV,5,1,1[2024/10/02, 12:50:12.928]8,05,01,125,23,10,22,346,15,12,22,084,29,18,64,176,24*7A
$GPGSV,5,[2024/10/02, 12:50:13.069]2,18,23,43,027,24,25,42,122,29,28,50,235,25,29,15,160,23*7C
$GPGSV,[2024/10/02, 12:50:13.209]5,3,18,32,25,316,18,50,42,091,26,,32,108,25,,47,145,29*75
$GPGSV,5[2024/10/02, 12:50:13.347],4,18,,71,336,17,,01,149,15,,64,356,18,,63,178,22*7E
$GPGSV,5,5,[2024/10/02, 12:50:13.487]18,,27,283,13,,46,229,25*72
$GPGLL,0114.4480,N,10338.9251,E,045011[2024/10/02, 12:50:13.628],A,D*49
$GPBOD,,T,,M,,*47
$GPBWC,045011,,,,,,T,,M,,N,,D*7F
$GPV[2024/10/02, 12:50:13.768]TG,167.87,T,167.71,M,4.18,N,7.74,K,D*26
$PGRME,15.60,M,19.37,M,24.[2024/10/02, 12:50:13.909]87,M*29
$PGRMZ,-20,f,3*04
$PGRMM,WGS 84*06
$HCHDM,,M*07
$WIMWV[2024/10/02, 12:50:14.049],,R,,,A*6D
$GPAPB,V,V,,,N,V,V,,,,,,,,N*68
$GPZDA,045011,02,10,202[2024/10/02, 12:50:14.159]4,-08,00*6B
[2024/10/02, 12:50:14.237]$GPRMC,045013,A,0114.4458,N,10338.9258,[2024/10/02, 12:50:14.502]E,4.16,167.07,021024,0.16,E,D*2D
$GPRMB,A,,,,,,,,,,,,V,D*19
$GPGG[2024/10/02, 12:50:14.643]A,045013,0114.4458,N,10338.9258,E,2,15,0.74,-6.60,M,9.59,M,,*6B
$[2024/10/02, 12:50:14.784]GPGSA,A,3,10,12,18,23,25,28,29,32,,,,,1.41,0.74,1.20*0B
$GPGSV,5,1[2024/10/02, 12:50:14.924],18,05,01,125,22,10,22,346,15,12,22,084,30,18,64,176,22*75
$GPGSV,[2024/10/02, 12:50:15.065]5,2,18,23,43,027,24,25,42,122,28,28,50,235,25,29,15,160,25*7B
$GPG[2024/10/02, 12:50:15.205]SV,5,3,18,32,25,316,21,50,42,091,26,,32,108,24,,47,145,29*7E
$GPGS[2024/10/02, 12:50:15.346]V,5,4,18,,71,336,19,,01,149,14,,64,356,19,,63,178,23*71
$GPGSV,5,5[2024/10/02, 12:50:15.487],18,,27,283,16,,46,229,26*74
$GPGLL,0114.4458,N,10338.9258,E,04501[2024/10/02, 12:50:15.627]3,A,D*47
$GPBOD,,T,,M,,*47
$GPBWC,045013,,,,,,T,,M,,N,,D*7D
$GPV[2024/10/02, 12:50:15.768]TG,167.07,T,166.91,M,4.16,N,7.71,K,D*2A
$PGRME,15.60,M,19.22,M,24[2024/10/02, 12:50:15.908].76,M*23
$PGRMZ,-22,f,3*06
$PGRMM,WGS 84*06
$HCHDM,,M*07
$WIMWV[2024/10/02, 12:50:16.049],,R,,,A*6D
$GPAPB,V,V,,,N,V,V,,,,,,,,N*68
$GPZDA,045013,02,10,20[2024/10/02, 12:50:16.158]24,-08,00*69
[2024/10/02, 12:50:16.236]$GPRMC,045015,A,0114.4438,N,10338.9264,[2024/10/02, 12:50:16.502]E,4.09,165.43,021024,0.16,E,D*2E
$GPRMB,A,,,,,,,,,,,,V,D*19
$GPGG[2024/10/02, 12:50:16.643]A,045015,0114.4438,N,10338.9264,E,2,15,0.74,-7.10,M,9.59,M,,*62
$G[2024/10/02, 12:50:16.783]PGSA,A,3,10,12,18,23,25,28,29,32,,,,,1.41,0.74,1.20*0B
$GPGSV,5,1,[2024/10/02, 12:50:16.924]18,05,01,125,19,10,22,346,19,12,22,084,30,18,64,176,24*77
$GPGSV,5[2024/10/02, 12:50:17.064],2,18,23,43,027,25,25,42,122,29,28,50,235,24,29,15,160,24*7B
$GPGS[2024/10/02, 12:50:17.205]V,5,3,18,32,25,316,19,50,42,091,26,,32,108,25,,47,145,29*74
$GPGSV[2024/10/02, 12:50:17.345],5,4,18,,71,336,19,,01,149,15,,64,356,19,,63,178,23*70
$GPGSV,5,5,[2024/10/02, 12:50:17.486]18,,27,283,13,,46,229,26*71
$GPGLL,0114.4438,N,10338.9264,E,045015[2024/10/02, 12:50:17.627],A,D*48
$GPBOD,,T,,M,,*47
$GPBWC,045015,,,,,,T,,M,,N,,D*7B
$GPV[2024/10/02, 12:50:17.767]TG,165.43,T,165.27,M,4.09,N,7.58,K,D*23
$PGRME,15.54,M,19.11,M,24.[2024/10/02, 12:50:17.908]63,M*20
$PGRMZ,-23,f,3*07
$PGRMM,WGS 84*06
$HCHDM,,M*07
$WIMWV[2024/10/02, 12:50:18.048],,R,,,A*6D
$GPAPB,V,V,,,N,V,V,,,,,,,,N*68
$GPZDA,045015,02,10,202[2024/10/02, 12:50:18.158]4,-08,00*6F
[2024/10/02, 12:50:18.236]$GPRMC,045017,A,0114.4414,N,10338.9270,[2024/10/02, 12:50:18.501]E,4.14,164.95,021024,0.16,E,D*21
$GPRMB,A,,,,,,,,,,,,V,D*19
$GPGG[2024/10/02, 12:50:18.642]A,045017,0114.4414,N,10338.9270,E,2,15,0.74,-7.28,M,9.59,M,,*60
$G[2024/10/02, 12:50:18.783]PGSA,A,3,10,12,18,23,25,28,29,32,,,,,1.41,0.74,1.20*0B
$GPGSV,5,1,[2024/10/02, 12:50:18.923]18,05,01,125,19,10,22,346,16,12,22,084,30,18,64,176,23*7F
$GPGSV,5[2024/10/02, 12:50:19.064],2,18,23,43,027,25,25,42,122,29,28,50,235,23,29,15,160,23*7B
$GPGS[2024/10/02, 12:50:19.204]V,5,3,18,32,25,316,19,50,42,091,26,,32,108,22,,47,145,25*7F
$GPGSV[2024/10/02, 12:50:19.345],5,4,18,,71,336,18,,01,149,19,,64,356,20,,63,178,22*76
$GPGSV,5,5,[2024/10/02, 12:50:19.486]18,,27,283,16,,46,229,27*75
$GPGLL,0114.4414,N,10338.9270,E,045017[2024/10/02, 12:50:19.626],A,D*41
$GPBOD,,T,,M,,*47
$GPBWC,045017,,,,,,T,,M,,N,,D*79
$GPV[2024/10/02, 12:50:19.767]TG,164.95,T,164.79,M,4.14,N,7.67,K,D*23
$PGRME,15.54,M,19.34,M,24.[2024/10/02, 12:50:19.907]81,M*2B
$PGRMZ,-24,f,3*00
$PGRMM,WGS 84*06
$HCHDM,,M*07
$WIMWV[2024/10/02, 12:50:20.048],,R,,,A*6D
$GPAPB,V,V,,,N,V,V,,,,,,,,N*68
$GPZDA,045017,02,10,202[2024/10/02, 12:50:20.157]4,-08,00*6D
[2024/10/02, 12:50:20.236]$GPRMC,045019,A,0114.4389,N,10338.9276,[2024/10/02, 12:50:20.501]E,4.22,165.66,021024,0.16,E,D*22
$GPRMB,A,,,,,,,,,,,,V,D*19
$GPGG[2024/10/02, 12:50:20.642]A,045019,0114.4389,N,10338.9276,E,2,15,0.74,-7.73,M,9.59,M,,*65
$[2024/10/02, 12:50:20.782]GPGSA,A,3,10,12,18,23,25,28,29,32,,,,,1.41,0.74,1.20*0B
$GPGSV,5,1[2024/10/02, 12:50:20.923],18,05,01,125,16,10,22,346,16,12,22,084,30,18,64,176,25*76
$GPGSV,[2024/10/02, 12:50:21.063]5,2,18,23,43,027,21,25,42,122,29,28,50,235,25,29,15,160,24*7E
$GPG[2024/10/02, 12:50:21.204]SV,5,3,18,32,25,316,16,50,42,091,26,,32,108,24,,47,145,27*74
$GPGSV[2024/10/02, 12:50:21.345],5,4,18,,71,336,18,,01,149,19,,64,356,19,,63,178,23*7D
$GPGSV,5,5,[2024/10/02, 12:50:21.485]18,,27,283,17,,46,229,25*76
$GPGLL,0114.4389,N,10338.9276,E,04501[2024/10/02, 12:50:21.626]9,A,D*4A
$GPBOD,,T,,M,,*47
$GPBWC,045019,,,,,,T,,M,,N,,D*77
$GPV[2024/10/02, 12:50:21.766]TG,165.66,T,165.50,M,4.22,N,7.81,K,D*29
$PGRME,15.55,M,19.46,M,24.[2024/10/02, 12:50:21.907]91,M*2E
$PGRMZ,-25,f,3*01
$PGRMM,WGS 84*06
$HCHDM,,M*07
$WIMWV[2024/10/02, 12:50:22.048],,R,,,A*6D
$GPAPB,V,V,,,N,V,V,,,,,,,,N*68
$GPZDA,045019,02,10,20[2024/10/02, 12:50:22.157]24,-08,00*63
[2024/10/02, 12:50:22.235]$GPRMC,045021,A,0114.4366,N,10338.9281,[2024/10/02, 12:50:22.501]E,4.27,165.89,021024,0.16,E,D*24
$GPRMB,A,,,,,,,,,,,,V,D*19
$GPG[2024/10/02, 12:50:22.641]GA,045021,0114.4366,N,10338.9281,E,2,15,0.74,-8.20,M,9.59,M,,*6E
$[2024/10/02, 12:50:22.782]GPGSA,A,3,10,12,18,23,25,28,29,32,,,,,1.41,0.74,1.20*0B
$GPGSV,5,1[2024/10/02, 12:50:22.922],18,05,01,125,16,10,22,346,19,12,22,084,29,18,64,176,25*71
$GPGSV,[2024/10/02, 12:50:23.063]5,2,18,23,43,027,22,25,42,122,29,28,50,235,24,29,15,160,24*7C
$GPG[2024/10/02, 12:50:23.204]SV,5,3,18,32,25,316,18,50,42,091,26,,32,108,25,,47,145,27*7B
$GPGS[2024/10/02, 12:50:23.344]V,5,4,18,,71,336,18,,01,149,21,,64,356,20,,63,178,22*7D
$GPGSV,5,5[2024/10/02, 12:50:23.485],18,,27,282,19,,46,229,25*79
$GPGLL,0114.4366,N,10338.9281,E,04502[2024/10/02, 12:50:23.625]1,A,D*48
$GPBOD,,T,,M,,*47
$GPBWC,045021,,,,,,T,,M,,N,,D*7C
$GPV[2024/10/02, 12:50:23.766]TG,165.89,T,165.73,M,4.27,N,7.92,K,D*2E
$PGRME,15.55,M,19.51,M,24[2024/10/02, 12:50:23.907].95,M*2C
$PGRMZ,-27,f,3*03
$PGRMM,WGS 84*06
$HCHDM,,M*07
$WIMWV[2024/10/02, 12:50:24.047],,R,,,A*6D
$GPAPB,V,V,,,N,V,V,,,,,,,,N*68
$GPZDA,045021,02,10,20[2024/10/02, 12:50:24.156]24,-08,00*68
[2024/10/02, 12:50:24.234]$GPRMC,045023,A,0114.4341,N,10338.9287[2024/10/02, 12:50:24.500],E,4.35,166.68,021024,0.16,E,D*2A
$GPRMB,A,,,,,,,,,,,,V,D*19
$GPG[2024/10/02, 12:50:24.641]GA,045023,0114.4341,N,10338.9287,E,2,15,0.74,-8.26,M,9.59,M,,*69
$[2024/10/02, 12:50:24.781]GPGSA,A,3,10,12,18,23,25,28,29,32,,,,,1.41,0.74,1.20*0B
$GPGSV,5,[2024/10/02, 12:50:24.922]1,18,05,01,125,17,10,22,346,18,12,22,084,29,18,64,176,23*77
$GPGSV,[2024/10/02, 12:50:25.062]5,2,18,23,43,027,23,25,42,122,30,28,50,235,26,29,15,160,24*77
$GPG[2024/10/02, 12:50:25.203]SV,5,3,18,32,25,316,17,50,42,091,27,,32,108,22,,47,145,27*72
$GPGS[2024/10/02, 12:50:25.344]V,5,4,18,,71,336,19,,01,149,20,,64,356,19,,63,178,24*71
$GPGSV,5,5[2024/10/02, 12:50:25.484],18,,27,282,19,,46,228,26*7B
$GPGLL,0114.4341,N,10338.9287,E,04502[2024/10/02, 12:50:25.625]3,A,D*49
$GPBOD,,T,,M,,*47
$GPBWC,045023,,,,,,T,,M,,N,,D*7E
$GP[2024/10/02, 12:50:25.765]VTG,166.68,T,166.52,M,4.35,N,8.06,K,D*23
$PGRME,15.56,M,19.54,M,24[2024/10/02, 12:50:25.906].98,M*27
$PGRMZ,-27,f,3*03
$PGRMM,WGS 84*06
$HCHDM,,M*07
$WIMW[2024/10/02, 12:50:26.047]V,,R,,,A*6D
$GPAPB,V,V,,,N,V,V,,,,,,,,N*68
$GPZDA,045023,02,10,2[2024/10/02, 12:50:26.156]024,-08,00*6A
[2024/10/02, 12:50:26.234]$GPRMC,045025,A,0114.4319,N,10338.9290[2024/10/02, 12:50:26.500],E,4.31,167.24,021024,0.16,E,D*2A
$GPRMB,A,,,,,,,,,,,,V,D*19
$GPG[2024/10/02, 12:50:26.640]GA,045025,0114.4319,N,10338.9290,E,2,15,0.74,-8.81,M,9.59,M,,*69
$[2024/10/02, 12:50:26.781]GPGSA,A,3,10,12,18,23,25,28,29,32,,,,,1.41,0.74,1.20*0B
$GPGSV,5,1[2024/10/02, 12:50:26.921],18,05,01,125,15,10,22,346,18,12,22,084,29,18,64,176,24*72
$GPGSV,[2024/10/02, 12:50:27.062]5,2,18,23,43,027,24,25,42,122,30,28,50,235,26,29,15,160,23*77
$GPG[2024/10/02, 12:50:27.203]SV,5,3,18,32,25,316,16,50,42,091,27,,32,108,25,,47,145,27*74
$GPGS[2024/10/02, 12:50:27.343]V,5,4,18,,71,336,19,,01,149,20,,64,356,18,,63,178,24*70
$GPGSV,5,5[2024/10/02, 12:50:27.484],18,,27,282,19,,46,228,25*78
$GPGLL,0114.4319,N,10338.9290,E,04502[2024/10/02, 12:50:27.624]5,A,D*44
$GPBOD,,T,,M,,*47
$GPBWC,045025,,,,,,T,,M,,N,,D*78
$GP[2024/10/02, 12:50:27.765]VTG,167.24,T,167.08,M,4.31,N,7.99,K,D*29
$PGRME,15.57,M,19.49,M,24[2024/10/02, 12:50:27.906].94,M*26
$PGRMZ,-29,f,3*0D
$PGRMM,WGS 84*06
$HCHDM,,M*07
$WIMW[2024/10/02, 12:50:28.046]V,,R,,,A*6D
$GPAPB,V,V,,,N,V,V,,,,,,,,N*68
$GPZDA,045025,02,10,20[2024/10/02, 12:50:28.155]24,-08,00*6C
[2024/10/02, 12:50:28.234]$GPRMC,045027,A,0114.4298,N,10338.9292[2024/10/02, 12:50:28.499],E,4.26,167.29,021024,0.16,E,D*29
$GPRMB,A,,,,,,,,,,,,V,D*19
$GPG[2024/10/02, 12:50:28.640]GA,045027,0114.4298,N,10338.9292,E,2,15,0.74,-9.82,M,9.59,M,,*63
$[2024/10/02, 12:50:28.780]GPGSA,A,3,10,12,18,23,25,28,29,32,,,,,1.41,0.74,1.20*0B
$GPGSV,5,[2024/10/02, 12:50:28.921]1,18,05,01,125,15,10,22,346,19,12,22,084,30,18,64,176,25*7A
$GPGSV,[2024/10/02, 12:50:29.061]5,2,18,23,43,027,24,25,42,122,30,28,50,235,25,29,15,160,24*73
$GPG[2024/10/02, 12:50:29.202]SV,5,3,18,32,25,316,18,50,42,091,27,,32,108,26,,47,145,27*79
$GPGS[2024/10/02, 12:50:29.343]V,5,4,18,,71,336,19,,01,149,18,,64,356,18,,63,178,24*7B
$GPGSV,5,5[2024/10/02, 12:50:29.483],18,,27,282,16,,46,228,26*74
$GPGLL,0114.4298,N,10338.9292,E,04502[2024/10/02, 12:50:29.624]7,A,D*4C
$GPBOD,,T,,M,,*47
$GPBWC,045027,,,,,,T,,M,,N,,D*7A
$GP[2024/10/02, 12:50:29.765]VTG,167.29,T,167.13,M,4.26,N,7.89,K,D*29
$PGRME,15.57,M,19.60,M,25[2024/10/02, 12:50:29.905].03,M*22
$PGRMZ,-32,f,3*07
$PGRMM,WGS 84*06
$HCHDM,,M*07
$WIMW[2024/10/02, 12:50:30.046]V,,R,,,A*6D
$GPAPB,V,V,,,N,V,V,,,,,,,,N*68
$GPZDA,045027,02,10,20[2024/10/02, 12:50:30.155]24,-08,00*6E
[2024/10/02, 12:50:30.233]$GPRMC,045029,A,0114.4272,N,10338.9297[2024/10/02, 12:50:30.499],E,4.22,168.49,021024,0.16,E,D*2B
$GPRMB,A,,,,,,,,,,,,V,D*19
$GP[2024/10/02, 12:50:30.639]GGA,045029,0114.4272,N,10338.9297,E,2,15,0.74,-10.36,M,9.59,M,,*5B[2024/10/02, 12:50:30.780]
$GPGSA,A,3,10,12,18,23,25,28,29,32,,,,,1.41,0.74,1.20*0B
$GPGSV,5[2024/10/02, 12:50:30.921],1,18,05,01,125,16,10,22,346,18,12,22,084,29,18,64,176,25*70
$GPGS[2024/10/02, 12:50:31.061]V,5,2,18,23,43,027,22,25,42,122,30,28,50,235,24,29,15,160,22*72
$G[2024/10/02, 12:50:31.202]PGSV,5,3,18,32,25,316,17,50,42,091,27,,32,108,23,,47,145,26*72
$GP[2024/10/02, 12:50:31.342]GSV,5,4,18,,71,336,20,,01,149,18,,64,356,17,,63,178,23*79
$GPGSV,5[2024/10/02, 12:50:31.483],5,18,,27,282,18,,46,228,25*79
$GPGLL,0114.4272,N,10338.9297,E,045[2024/10/02, 12:50:31.623]029,A,D*43
$GPBOD,,T,,M,,*47
$GPBWC,045029,,,,,,T,,M,,N,,D*74
$[2024/10/02, 12:50:31.764]GPVTG,168.49,T,168.33,M,4.22,N,7.82,K,D*22
$PGRME,15.58,M,19.78,M,[2024/10/02, 12:50:31.905]25.18,M*2E
$PGRMZ,-34,f,3*01
$PGRMM,WGS 84*06
$HCHDM,,M*07
$WI[2024/10/02, 12:50:32.045]MWV,,R,,,A*6D
$GPAPB,V,V,,,N,V,V,,,,,,,,N*68
$GPZDA,045029,02,10,[2024/10/02, 12:50:32.170]2024,-08,00*60
[2024/10/02, 12:50:32.248]$GPRMC,045031,A,0114.4249,N,10338.9302,E,4.17[2024/10/02, 12:50:32.514],168.71,021024,0.16,E,D*2A
$GPRMB,A,,,,,,,,,,,,V,D*19
$GPGGA,0450[2024/10/02, 12:50:32.654]31,0114.4249,N,10338.9302,E,2,15,0.74,-11.19,M,9.59,M,,*5B
$GPGSA[2024/10/02, 12:50:32.795],A,3,10,12,18,23,25,28,29,32,,,,,1.41,0.74,1.20*0B
$GPGSV,5,1,18,0[2024/10/02, 12:50:32.936]5,01,125,15,10,22,346,19,12,22,084,28,18,64,176,24*72
$GPGSV,5,2,1[2024/10/02, 12:50:33.076]8,23,43,027,24,25,42,122,30,28,50,235,26,29,15,160,24*70
$GPGSV,5,[2024/10/02, 12:50:33.217]3,18,32,25,316,17,50,42,091,27,,32,108,25,,47,145,27*75
$GPGSV,5,4[2024/10/02, 12:50:33.357],18,,71,336,19,,01,149,17,,64,356,18,,63,178,23*73
$GPGSV,5,5,18,,[2024/10/02, 12:50:33.498]27,282,20,,46,228,25*72
$GPGLL,0114.4249,N,10338.9302,E,045031,A,D[2024/10/02, 12:50:33.638]*4F
$GPBOD,,T,,M,,*47
$GPBWC,045031,,,,,,T,,M,,N,,D*7D
$GPVTG,16[2024/10/02, 12:50:33.779]8.71,T,168.55,M,4.17,N,7.73,K,D*21
$PGRME,15.59,M,19.86,M,25.24,M[2024/10/02, 12:50:33.920]*21
$PGRMZ,-37,f,3*02
$PGRMM,WGS 84*06
$HCHDM,,M*07
$WIMWV,,R,,[2024/10/02, 12:50:34.060],A*6D
$GPAPB,V,V,,,N,V,V,,,,,,,,N*68
$GPZDA,045031,02,10,2024,-0[2024/10/02, 12:50:34.170]8,00*69
[2024/10/02, 12:50:34.248]$GPRMC,045033,A,0114.4224,N,10338.9308,E,4.18[2024/10/02, 12:50:34.513],169.12,021024,0.16,E,D*22
$GPRMB,A,,,,,,,,,,,,V,D*19
$GPGGA,0450[2024/10/02, 12:50:34.654]33,0114.4224,N,10338.9308,E,2,15,0.74,-11.88,M,9.59,M,,*50
$GPGSA[2024/10/02, 12:50:34.794],A,3,10,12,18,23,25,28,29,32,,,,,1.41,0.74,1.20*0B
$GPGSV,5,1,18,0[2024/10/02, 12:50:34.935]5,01,125,17,10,22,346,18,12,22,084,30,18,64,176,25*79
$GPGSV,5,2,1[2024/10/02, 12:50:35.076]8,23,43,027,24,25,42,122,30,28,50,235,26,29,15,160,23*77
$GPGSV,5,[2024/10/02, 12:50:35.216]3,18,32,25,316,18,50,42,091,27,,32,108,24,,47,145,27*7B
$GPGSV,5,4[2024/10/02, 12:50:35.357],18,,71,336,19,,01,149,18,,64,356,19,,63,178,22*7C
$GPGSV,5,5,18,,[2024/10/02, 12:50:35.497]27,282,21,,46,228,24*72
$GPGLL,0114.4224,N,10338.9308,E,045033,A,D[2024/10/02, 12:50:35.638]*4C
$GPBOD,,T,,M,,*47
$GPBWC,045033,,,,,,T,,M,,N,,D*7F
$GPVTG,16[2024/10/02, 12:50:35.779]9.12,T,168.96,M,4.18,N,7.74,K,D*22
$PGRME,15.59,M,19.89,M,25.27,M[2024/10/02, 12:50:35.919]*2D
$PGRMZ,-39,f,3*0C
$PGRMM,WGS 84*06
$HCHDM,,M*07
$WIMWV,,R,[2024/10/02, 12:50:36.060],,A*6D
$GPAPB,V,V,,,N,V,V,,,,,,,,N*68
$GPZDA,045033,02,10,2024,-0[2024/10/02, 12:50:36.169]8,00*6B
[2024/10/02, 12:50:36.247]$GPRMC,045035,A,0114.4200,N,10338.9314,E,4.30[2024/10/02, 12:50:36.513],168.56,021024,0.16,E,D*24
$GPRMB,A,,,,,,,,,,,,V,D*19
$GPGGA,045[2024/10/02, 12:50:36.653]035,0114.4200,N,10338.9314,E,2,15,0.74,-12.38,M,9.59,M,,*55
$GPGSA[2024/10/02, 12:50:36.794],A,3,10,12,18,23,25,28,29,32,,,,,1.41,0.74,1.20*0B
$GPGSV,5,1,18,0[2024/10/02, 12:50:36.935]5,01,125,17,10,22,346,20,12,22,084,29,18,64,176,25*7A
$GPGSV,5,2,1[2024/10/02, 12:50:37.075]8,23,43,027,22,25,42,122,30,28,50,235,26,29,15,160,23*71
$GPGSV,5,[2024/10/02, 12:50:37.216]3,18,32,25,316,17,50,42,091,27,,32,108,25,,47,145,27*75
$GPGSV,5,4[2024/10/02, 12:50:37.356],18,,71,336,20,,01,149,18,,64,356,23,,63,178,23*7E
$GPGSV,5,5,18,,[2024/10/02, 12:50:37.497]27,282,19,,46,228,25*78
$GPGLL,0114.4200,N,10338.9314,E,045035,A,D[2024/10/02, 12:50:37.638]*41
$GPBOD,,T,,M,,*47
$GPBWC,045035,,,,,,T,,M,,N,,D*79
$GPVTG,1[2024/10/02, 12:50:37.778]68.56,T,168.40,M,4.30,N,7.96,K,D*2E
$PGRME,15.60,M,20.05,M,25.40,M[2024/10/02, 12:50:37.919]*28
$PGRMZ,-41,f,3*03
$PGRMM,WGS 84*06
$HCHDM,,M*07
$WIMWV,,R,[2024/10/02, 12:50:38.059],,A*6D
$GPAPB,V,V,,,N,V,V,,,,,,,,N*68
$GPZDA,045035,02,10,2024,-0[2024/10/02, 12:50:38.169]8,00*6D
[2024/10/02, 12:50:38.247]$GPRMC,045037,A,0114.4175,N,10338.9324,E,4.3[2024/10/02, 12:50:38.512]7,161.85,021024,0.16,E,D*24
$GPRMB,A,,,,,,,,,,,,V,D*19
$GPGGA,045[2024/10/02, 12:50:38.653]037,0114.4175,N,10338.9324,E,2,15,0.74,-12.33,M,9.59,M,,*5E
$GPGSA[2024/10/02, 12:50:38.794],A,3,10,12,18,23,25,28,29,32,,,,,1.41,0.74,1.20*0B
$GPGSV,5,1,18,[2024/10/02, 12:50:38.934]05,01,125,17,10,22,346,18,12,22,084,30,18,64,176,23*7F
$GPGSV,5,2,[2024/10/02, 12:50:39.075]18,23,43,027,23,25,42,122,30,28,50,235,24,29,15,160,23*72
$GPGSV,5,[2024/10/02, 12:50:39.215]3,18,32,25,316,19,50,42,091,27,,32,108,24,,47,145,27*7A
$GPGSV,5,4[2024/10/02, 12:50:39.356],18,,71,336,19,,01,149,15,,64,356,17,,63,178,23*7E
$GPGSV,5,5,18,,[2024/10/02, 12:50:39.496]27,282,18,,46,228,24*78
$GPGLL,0114.4175,N,10338.9324,E,045037,A,D[2024/10/02, 12:50:39.637]*41
$GPBOD,,T,,M,,*47
$GPBWC,045037,,,,,,T,,M,,N,,D*7B
$GPVTG,1[2024/10/02, 12:50:39.778]61.85,T,161.69,M,4.37,N,8.09,K,D*25
$PGRME,15.60,M,19.96,M,25.33,M[2024/10/02, 12:50:39.918]*2C
$PGRMZ,-40,f,3*02
$PGRMM,WGS 84*06
$HCHDM,,M*07
$WIMWV,,R,[2024/10/02, 12:50:40.059],,A*6D
$GPAPB,V,V,,,N,V,V,,,,,,,,N*68
$GPZDA,045037,02,10,2024,-0[2024/10/02, 12:50:40.168]8,00*6F
[2024/10/02, 12:50:40.246]$GPRMC,045039,A,0114.4152,N,10338.9324,E,4.2[2024/10/02, 12:50:40.512]4,180.73,021024,0.16,E,D*2B
$GPRMB,A,,,,,,,,,,,,V,D*19
$GPGGA,045[2024/10/02, 12:50:40.653]039,0114.4152,N,10338.9324,E,2,15,0.74,-12.84,M,9.59,M,,*59
$GPGS[2024/10/02, 12:50:40.793]A,A,3,10,12,18,23,25,28,29,32,,,,,1.41,0.74,1.20*0B
$GPGSV,5,1,18,[2024/10/02, 12:50:40.934]05,01,125,16,10,22,346,17,12,22,084,30,18,64,176,23*71
$GPGSV,5,2,[2024/10/02, 12:50:41.074]18,23,43,027,24,25,42,122,30,28,50,235,25,29,15,160,24*73
$GPGSV,5[2024/10/02, 12:50:41.215],3,18,32,25,316,19,50,42,091,27,,32,108,24,,47,145,26*7B
$GPGSV,5,[2024/10/02, 12:50:41.356]4,18,,71,336,16,,01,149,15,,64,356,19,,63,178,23*7F
$GPGSV,5,5,18,[2024/10/02, 12:50:41.496],27,282,19,,46,228,24*79
$GPGLL,0114.4152,N,10338.9324,E,045039,A,[2024/10/02, 12:50:41.637]D*4A
$GPBOD,,T,,M,,*47
$GPBWC,045039,,,,,,T,,M,,N,,D*75
$GPVTG,1[2024/10/02, 12:50:41.777]80.73,T,180.57,M,4.24,N,7.85,K,D*28
$PGRME,15.61,M,19.97,M,25.34,M[2024/10/02, 12:50:41.918]*2B
$PGRMZ,-42,f,3*00
$PGRMM,WGS 84*06
$HCHDM,,M*07
$WIMWV,,R,[2024/10/02, 12:50:42.058],,A*6D
$GPAPB,V,V,,,N,V,V,,,,,,,,N*68
$GPZDA,045039,02,10,2024,-[2024/10/02, 12:50:42.168]08,00*61
[2024/10/02, 12:50:42.246]$GPRMC,045041,A,0114.4132,N,10338.9326,E,4.0[2024/10/02, 12:50:42.511]9,179.07,021024,0.16,E,D*2A
$GPRMB,A,,,,,,,,,,,,V,D*19
$GPGGA,045[2024/10/02, 12:50:42.652]041,0114.4132,N,10338.9326,E,2,15,0.74,-13.16,M,9.59,M,,*58
$GPGS[2024/10/02, 12:50:42.793]A,A,3,10,12,18,23,25,28,29,32,,,,,1.41,0.74,1.20*0B
$GPGSV,5,1,18,[2024/10/02, 12:50:42.933]05,01,126,16,10,22,346,18,12,22,084,30,18,64,176,25*7B
$GPGSV,5,2,[2024/10/02, 12:50:43.074]18,23,43,027,21,25,42,122,30,28,50,235,24,29,15,160,24*77
$GPGSV,5[2024/10/02, 12:50:43.214],3,18,32,25,316,19,50,42,091,27,,32,108,24,,47,145,27*7A
$GPGSV,5,[2024/10/02, 12:50:43.355]4,18,,71,336,18,,01,149,17,,64,356,18,,63,178,22*73
$GPGSV,5,5,18,[2024/10/02, 12:50:43.496],27,282,19,,46,228,25*78
$GPGLL,0114.4132,N,10338.9326,E,045041,A,[2024/10/02, 12:50:43.636]D*41
$GPBOD,,T,,M,,*47
$GPBWC,045041,,,,,,T,,M,,N,,D*7A
$GPVTG,1[2024/10/02, 12:50:43.777]79.07,T,178.91,M,4.09,N,7.58,K,D*2F
$PGRME,15.61,M,19.91,M,25.30,[2024/10/02, 12:50:43.917]M*29
$PGRMZ,-43,f,3*01
$PGRMM,WGS 84*06
$HCHDM,,M*07
$WIMWV,,R[2024/10/02, 12:50:44.058],,,A*6D
$GPAPB,V,V,,,N,V,V,,,,,,,,N*68
$GPZDA,045041,02,10,2024,-[2024/10/02, 12:50:44.167]08,00*6E
[2024/10/02, 12:50:44.245]$GPRMC,045043,A,0114.4110,N,10338.9333,E,3.9[2024/10/02, 12:50:44.511]5,171.81,021024,0.16,E,D*28
$GPRMB,A,,,,,,,,,,,,V,D*19
$GPGGA,04[2024/10/02, 12:50:44.651]5043,0114.4110,N,10338.9333,E,2,15,0.74,-12.99,M,9.59,M,,*58
$GPGS[2024/10/02, 12:50:44.792]A,A,3,10,12,18,23,25,28,29,32,,,,,1.41,0.74,1.20*0B
$GPGSV,5,1,18,[2024/10/02, 12:50:44.933]05,01,126,19,10,22,346,16,12,22,084,30,18,64,176,24*7B
$GPGSV,5,2,[2024/10/02, 12:50:45.073]18,23,43,027,25,25,42,122,30,28,50,235,25,29,15,160,24*72
$GPGSV,5[2024/10/02, 12:50:45.214],3,18,32,25,316,17,50,42,091,27,,32,108,22,,47,145,28*7D
$GPGSV,5,[2024/10/02, 12:50:45.354]4,18,,71,336,18,,01,149,17,,64,356,18,,63,178,23*72
$GPGSV,5,5,18,[2024/10/02, 12:50:45.495],27,282,17,,46,228,26*75
$GPGLL,0114.4110,N,10338.9333,E,045043,A,[2024/10/02, 12:50:45.636]D*47
$GPBOD,,T,,M,,*47
$GPBWC,045043,,,,,,T,,M,,N,,D*78
$GPVTG,[2024/10/02, 12:50:45.776]171.81,T,171.65,M,3.95,N,7.32,K,D*25
$PGRME,15.62,M,19.92,M,25.31,[2024/10/02, 12:50:45.917]M*28
$PGRMZ,-43,f,3*01
$PGRMM,WGS 84*06
$HCHDM,,M*07
$WIMWV,,R[2024/10/02, 12:50:46.057],,,A*6D
$GPAPB,V,V,,,N,V,V,,,,,,,,N*68
$GPZDA,045043,02,10,2024,[2024/10/02, 12:50:46.167]-08,00*6C
[2024/10/02, 12:50:46.245]$GPRMC,045045,A,0114.4088,N,10338.9337,E,3.[2024/10/02, 12:50:46.511]84,172.62,021024,0.16,E,D*24
$GPRMB,A,,,,,,,,,,,,V,D*19
$GPGGA,04[2024/10/02, 12:50:46.651]5045,0114.4088,N,10338.9337,E,2,15,0.74,-12.81,M,9.59,M,,*53
$GPGS[2024/10/02, 12:50:46.792]A,A,3,10,12,18,23,25,28,29,32,,,,,1.41,0.74,1.20*0B
$GPGSV,5,1,18,[2024/10/02, 12:50:46.932]05,01,126,18,10,22,346,18,12,22,084,29,18,64,176,25*7D
$GPGSV,5,2,[2024/10/02, 12:50:47.073]18,23,43,027,26,25,42,122,29,28,50,235,24,29,15,160,25*79
$GPGSV,5[2024/10/02, 12:50:47.213],3,18,32,25,316,17,50,42,091,27,,32,108,23,,47,145,28*7C
$GPGSV,5,[2024/10/02, 12:50:47.354]4,18,,71,336,18,,01,149,17,,64,356,18,,63,178,22*73
$GPGSV,5,5,18,[2024/10/02, 12:50:47.495],27,282,14,,46,228,26*76
$GPGLL,0114.4088,N,10338.9337,E,045045,A,[2024/10/02, 12:50:47.635]D*45
$GPBOD,,T,,M,,*47
$GPBWC,045045,,,,,,T,,M,,N,,D*7E
$GPVTG,[2024/10/02, 12:50:47.776]172.62,T,172.46,M,3.84,N,7.12,K,D*2B
$PGRME,15.63,M,19.90,M,25.30,[2024/10/02, 12:50:47.916]M*2A
$PGRMZ,-42,f,3*00
$PGRMM,WGS 84*06
$HCHDM,,M*07
$WIMWV,,R[2024/10/02, 12:50:48.057],,,A*6D
$GPAPB,V,V,,,N,V,V,,,,,,,,N*68
$GPZDA,045045,02,10,2024,-[2024/10/02, 12:50:48.166]08,00*6A
[2024/10/02, 12:50:48.244]$GPRMC,045047,A,0114.4067,N,10338.9345,E,3.[2024/10/02, 12:50:48.510]87,169.22,021024,0.16,E,D*2F
$GPRMB,A,,,,,,,,,,,,V,D*19
$GPGGA,04[2024/10/02, 12:50:48.651]5047,0114.4067,N,10338.9345,E,2,15,0.74,-12.61,M,9.59,M,,*5B
$GPGS[2024/10/02, 12:50:48.791]A,A,3,10,12,18,23,25,28,29,32,,,,,1.41,0.74,1.20*0B
$GPGSV,5,1,18[2024/10/02, 12:50:48.932],05,01,126,17,10,22,346,15,12,22,084,30,18,64,176,24*76
$GPGSV,5,2[2024/10/02, 12:50:49.072],18,23,43,027,24,25,42,122,29,28,50,235,23,29,15,160,24*7D
$GPGSV,[2024/10/02, 12:50:49.213]5,3,18,32,25,316,17,50,42,091,27,,32,108,22,,47,145,28*7D
$GPGSV,5[2024/10/02, 12:50:49.354],4,18,,71,336,19,,01,149,17,,64,356,19,,63,178,24*75
$GPGSV,5,5,18[2024/10/02, 12:50:49.494],,27,282,13,,46,228,26*71
$GPGLL,0114.4067,N,10338.9345,E,045047,A[2024/10/02, 12:50:49.635],D*43
$GPBOD,,T,,M,,*47
$GPBWC,045047,,,,,,T,,M,,N,,D*7C
$GPVTG,[2024/10/02, 12:50:49.775]169.22,T,169.06,M,3.87,N,7.16,K,D*2C
$PGRME,15.63,M,19.84,M,25.26[2024/10/02, 12:50:49.916],M*28
$PGRMZ,-41,f,3*03
$PGRMM,WGS 84*06
$HCHDM,,M*07
$WIMWV,,[2024/10/02, 12:50:50.056]R,,,A*6D
$GPAPB,V,V,,,N,V,V,,,,,,,,N*68
$GPZDA,045047,02,10,2024,[2024/10/02, 12:50:50.166]-08,00*68
[2024/10/02, 12:50:50.244]$GPRMC,045049,A,0114.4047,N,10338.9352,E,3.[2024/10/02, 12:50:50.510]99,166.67,021024,0.16,E,D*24
$GPRMB,A,,,,,,,,,,,,V,D*19
$GPGGA,04[2024/10/02, 12:50:50.650]5049,0114.4047,N,10338.9352,E,2,15,0.74,-12.56,M,9.59,M,,*55
$GPG[2024/10/02, 12:50:50.791]SA,A,3,10,12,18,23,25,28,29,32,,,,,1.41,0.74,1.20*0B
$GPGSV,5,1,18[2024/10/02, 12:50:50.931],05,01,126,17,10,22,346,17,12,21,083,30,18,64,176,24*70
$GPGSV,5,2[2024/10/02, 12:50:51.072],18,23,43,027,24,25,42,122,30,28,50,235,26,29,15,160,23*77
$GPGSV,[2024/10/02, 12:50:51.212]5,3,18,32,25,316,17,50,42,091,27,,32,108,25,,47,145,28*7A
$GPGSV,5[2024/10/02, 12:50:51.353],4,18,,71,336,19,,01,149,17,,64,356,17,,63,178,22*7D
$GPGSV,5,5,18[2024/10/02, 12:50:51.494],,27,282,15,,46,228,25*74
$GPGLL,0114.4047,N,10338.9352,E,045049,A[2024/10/02, 12:50:51.634],D*49
$GPBOD,,T,,M,,*47
$GPBWC,045049,,,,,,T,,M,,N,,D*72
$GPVTG,[2024/10/02, 12:50:51.775]166.67,T,166.51,M,3.99,N,7.39,K,D*2D
$PGRME,15.63,M,19.82,M,25.24,[2024/10/02, 12:50:51.915]M*2C
$PGRMZ,-41,f,3*03
$PGRMM,WGS 84*06
$HCHDM,,M*07
$WIMWV,,R[2024/10/02, 12:50:52.056],,,A*6D
$GPAPB,V,V,,,N,V,V,,,,,,,,N*68
$GPZDA,045049,02,10,2024,[2024/10/02, 12:50:52.165]-08,00*66
[2024/10/02, 12:50:52.243]$GPRMC,045051,A,0114.4028,N,10338.9355,E,3.[2024/10/02, 12:50:52.509]94,167.45,021024,0.16,E,D*2F
$GPRMB,A,,,,,,,,,,,,V,D*19
$GPGGA,04[2024/10/02, 12:50:52.650]5051,0114.4028,N,10338.9355,E,2,15,0.74,-12.32,M,9.59,M,,*50
$GPG[2024/10/02, 12:50:52.790]SA,A,3,10,12,18,23,25,28,29,32,,,,,1.41,0.74,1.20*0B
$GPGSV,5,1,18[2024/10/02, 12:50:52.931],05,01,126,18,10,22,346,19,12,21,083,30,18,64,176,24*71
$GPGSV,5,2[2024/10/02, 12:50:53.072],18,23,43,027,25,25,42,122,30,28,50,235,25,29,15,160,25*73
$GPGSV,[2024/10/02, 12:50:53.212]5,3,18,32,25,316,18,50,42,091,27,,32,108,24,,47,145,28*74
$GPGSV,5[2024/10/02, 12:50:53.353],4,18,,71,336,20,,01,149,16,,64,356,19,,63,178,23*79
$GPGSV,5,5,18[2024/10/02, 12:50:53.493],,27,282,19,,46,228,25*78
$GPGLL,0114.4028,N,10338.9355,E,045051,A[2024/10/02, 12:50:53.634],D*4E
$GPBOD,,T,,M,,*47
$GPBWC,045051,,,,,,T,,M,,N,,D*7B
$GPVTG[2024/10/02, 12:50:53.774],167.45,T,167.29,M,3.94,N,7.30,K,D*26
$PGRME,15.63,M,19.77,M,25.20[2024/10/02, 12:50:53.915],M*22
$PGRMZ,-40,f,3*02
$PGRMM,WGS 84*06
$HCHDM,,M*07
$WIMWV,,[2024/10/02, 12:50:54.056]R,,,A*6D
$GPAPB,V,V,,,N,V,V,,,,,,,,N*68
$GPZDA,045051,02,10,2024,[2024/10/02, 12:50:54.165]-08,00*6F
[2024/10/02, 12:50:54.243]$GPRMC,045053,A,0114.4007,N,10338.9358,E,3[2024/10/02, 12:50:54.509].89,168.17,021024,0.16,E,D*29
$GPRMB,A,,,,,,,,,,,,V,D*19
$GPGGA,[2024/10/02, 12:50:54.649]045053,0114.4007,N,10338.9358,E,2,15,0.74,-12.06,M,9.59,M,,*55
$GP[2024/10/02, 12:50:54.790]GSA,A,3,10,12,18,23,25,28,29,32,,,,,1.41,0.74,1.20*0B
$GPGSV,5,1,1[2024/10/02, 12:50:54.930]8,05,01,126,20,10,22,346,17,12,21,083,30,18,64,176,24*74
$GPGSV,5,[2024/10/02, 12:50:55.071]2,18,23,43,027,24,25,42,122,30,28,50,235,25,29,15,160,25*72
$GPGSV[2024/10/02, 12:50:55.211],5,3,18,32,25,316,18,50,42,091,27,,32,108,25,,47,145,28*75
$GPGSV,[2024/10/02, 12:50:55.352]5,4,18,,71,336,19,,01,149,15,,64,356,19,,63,178,23*70
$GPGSV,5,5,1[2024/10/02, 12:50:55.493]8,,27,282,18,,46,228,24*78
$GPGLL,0114.4007,N,10338.9358,E,045053,[2024/10/02, 12:50:55.633]A,D*4C
$GPBOD,,T,,M,,*47
$GPBWC,045053,,,,,,T,,M,,N,,D*79
$GPVT[2024/10/02, 12:50:55.774]G,168.17,T,168.01,M,3.89,N,7.20,K,D*26
$PGRME,15.59,M,19.84,M,25.2[2024/10/02, 12:50:55.914]3,M*24
$PGRMZ,-40,f,3*02
$PGRMM,WGS 84*06
$HCHDM,,M*07
$WIMWV,[2024/10/02, 12:50:56.055],R,,,A*6D
$GPAPB,V,V,,,N,V,V,,,,,,,,N*68
$GPZDA,045053,02,10,2024[2024/10/02, 12:50:56.164],-08,00*6D
[2024/10/02, 12:50:56.242]$GPRMC,045055,A,0114.3986,N,10338.9363,E,3[2024/10/02, 12:50:56.508].88,169.61,021024,0.16,E,D*21
$GPRMB,A,,,,,,,,,,,,V,D*19
$GPGGA,0[2024/10/02, 12:50:56.649]45055,0114.3986,N,10338.9363,E,2,15,0.74,-11.98,M,9.59,M,,*58
$GPG[2024/10/02, 12:50:56.789]SA,A,3,10,12,18,23,25,28,29,32,,,,,1.41,0.74,1.20*0B
$GPGSV,5,1,18[2024/10/02, 12:50:56.930],05,01,126,18,10,22,346,15,12,21,083,30,18,64,176,24*7D
$GPGSV,5,2[2024/10/02, 12:50:57.070],18,23,43,027,26,25,42,122,29,28,50,235,25,29,15,160,24*79
$GPGSV,[2024/10/02, 12:50:57.211]5,3,18,32,25,316,18,50,42,091,27,,32,108,24,,47,145,28*74
$GPGSV,5[2024/10/02, 12:50:57.352],4,18,,71,336,19,,01,149,15,,64,356,18,,63,178,22*70
$GPGSV,5,5,18[2024/10/02, 12:50:57.492],,27,282,14,,46,228,26*76
$GPGLL,0114.3986,N,10338.9363,E,045055,A[2024/10/02, 12:50:57.633],D*45
$GPBOD,,T,,M,,*47
$GPBWC,045055,,,,,,T,,M,,N,,D*7F
$GPVTG[2024/10/02, 12:50:57.773],169.61,T,169.45,M,3.88,N,7.18,K,D*2D
$PGRME,15.42,M,19.72,M,25.03[2024/10/02, 12:50:57.914],M*25
$PGRMZ,-39,f,3*0C
$PGRMM,WGS 84*06
$HCHDM,,M*07
$WIMWV,,[2024/10/02, 12:50:58.055]R,,,A*6D
$GPAPB,V,V,,,N,V,V,,,,,,,,N*68
$GPZDA,045055,02,10,2024,[2024/10/02, 12:50:58.164]-08,00*6B
[2024/10/02, 12:50:58.242]$GPRMC,045057,A,0114.3965,N,10338.9367,E,3[2024/10/02, 12:50:58.508].84,171.56,021024,0.16,E,D*2B
$GPRMB,A,,,,,,,,,,,,V,D*19
$GPGGA,0[2024/10/02, 12:50:58.648]45057,0114.3965,N,10338.9367,E,2,15,0.74,-12.11,M,9.59,M,,*51
$GP[2024/10/02, 12:50:58.789]GSA,A,3,10,12,18,23,25,28,29,32,,,,,1.41,0.74,1.20*0B
$GPGSV,5,1,1[2024/10/02, 12:50:58.929]8,05,01,126,23,10,22,346,15,12,21,083,30,18,64,176,26*77
$GPGSV,5,[2024/10/02, 12:50:59.070]2,18,23,43,027,26,25,42,122,30,28,50,235,24,29,15,160,25*71
$GPGSV[2024/10/02, 12:50:59.211],5,3,18,32,25,316,18,50,42,091,27,,32,108,23,,47,145,28*73
$GPGSV,5[2024/10/02, 12:50:59.351],4,18,,71,336,19,,01,149,14,,64,356,19,,63,178,23*71
$GPGSV,5,5,18[2024/10/02, 12:50:59.492],,27,282,14,,46,228,26*76
$GPGLL,0114.3965,N,10338.9367,E,045057,A[2024/10/02, 12:50:59.632],D*4E
$GPBOD,,T,,M,,*47
$GPBWC,045057,,,,,,T,,M,,N,,D*7D
$GPVTG[2024/10/02, 12:50:59.773],171.56,T,171.40,M,3.84,N,7.11,K,D*29
$PGRME,15.28,M,19.75,M,24.97[2024/10/02, 12:50:59.914],M*22
$PGRMZ,-40,f,3*02
$PGRMM,WGS 84*06
$HCHDM,,M*07
$WIMWV,,[2024/10/02, 12:51:00.054]R,,,A*6D
$GPAPB,V,V,,,N,V,V,,,,,,,,N*68
$GPZDA,045057,02,10,2024[2024/10/02, 12:51:00.163],-08,00*69
[2024/10/02, 12:51:00.242]$GPRMC,045059,A,0114.3945,N,10338.9373,E,3[2024/10/02, 12:51:00.507].84,170.97,021024,0.16,E,D*2E
$GPRMB,A,,,,,,,,,,,,V,D*19
$GPGGA,0[2024/10/02, 12:51:00.648]45059,0114.3945,N,10338.9373,E,2,15,0.74,-12.00,M,9.59,M,,*58
$GP[2024/10/02, 12:51:00.788]GSA,A,3,10,12,18,23,25,28,29,32,,,,,1.41,0.74,1.20*0B
$GPGSV,5,1,1[2024/10/02, 12:51:00.929]8,05,01,126,21,10,22,346,15,12,21,083,30,18,64,176,24*77
$GPGSV,5,[2024/10/02, 12:51:01.069]2,18,23,43,027,26,25,42,122,30,28,50,235,24,29,15,160,24*70
$GPGSV[2024/10/02, 12:51:01.210],5,3,18,32,25,316,21,50,42,091,27,,32,108,23,,47,145,28*79
$GPGSV,[2024/10/02, 12:51:01.351]5,4,18,,71,336,19,,01,149,16,,64,356,18,,63,178,23*72
$GPGSV,5,5,1[2024/10/02, 12:51:01.491]8,,27,282,13,,46,228,26*71
$GPGLL,0114.3945,N,10338.9373,E,045059,[2024/10/02, 12:51:01.632]A,D*47
$GPBOD,,T,,M,,*47
$GPBWC,045059,,,,,,T,,M,,N,,D*73
$GPVT[2024/10/02, 12:51:01.772]G,170.97,T,170.81,M,3.84,N,7.10,K,D*28
$PGRME,15.26,M,19.92,M,25.0[2024/10/02, 12:51:01.913]9,M*23
$PGRMZ,-39,f,3*0C
$PGRMM,WGS 84*06
$HCHDM,,M*07
$WIMWV,[2024/10/02, 12:51:02.054],R,,,A*6D
$GPAPB,V,V,,,N,V,V,,,,,,,,N*68
$GPZDA,045059,02,10,2024[2024/10/02, 12:51:02.163],-08,00*67
[2024/10/02, 12:51:02.241]$GPRMC,045101,A,0114.3925,N,10338.9380,E,3[2024/10/02, 12:51:02.507].83,169.77,021024,0.16,E,D*29
$GPRMB,A,,,,,,,,,,,,V,D*19
$GPGGA,0[2024/10/02, 12:51:02.647]45101,0114.3925,N,10338.9380,E,2,15,0.74,-11.75,M,9.59,M,,*5F
$GP[2024/10/02, 12:51:02.788]GSA,A,3,10,12,18,23,25,28,29,32,,,,,1.41,0.74,1.20*0B
$GPGSV,5,1,1[2024/10/02, 12:51:02.929]8,05,01,126,20,10,22,346,15,12,21,083,30,18,64,176,24*76
$GPGSV,5,[2024/10/02, 12:51:03.069]2,18,23,43,027,24,25,42,122,29,28,50,235,26,29,15,160,24*78
$GPGSV[2024/10/02, 12:51:03.210],5,3,18,32,25,316,21,50,42,091,27,,32,108,21,,47,145,28*7B
$GPGSV,[2024/10/02, 12:51:03.350]5,4,18,,71,336,19,,01,149,16,,64,356,17,,63,178,23*7D
$GPGSV,5,5,1[2024/10/02, 12:51:03.491]8,,27,282,13,,46,228,25*72
$GPGLL,0114.3925,N,10338.9380,E,045101,[2024/10/02, 12:51:03.631]A,D*41
$GPBOD,,T,,M,,*47
$GPBWC,045101,,,,,,T,,M,,N,,D*7F
$GPVTG[2024/10/02, 12:51:03.772],169.77,T,169.61,M,3.83,N,7.10,K,D*2F
$PGRME,15.26,M,19.94,M,25.1[2024/10/02, 12:51:03.913]1,M*2C
$PGRMZ,-39,f,3*0C
$PGRMM,WGS 84*06
$HCHDM,,M*07
$WIMWV,,[2024/10/02, 12:51:04.053]R,,,A*6D
$GPAPB,V,V,,,N,V,V,,,,,,,,N*68
$GPZDA,045101,02,10,2024[2024/10/02, 12:51:04.163],-08,00*6B
[2024/10/02, 12:51:04.241]$GPRMC,045103,A,0114.3905,N,10338.9386,E,3[2024/10/02, 12:51:04.506].81,169.26,021024,0.16,E,D*29
$GPRMB,A,,,,,,,,,,,,V,D*19
$GPGGA,[2024/10/02, 12:51:04.647]045103,0114.3905,N,10338.9386,E,2,15,0.74,-11.97,M,9.59,M,,*55
$GP[2024/10/02, 12:51:04.787]GSA,A,3,10,12,18,23,25,28,29,32,,,,,1.41,0.74,1.20*0B
$GPGSV,5,1,1[2024/10/02, 12:51:04.928]8,05,01,126,16,10,22,346,13,12,21,083,30,18,64,176,24*75
$GPGSV,5,[2024/10/02, 12:51:05.069]2,18,23,43,027,22,25,42,122,29,28,50,235,26,29,15,160,25*7F
$GPGSV[2024/10/02, 12:51:05.209],5,3,18,32,25,316,20,50,42,091,27,,32,108,25,,47,145,28*7E
$GPGSV,[2024/10/02, 12:51:05.350]5,4,18,,71,336,18,,01,149,16,,64,356,20,,63,178,25*7E
$GPGSV,5,5,1[2024/10/02, 12:51:05.490]8,,27,282,15,,46,228,25*74
$GPGLL,0114.3905,N,10338.9386,E,045103[2024/10/02, 12:51:05.631],A,D*47
$GPBOD,,T,,M,,*47
$GPBWC,045103,,,,,,T,,M,,N,,D*7D
$GPVT[2024/10/02, 12:51:05.772]G,169.26,T,169.10,M,3.81,N,7.06,K,D*28
$PGRME,15.27,M,20.02,M,25.1[2024/10/02, 12:51:05.912]8,M*21
$PGRMZ,-39,f,3*0C
$PGRMM,WGS 84*06
$HCHDM,,M*07
$WIMWV,[2024/10/02, 12:51:06.053],R,,,A*6D
$GPAPB,V,V,,,N,V,V,,,,,,,,N*68
$GPZDA,045103,02,10,202[2024/10/02, 12:51:06.162]4,-08,00*69
[2024/10/02, 12:51:06.240]$GPRMC,045105,A,0114.3885,N,10338.9391,E,[2024/10/02, 12:51:06.506]3.81,168.02,021024,0.16,E,D*27
$GPRMB,A,,,,,,,,,,,,V,D*19
$GPGGA,[2024/10/02, 12:51:06.646]045105,0114.3885,N,10338.9391,E,2,15,0.74,-12.38,M,9.59,M,,*5A
$GP[2024/10/02, 12:51:06.787]GSA,A,3,10,12,18,23,25,28,29,32,,,,,1.41,0.74,1.20*0B
